{
    "type": "FeatureCollection",
    "features": [
        {
            "type": "Feature",
            "properties": {
                "label:cs": "Kříž v Načetíně v zahradě",
                "P31": "Pamětní kříž",
                "P131^label:cs": "Hora Svatého Václava",
                "P6736": "11462"
            },
            "geometry": {
                "type": "Point",
                "coordinates": [
                    12.74811,
                    49.51072
                ]
            }
        },
        {
            "type": "Feature",
            "properties": {
                "label:cs": "Kříž jihovýchodně od Načetína",
                "P31": "Pamětní kříž",
                "P131^label:cs": "Hora Svatého Václava",
                "P6736": "11461"
            },
            "geometry": {
                "type": "Point",
                "coordinates": [
                    12.75595,
                    49.50993
                ]
            }
        },
        {
            "type": "Feature",
            "properties": {
                "label:cs": "Obrázek u Hory Svatého Václava",
                "P31": "Obrázek",
                "P131^label:cs": "Hora Svatého Václava",
                "P6736": "10430"
            },
            "geometry": {
                "type": "Point",
                "coordinates": [
                    12.7446,
                    49.51961
                ]
            }
        },
        {
            "type": "Feature",
            "properties": {
                "label:cs": "Kříž na zídce v Načetíně",
                "P31": "Pamětní kříž",
                "P131^label:cs": "Hora Svatého Václava",
                "P6736": "6620"
            },
            "geometry": {
                "type": "Point",
                "coordinates": [
                    12.74811,
                    49.51131
                ]
            }
        },
        {
            "type": "Feature",
            "properties": {
                "label:cs": "Kříž ve Hvožďanech u rybníčku",
                "P31": "Pamětní kříž",
                "P131^label:cs": "Hvožďany",
                "P6736": "5088"
            },
            "geometry": {
                "type": "Point",
                "coordinates": [
                    12.77233,
                    49.50621
                ]
            }
        },
        {
            "type": "Feature",
            "properties": {
                "label:cs": "Kříž v Drahotíně u bytovek",
                "P31": "Pamětní kříž",
                "P131^label:cs": "Drahotín",
                "P6736": "4170"
            },
            "geometry": {
                "type": "Point",
                "coordinates": [
                    12.75809,
                    49.52374
                ]
            }
        },
        {
            "type": "Feature",
            "properties": {
                "label:cs": "Kaple v Mnichově",
                "P31": "Kaple",
                "P131^label:cs": "Mnichov",
                "P6736": "4139"
            },
            "geometry": {
                "type": "Point",
                "coordinates": [
                    12.76537,
                    49.49817
                ]
            }
        },
        {
            "type": "Feature",
            "properties": {
                "label:cs": "Socha svatého Jana Nepomuckého v Mnichově",
                "P31": "Socha",
                "P131^label:cs": "Mnichov",
                "P6736": "4138"
            },
            "geometry": {
                "type": "Point",
                "coordinates": [
                    12.76421,
                    49.49669
                ]
            }
        },
        {
            "type": "Feature",
            "properties": {
                "label:cs": "Kříž severně od Hvožďan",
                "P31": "Pamětní kříž",
                "P131^label:cs": "Hvožďany",
                "P6736": "3985"
            },
            "geometry": {
                "type": "Point",
                "coordinates": [
                    12.76904,
                    49.50786
                ]
            }
        },
        {
            "type": "Feature",
            "properties": {
                "label:cs": "Kříž západně od Drahotína u pole",
                "P31": "Pamětní kříž",
                "P131^label:cs": "Drahotín",
                "P6736": "3411"
            },
            "geometry": {
                "type": "Point",
                "coordinates": [
                    12.75195,
                    49.52267
                ]
            }
        },
        {
            "type": "Feature",
            "properties": {
                "label:cs": "Kříž severně od Hory Svatého Václava",
                "P31": "Pamětní kříž",
                "P131^label:cs": "Drahotín",
                "P6736": "3410"
            },
            "geometry": {
                "type": "Point",
                "coordinates": [
                    12.74449,
                    49.52485
                ]
            }
        },
        {
            "type": "Feature",
            "properties": {
                "label:cs": "Kříž západně od Šitboře",
                "P31": "Pamětní kříž",
                "P131^label:cs": "Poběžovice",
                "P6736": "3212"
            },
            "geometry": {
                "type": "Point",
                "coordinates": [
                    12.78596,
                    49.49864
                ]
            }
        },
        {
            "type": "Feature",
            "properties": {
                "label:cs": "Kříž nad Poběžovicemi v polích",
                "P31": "Pamětní kříž",
                "P131^label:cs": "Poběžovice",
                "P6736": "2319"
            },
            "geometry": {
                "type": "Point",
                "coordinates": [
                    12.78516,
                    49.51418
                ]
            }
        },
        {
            "type": "Feature",
            "properties": {
                "label:cs": "Kříž v Načetíně na návsi",
                "P31": "Pamětní kříž",
                "P131^label:cs": "Hora Svatého Václava",
                "P6736": "2143"
            },
            "geometry": {
                "type": "Point",
                "coordinates": [
                    12.74803,
                    49.5122
                ]
            }
        },
        {
            "type": "Feature",
            "properties": {
                "label:cs": "Kaple jižně od Načetína",
                "P31": "Kaple",
                "P131^label:cs": "Hora Svatého Václava",
                "P6736": "2142"
            },
            "geometry": {
                "type": "Point",
                "coordinates": [
                    12.74863,
                    49.51041
                ]
            }
        },
        {
            "type": "Feature",
            "properties": {
                "label:cs": "Kříž v parku u Lačné",
                "P31": "Pamětní kříž",
                "P131^label:cs": "Hora Svatého Václava",
                "P6736": "2139"
            },
            "geometry": {
                "type": "Point",
                "coordinates": [
                    12.74783,
                    49.50909
                ]
            }
        },
        {
            "type": "Feature",
            "properties": {
                "label:cs": "Kříž jižně od Lačné",
                "P31": "Pamětní kříž",
                "P131^label:cs": "Hora Svatého Václava",
                "P6736": "2140"
            },
            "geometry": {
                "type": "Point",
                "coordinates": [
                    12.74762,
                    49.50619
                ]
            }
        },
        {
            "type": "Feature",
            "properties": {
                "label:cs": "Kříž na křižovatce jižně od Hvožďan",
                "P31": "Pamětní kříž",
                "P131^label:cs": "Hvožďany",
                "P6736": "1609"
            },
            "geometry": {
                "type": "Point",
                "coordinates": [
                    12.76735,
                    49.50051
                ]
            }
        },
        {
            "type": "Feature",
            "properties": {
                "label:cs": "Kříž u křižovatky pod Hvožďany",
                "P31": "Pamětní kříž",
                "P131^label:cs": "Hvožďany",
                "P6736": "1608"
            },
            "geometry": {
                "type": "Point",
                "coordinates": [
                    12.78593,
                    49.50748
                ]
            }
        },
        {
            "type": "Feature",
            "properties": {
                "label:cs": "Kříž u cesty nad Hvožďany",
                "P31": "Pamětní kříž",
                "P131^label:cs": "Hvožďany",
                "P6736": "1607"
            },
            "geometry": {
                "type": "Point",
                "coordinates": [
                    12.76621,
                    49.50683
                ]
            }
        },
        {
            "type": "Feature",
            "properties": {
                "label:cs": "Kříž u cesty na Šitboř",
                "P31": "Pamětní kříž",
                "P131^label:cs": "Hvožďany",
                "P6736": "1610"
            },
            "geometry": {
                "type": "Point",
                "coordinates": [
                    12.78105,
                    49.50354
                ]
            }
        },
        {
            "type": "Feature",
            "properties": {
                "label:cs": "Kříž u cesty východně od Hory Svatého Václava",
                "P31": "Pamětní kříž",
                "P131^label:cs": "Drahotín",
                "P6736": "1452"
            },
            "geometry": {
                "type": "Point",
                "coordinates": [
                    12.75573,
                    49.52198
                ]
            }
        },
        {
            "type": "Feature",
            "properties": {
                "label:cs": "Kříž v lese jihovýchodně od Drahotína",
                "P31": "Pamětní kříž",
                "P131^label:cs": "Drahotín",
                "P6736": "1456"
            },
            "geometry": {
                "type": "Point",
                "coordinates": [
                    12.76951,
                    49.5203
                ]
            }
        },
        {
            "type": "Feature",
            "properties": {
                "label:cs": "Kříž u brodu západně od Drahotína",
                "P31": "Pamětní kříž",
                "P131^label:cs": "Drahotín",
                "P6736": "1451"
            },
            "geometry": {
                "type": "Point",
                "coordinates": [
                    12.75126,
                    49.5234
                ]
            }
        },
        {
            "type": "Feature",
            "properties": {
                "label:cs": "Kříž v křoví jižně od Drahotína",
                "P31": "Pamětní kříž",
                "P131^label:cs": "Drahotín",
                "P6736": "1454"
            },
            "geometry": {
                "type": "Point",
                "coordinates": [
                    12.76521,
                    49.51864
                ]
            }
        }
    ]
}