{
    "type": "FeatureCollection",
    "features": [
        {
            "type": "Feature",
            "properties": {
                "label:cs": "Neznámý objekt na návsi v Mnichově",
                "P31": "Neznámý",
                "P131^label:cs": "Mnichov",
                "P6736": "15175"
            },
            "geometry": {
                "type": "Point",
                "coordinates": [
                    12.78745,
                    50.03627
                ]
            }
        },
        {
            "type": "Feature",
            "properties": {
                "label:cs": "Kašna na návsi v Mnichově",
                "P31": "Kašna",
                "P131^label:cs": "Mnichov",
                "P6736": "15174"
            },
            "geometry": {
                "type": "Point",
                "coordinates": [
                    12.78752,
                    50.03637
                ]
            }
        },
        {
            "type": "Feature",
            "properties": {
                "label:cs": "Křížový kámen na návsi v Mnichově",
                "P31": "Křížový kámen",
                "P131^label:cs": "Mnichov",
                "P6736": "15173"
            },
            "geometry": {
                "type": "Point",
                "coordinates": [
                    12.78667,
                    50.03672
                ]
            }
        },
        {
            "type": "Feature",
            "properties": {
                "label:cs": "Památník na návsi v Mnichově",
                "P31": "Památník",
                "P131^label:cs": "Mnichov",
                "P6736": "15172"
            },
            "geometry": {
                "type": "Point",
                "coordinates": [
                    12.78678,
                    50.03685
                ]
            }
        },
        {
            "type": "Feature",
            "properties": {
                "label:cs": "Podstavec před kostelem v Mnichově",
                "P31": "Něco jiného",
                "P131^label:cs": "Mnichov",
                "P6736": "15171"
            },
            "geometry": {
                "type": "Point",
                "coordinates": [
                    12.78639,
                    50.03716
                ]
            }
        },
        {
            "type": "Feature",
            "properties": {
                "label:cs": "Socha u kostela v Mnichově",
                "P31": "Plastika",
                "P131^label:cs": "Mnichov",
                "P6736": "15170"
            },
            "geometry": {
                "type": "Point",
                "coordinates": [
                    12.78607,
                    50.03714
                ]
            }
        },
        {
            "type": "Feature",
            "properties": {
                "label:cs": "Socha u kostela v Mnichově",
                "P31": "Socha",
                "P131^label:cs": "Mnichov",
                "P6736": "15169"
            },
            "geometry": {
                "type": "Point",
                "coordinates": [
                    12.78633,
                    50.03714
                ]
            }
        },
        {
            "type": "Feature",
            "properties": {
                "label:cs": "Pamětní kříž před kostelem v Mnichově",
                "P31": "Pamětní kříž",
                "P131^label:cs": "Mnichov",
                "P6736": "15168"
            },
            "geometry": {
                "type": "Point",
                "coordinates": [
                    12.78612,
                    50.03722
                ]
            }
        },
        {
            "type": "Feature",
            "properties": {
                "label:cs": "Křížový kámen v Mnichově jihozápadně od kostelu",
                "P31": "Křížový kámen",
                "P131^label:cs": "Mnichov",
                "P6736": "15167"
            },
            "geometry": {
                "type": "Point",
                "coordinates": [
                    12.78522,
                    50.03693
                ]
            }
        }
    ]
}