{
    "type": "FeatureCollection",
    "features": [
        {
            "type": "Feature",
            "properties": {
                "label:cs": "Pomník padlým u Kurojed",
                "P31": "Pomník padlým",
                "P131^label:cs": "Bor",
                "P6736": "3734"
            },
            "geometry": {
                "type": "Point",
                "coordinates": [
                    12.82535,
                    49.75361
                ]
            }
        },
        {
            "type": "Feature",
            "properties": {
                "label:cs": "Kaple v Kurojedech",
                "P31": "Kaple",
                "P131^label:cs": "Bor",
                "P6736": "3733"
            },
            "geometry": {
                "type": "Point",
                "coordinates": [
                    12.8229,
                    49.75415
                ]
            }
        },
        {
            "type": "Feature",
            "properties": {
                "label:cs": "Kaple v Horním Plezomu",
                "P31": "Kaple",
                "P131^label:cs": "Ošelín",
                "P6736": "3730"
            },
            "geometry": {
                "type": "Point",
                "coordinates": [
                    12.82508,
                    49.7663
                ]
            }
        },
        {
            "type": "Feature",
            "properties": {
                "label:cs": "Kříž v Horním Plezomu",
                "P31": "Pamětní kříž",
                "P131^label:cs": "Ošelín",
                "P6736": "3729"
            },
            "geometry": {
                "type": "Point",
                "coordinates": [
                    12.82462,
                    49.7665
                ]
            }
        },
        {
            "type": "Feature",
            "properties": {
                "label:cs": "Kříž u Horního Plezomu",
                "P31": "Pamětní kříž",
                "P131^label:cs": "Ošelín",
                "P6736": "3728"
            },
            "geometry": {
                "type": "Point",
                "coordinates": [
                    12.82298,
                    49.76664
                ]
            }
        },
        {
            "type": "Feature",
            "properties": {
                "label:cs": "Kříž ve Velké Vsi",
                "P31": "Pamětní kříž",
                "P131^label:cs": "Bor",
                "P6736": "3727"
            },
            "geometry": {
                "type": "Point",
                "coordinates": [
                    12.80644,
                    49.77393
                ]
            }
        },
        {
            "type": "Feature",
            "properties": {
                "label:cs": "Kříž na rozcestí u Velké Vsi",
                "P31": "Pamětní kříž",
                "P131^label:cs": "Bor",
                "P6736": "2733"
            },
            "geometry": {
                "type": "Point",
                "coordinates": [
                    12.80488,
                    49.77597
                ]
            }
        },
        {
            "type": "Feature",
            "properties": {
                "label:cs": "Kaple u Velké Vsi",
                "P31": "Kaple",
                "P131^label:cs": "Bor",
                "P6736": "2732"
            },
            "geometry": {
                "type": "Point",
                "coordinates": [
                    12.80588,
                    49.77532
                ]
            }
        },
        {
            "type": "Feature",
            "properties": {
                "label:cs": "Kříž nad Kurojedy",
                "P31": "Pamětní kříž",
                "P131^label:cs": "Bor",
                "P6736": "1859"
            },
            "geometry": {
                "type": "Point",
                "coordinates": [
                    12.81839,
                    49.75854
                ]
            }
        }
    ]
}