{
    "type": "FeatureCollection",
    "features": [
        {
            "type": "Feature",
            "properties": {
                "label:cs": "Pomník padlým na hřbitově v Šitboři",
                "P31": "Pomník padlým",
                "P131^label:cs": "Poběžovice",
                "P6736": "16075"
            },
            "geometry": {
                "type": "Point",
                "coordinates": [
                    12.78947,
                    49.49873
                ]
            }
        },
        {
            "type": "Feature",
            "properties": {
                "label:cs": "Kříž na hřbitově u Poběžovic",
                "P31": "Pamětní kříž",
                "P131^label:cs": "Poběžovice",
                "P6736": "5103"
            },
            "geometry": {
                "type": "Point",
                "coordinates": [
                    12.80485,
                    49.51775
                ]
            }
        },
        {
            "type": "Feature",
            "properties": {
                "label:cs": "Kaple severně od Poběžovic",
                "P31": "Kaple",
                "P131^label:cs": "Poběžovice",
                "P6736": "5102"
            },
            "geometry": {
                "type": "Point",
                "coordinates": [
                    12.80554,
                    49.51782
                ]
            }
        },
        {
            "type": "Feature",
            "properties": {
                "label:cs": "Památník druhé světové války u Poběžovic",
                "P31": "Památník",
                "P131^label:cs": "Poběžovice",
                "P6736": "5101"
            },
            "geometry": {
                "type": "Point",
                "coordinates": [
                    12.80467,
                    49.5175
                ]
            }
        },
        {
            "type": "Feature",
            "properties": {
                "label:cs": "Pomník pochodu smrti u Poběžovic",
                "P31": "Pomník padlým",
                "P131^label:cs": "Poběžovice",
                "P6736": "5100"
            },
            "geometry": {
                "type": "Point",
                "coordinates": [
                    12.80613,
                    49.51762
                ]
            }
        },
        {
            "type": "Feature",
            "properties": {
                "label:cs": "Kašna v Poběžovicích u kostela",
                "P31": "Kašna",
                "P131^label:cs": "Poběžovice",
                "P6736": "5099"
            },
            "geometry": {
                "type": "Point",
                "coordinates": [
                    12.8017,
                    49.51044
                ]
            }
        },
        {
            "type": "Feature",
            "properties": {
                "label:cs": "Socha v Poběžovicích ve vodní nádrži",
                "P31": "Socha",
                "P131^label:cs": "Poběžovice",
                "P6736": "5098"
            },
            "geometry": {
                "type": "Point",
                "coordinates": [
                    12.80418,
                    49.5112
                ]
            }
        },
        {
            "type": "Feature",
            "properties": {
                "label:cs": "Socha v Poběžovicích před zámkem",
                "P31": "Socha",
                "P131^label:cs": "Poběžovice",
                "P6736": "5097"
            },
            "geometry": {
                "type": "Point",
                "coordinates": [
                    12.80289,
                    49.51086
                ]
            }
        },
        {
            "type": "Feature",
            "properties": {
                "label:cs": "Socha divokého prasete v Poběžovicích vpravo",
                "P31": "Socha",
                "P131^label:cs": "Poběžovice",
                "P6736": "5096"
            },
            "geometry": {
                "type": "Point",
                "coordinates": [
                    12.803,
                    49.51085
                ]
            }
        },
        {
            "type": "Feature",
            "properties": {
                "label:cs": "Socha divokého prasete v Poběžovicích vlevo",
                "P31": "Socha",
                "P131^label:cs": "Poběžovice",
                "P6736": "5095"
            },
            "geometry": {
                "type": "Point",
                "coordinates": [
                    12.80293,
                    49.51086
                ]
            }
        },
        {
            "type": "Feature",
            "properties": {
                "label:cs": "Kašna v Poběžovicích u městského úřadu",
                "P31": "Kašna",
                "P131^label:cs": "Poběžovice",
                "P6736": "5094"
            },
            "geometry": {
                "type": "Point",
                "coordinates": [
                    12.8028,
                    49.5106
                ]
            }
        },
        {
            "type": "Feature",
            "properties": {
                "label:cs": "Pomník padlým u kostela v Poběžovicích",
                "P31": "Pomník padlým",
                "P131^label:cs": "Poběžovice",
                "P6736": "5090"
            },
            "geometry": {
                "type": "Point",
                "coordinates": [
                    12.8019,
                    49.51057
                ]
            }
        },
        {
            "type": "Feature",
            "properties": {
                "label:cs": "Mariánský sloup v Poběžovicích",
                "P31": "Sloup",
                "P131^label:cs": "Poběžovice",
                "P6736": "5003"
            },
            "geometry": {
                "type": "Point",
                "coordinates": [
                    12.80053,
                    49.51102
                ]
            }
        },
        {
            "type": "Feature",
            "properties": {
                "label:cs": "Kříž v Šitboři na návsi",
                "P31": "Pamětní kříž",
                "P131^label:cs": "Poběžovice",
                "P6736": "5002"
            },
            "geometry": {
                "type": "Point",
                "coordinates": [
                    12.7908,
                    49.49895
                ]
            }
        },
        {
            "type": "Feature",
            "properties": {
                "label:cs": "Kříž u kostela v Šitboři",
                "P31": "Pamětní kříž",
                "P131^label:cs": "Poběžovice",
                "P6736": "5001"
            },
            "geometry": {
                "type": "Point",
                "coordinates": [
                    12.79,
                    49.49898
                ]
            }
        },
        {
            "type": "Feature",
            "properties": {
                "label:cs": "Socha svatého Jana Nepomuckého v Poběžovicích",
                "P31": "Socha",
                "P131^label:cs": "Poběžovice",
                "P6736": "4171"
            },
            "geometry": {
                "type": "Point",
                "coordinates": [
                    12.80217,
                    49.51073
                ]
            }
        },
        {
            "type": "Feature",
            "properties": {
                "label:cs": "Kříž v Šitboři",
                "P31": "Pamětní kříž",
                "P131^label:cs": "Poběžovice",
                "P6736": "4137"
            },
            "geometry": {
                "type": "Point",
                "coordinates": [
                    12.79221,
                    49.49761
                ]
            }
        },
        {
            "type": "Feature",
            "properties": {
                "label:cs": "Kříž u Šitboře",
                "P31": "Pamětní kříž",
                "P131^label:cs": "Poběžovice",
                "P6736": "4136"
            },
            "geometry": {
                "type": "Point",
                "coordinates": [
                    12.7915,
                    49.5004
                ]
            }
        },
        {
            "type": "Feature",
            "properties": {
                "label:cs": "Kříž severně od Zámělíče u železnice",
                "P31": "Pamětní kříž",
                "P131^label:cs": "Poběžovice",
                "P6736": "4135"
            },
            "geometry": {
                "type": "Point",
                "coordinates": [
                    12.8262,
                    49.51414
                ]
            }
        },
        {
            "type": "Feature",
            "properties": {
                "label:cs": "Kříž v Poběžovicích v Husově ulici",
                "P31": "Pamětní kříž",
                "P131^label:cs": "Poběžovice",
                "P6736": "4035"
            },
            "geometry": {
                "type": "Point",
                "coordinates": [
                    12.79888,
                    49.50836
                ]
            }
        },
        {
            "type": "Feature",
            "properties": {
                "label:cs": "Boží muka jižně od Poběžovic",
                "P31": "Boží muka",
                "P131^label:cs": "Poběžovice",
                "P6736": "4034"
            },
            "geometry": {
                "type": "Point",
                "coordinates": [
                    12.80153,
                    49.5045
                ]
            }
        },
        {
            "type": "Feature",
            "properties": {
                "label:cs": "Kaple jihovýchodně od Poběžovic",
                "P31": "Kaple",
                "P131^label:cs": "Poběžovice",
                "P6736": "4007"
            },
            "geometry": {
                "type": "Point",
                "coordinates": [
                    12.81359,
                    49.50648
                ]
            }
        },
        {
            "type": "Feature",
            "properties": {
                "label:cs": "Výklenková kaplička v Poběžovicích",
                "P31": "Kaplička",
                "P131^label:cs": "Poběžovice",
                "P6736": "4005"
            },
            "geometry": {
                "type": "Point",
                "coordinates": [
                    12.80313,
                    49.51205
                ]
            }
        },
        {
            "type": "Feature",
            "properties": {
                "label:cs": "Smírčí kříž v Poběžovicích",
                "P31": "Smírčí kříž",
                "P131^label:cs": "Poběžovice",
                "P6736": "3983"
            },
            "geometry": {
                "type": "Point",
                "coordinates": [
                    12.80306,
                    49.511
                ]
            }
        },
        {
            "type": "Feature",
            "properties": {
                "label:cs": "Kříž severně od Poběžovic",
                "P31": "Pamětní kříž",
                "P131^label:cs": "Poběžovice",
                "P6736": "3982"
            },
            "geometry": {
                "type": "Point",
                "coordinates": [
                    12.79681,
                    49.52156
                ]
            }
        },
        {
            "type": "Feature",
            "properties": {
                "label:cs": "Kříž u Zámělíče u silnice do Poběžovic",
                "P31": "Pamětní kříž",
                "P131^label:cs": "Poběžovice",
                "P6736": "2842"
            },
            "geometry": {
                "type": "Point",
                "coordinates": [
                    12.8297,
                    49.51163
                ]
            }
        },
        {
            "type": "Feature",
            "properties": {
                "label:cs": "Kříž mezi Zámělíčí a Poběžovicemi",
                "P31": "Pamětní kříž",
                "P131^label:cs": "Poběžovice",
                "P6736": "2840"
            },
            "geometry": {
                "type": "Point",
                "coordinates": [
                    12.82784,
                    49.51173
                ]
            }
        },
        {
            "type": "Feature",
            "properties": {
                "label:cs": "Kříž východně od Poběžovic",
                "P31": "Pamětní kříž",
                "P131^label:cs": "Poběžovice",
                "P6736": "2839"
            },
            "geometry": {
                "type": "Point",
                "coordinates": [
                    12.82413,
                    49.51184
                ]
            }
        },
        {
            "type": "Feature",
            "properties": {
                "label:cs": "Kříž u Zámělíče v parku",
                "P31": "Pamětní kříž",
                "P131^label:cs": "Poběžovice",
                "P6736": "2841"
            },
            "geometry": {
                "type": "Point",
                "coordinates": [
                    12.83181,
                    49.51191
                ]
            }
        },
        {
            "type": "Feature",
            "properties": {
                "label:cs": "Kříž nad Šitboří u cesty do Hvožďan",
                "P31": "Pamětní kříž",
                "P131^label:cs": "Poběžovice",
                "P6736": "2495"
            },
            "geometry": {
                "type": "Point",
                "coordinates": [
                    12.78911,
                    49.50007
                ]
            }
        },
        {
            "type": "Feature",
            "properties": {
                "label:cs": "Kříž u cesty na Šitboř z Poběžovic",
                "P31": "Pamětní kříž",
                "P131^label:cs": "Poběžovice",
                "P6736": "2493"
            },
            "geometry": {
                "type": "Point",
                "coordinates": [
                    12.79546,
                    49.50318
                ]
            }
        },
        {
            "type": "Feature",
            "properties": {
                "label:cs": "Boží muka u cesty za hřbitovem u Poběžovic",
                "P31": "Boží muka",
                "P131^label:cs": "Poběžovice",
                "P6736": "2320"
            },
            "geometry": {
                "type": "Point",
                "coordinates": [
                    12.80939,
                    49.51841
                ]
            }
        },
        {
            "type": "Feature",
            "properties": {
                "label:cs": "Kříž u památné lípy nad Poběžovicemi",
                "P31": "Pamětní kříž",
                "P131^label:cs": "Poběžovice",
                "P6736": "2318"
            },
            "geometry": {
                "type": "Point",
                "coordinates": [
                    12.80378,
                    49.51775
                ]
            }
        },
        {
            "type": "Feature",
            "properties": {
                "label:cs": "Boží muka u Rokošína",
                "P31": "Boží muka",
                "P131^label:cs": "Poběžovice",
                "P6736": "2317"
            },
            "geometry": {
                "type": "Point",
                "coordinates": [
                    12.80085,
                    49.52291
                ]
            }
        }
    ]
}