{
    "type": "FeatureCollection",
    "features": [
        {
            "type": "Feature",
            "properties": {
                "label:cs": "Kříž jižně od Šitboře",
                "P31": "Pamětní kříž",
                "P131^label:cs": "Poběžovice",
                "P6736": "5091"
            },
            "geometry": {
                "type": "Point",
                "coordinates": [
                    12.7931,
                    49.49416
                ]
            }
        },
        {
            "type": "Feature",
            "properties": {
                "label:cs": "Zvonička ve Vlkanově",
                "P31": "Zvonička",
                "P131^label:cs": "Vlkanov",
                "P6736": "4002"
            },
            "geometry": {
                "type": "Point",
                "coordinates": [
                    12.80647,
                    49.48762
                ]
            }
        },
        {
            "type": "Feature",
            "properties": {
                "label:cs": "Kříž ve Vlkanově",
                "P31": "Pamětní kříž",
                "P131^label:cs": "Vlkanov",
                "P6736": "2770"
            },
            "geometry": {
                "type": "Point",
                "coordinates": [
                    12.80607,
                    49.48817
                ]
            }
        },
        {
            "type": "Feature",
            "properties": {
                "label:cs": "Kříž nad Šitboří ve svahu",
                "P31": "Pamětní kříž",
                "P131^label:cs": "Poběžovice",
                "P6736": "2494"
            },
            "geometry": {
                "type": "Point",
                "coordinates": [
                    12.7888,
                    49.49427
                ]
            }
        },
        {
            "type": "Feature",
            "properties": {
                "label:cs": "Kříž v polích pod Pařezovem",
                "P31": "Pamětní kříž",
                "P131^label:cs": "Postřekov",
                "P6736": "2364"
            },
            "geometry": {
                "type": "Point",
                "coordinates": [
                    12.82991,
                    49.46815
                ]
            }
        },
        {
            "type": "Feature",
            "properties": {
                "label:cs": "Kříž nad Otovem",
                "P31": "Pamětní kříž",
                "P131^label:cs": "Otov",
                "P6736": "2267"
            },
            "geometry": {
                "type": "Point",
                "coordinates": [
                    12.83157,
                    49.49507
                ]
            }
        },
        {
            "type": "Feature",
            "properties": {
                "label:cs": "Kříž jižně od Vlkanova u silnice na Nový Kramolín",
                "P31": "Pamětní kříž",
                "P131^label:cs": "Nový Kramolín",
                "P6736": "2207"
            },
            "geometry": {
                "type": "Point",
                "coordinates": [
                    12.80475,
                    49.48135
                ]
            }
        },
        {
            "type": "Feature",
            "properties": {
                "label:cs": "Kaple severně od Nového Kramolína",
                "P31": "Kaple",
                "P131^label:cs": "Nový Kramolín",
                "P6736": "2206"
            },
            "geometry": {
                "type": "Point",
                "coordinates": [
                    12.8031,
                    49.47914
                ]
            }
        }
    ]
}