{
    "type": "FeatureCollection",
    "features": [
        {
            "type": "Feature",
            "properties": {
                "label:cs": "Pamětní kříž v lese jižně od Kořene",
                "P31": "Pamětní kříž",
                "P131^label:cs": "Planá",
                "P6736": "24309"
            },
            "geometry": {
                "type": "Point",
                "coordinates": [
                    12.83617,
                    49.8418
                ]
            }
        },
        {
            "type": "Feature",
            "properties": {
                "label:cs": "Kříž jihozápadně od Olbramova u rozcestí",
                "P31": "Pamětní kříž",
                "P131^label:cs": "Olbramov",
                "P6736": "9857"
            },
            "geometry": {
                "type": "Point",
                "coordinates": [
                    12.86604,
                    49.8419
                ]
            }
        },
        {
            "type": "Feature",
            "properties": {
                "label:cs": "Kříž v Horní Vísce",
                "P31": "Pamětní kříž",
                "P131^label:cs": "Lestkov",
                "P6736": "9856"
            },
            "geometry": {
                "type": "Point",
                "coordinates": [
                    12.86188,
                    49.85776
                ]
            }
        },
        {
            "type": "Feature",
            "properties": {
                "label:cs": "Kříž severně od Horní Vísky",
                "P31": "Pamětní kříž",
                "P131^label:cs": "Lestkov",
                "P6736": "9855"
            },
            "geometry": {
                "type": "Point",
                "coordinates": [
                    12.8622,
                    49.85822
                ]
            }
        },
        {
            "type": "Feature",
            "properties": {
                "label:cs": "Kříž jihozápadně od Horní Vísky",
                "P31": "Pamětní kříž",
                "P131^label:cs": "Lestkov",
                "P6736": "9854"
            },
            "geometry": {
                "type": "Point",
                "coordinates": [
                    12.8599,
                    49.85679
                ]
            }
        },
        {
            "type": "Feature",
            "properties": {
                "label:cs": "Kříž severozápadně od Horní Vísky",
                "P31": "Pamětní kříž",
                "P131^label:cs": "Lestkov",
                "P6736": "9853"
            },
            "geometry": {
                "type": "Point",
                "coordinates": [
                    12.85847,
                    49.85965
                ]
            }
        },
        {
            "type": "Feature",
            "properties": {
                "label:cs": "Kříž severozápadně od Dolní Vísky",
                "P31": "Pamětní kříž",
                "P131^label:cs": "Lestkov",
                "P6736": "9852"
            },
            "geometry": {
                "type": "Point",
                "coordinates": [
                    12.86434,
                    49.85791
                ]
            }
        },
        {
            "type": "Feature",
            "properties": {
                "label:cs": "Kříž v Dolní Vísce u rozcestí",
                "P31": "Pamětní kříž",
                "P131^label:cs": "Lestkov",
                "P6736": "9851"
            },
            "geometry": {
                "type": "Point",
                "coordinates": [
                    12.86674,
                    49.8562
                ]
            }
        },
        {
            "type": "Feature",
            "properties": {
                "label:cs": "Kaple severně od Olbramova",
                "P31": "Kaple",
                "P131^label:cs": "Olbramov",
                "P6736": "9848"
            },
            "geometry": {
                "type": "Point",
                "coordinates": [
                    12.86693,
                    49.84544
                ]
            }
        },
        {
            "type": "Feature",
            "properties": {
                "label:cs": "Socha u obecního úřadu v Olbramově",
                "P31": "Socha",
                "P131^label:cs": "Olbramov",
                "P6736": "9847"
            },
            "geometry": {
                "type": "Point",
                "coordinates": [
                    12.86594,
                    49.84357
                ]
            }
        },
        {
            "type": "Feature",
            "properties": {
                "label:cs": "Kříž u kaple v Olbramově",
                "P31": "Pamětní kříž",
                "P131^label:cs": "Olbramov",
                "P6736": "9846"
            },
            "geometry": {
                "type": "Point",
                "coordinates": [
                    12.86701,
                    49.84539
                ]
            }
        },
        {
            "type": "Feature",
            "properties": {
                "label:cs": "Sousoší Svaté rodiny v Olbramově",
                "P31": "Socha",
                "P131^label:cs": "Olbramov",
                "P6736": "9845"
            },
            "geometry": {
                "type": "Point",
                "coordinates": [
                    12.8673,
                    49.84303
                ]
            }
        },
        {
            "type": "Feature",
            "properties": {
                "label:cs": "Kříž jihovýchodně od Olbramova u rozcestí",
                "P31": "Pamětní kříž",
                "P131^label:cs": "Olbramov",
                "P6736": "9844"
            },
            "geometry": {
                "type": "Point",
                "coordinates": [
                    12.87058,
                    49.84269
                ]
            }
        },
        {
            "type": "Feature",
            "properties": {
                "label:cs": "Kříž jižně od Olbramova u silnice",
                "P31": "Pamětní kříž",
                "P131^label:cs": "Olbramov",
                "P6736": "9843"
            },
            "geometry": {
                "type": "Point",
                "coordinates": [
                    12.87127,
                    49.84087
                ]
            }
        }
    ]
}