{
    "type": "FeatureCollection",
    "features": [
        {
            "type": "Feature",
            "properties": {
                "label:cs": "Kříž západně od Ošelína",
                "P31": "Pamětní kříž",
                "P131^label:cs": "Ošelín",
                "P6736": "3736"
            },
            "geometry": {
                "type": "Point",
                "coordinates": [
                    12.83251,
                    49.77829
                ]
            }
        },
        {
            "type": "Feature",
            "properties": {
                "label:cs": "Kaple v Lobzech",
                "P31": "Kaple",
                "P131^label:cs": "Ošelín",
                "P6736": "3735"
            },
            "geometry": {
                "type": "Point",
                "coordinates": [
                    12.86049,
                    49.75352
                ]
            }
        },
        {
            "type": "Feature",
            "properties": {
                "label:cs": "Kaple v Plezomu",
                "P31": "Kaple",
                "P131^label:cs": "Ošelín",
                "P6736": "3731"
            },
            "geometry": {
                "type": "Point",
                "coordinates": [
                    12.83386,
                    49.76736
                ]
            }
        },
        {
            "type": "Feature",
            "properties": {
                "label:cs": "Kříž u dvou stromů v poli nad Ošelínem",
                "P31": "Pamětní kříž",
                "P131^label:cs": "Ošelín",
                "P6736": "2255"
            },
            "geometry": {
                "type": "Point",
                "coordinates": [
                    12.83332,
                    49.77965
                ]
            }
        },
        {
            "type": "Feature",
            "properties": {
                "label:cs": "Kříž u obce Ošelín",
                "P31": "Pamětní kříž",
                "P131^label:cs": "Ošelín",
                "P6736": "2254"
            },
            "geometry": {
                "type": "Point",
                "coordinates": [
                    12.85972,
                    49.77111
                ]
            }
        }
    ]
}