{
    "type": "FeatureCollection",
    "features": [
        {
            "type": "Feature",
            "properties": {
                "label:cs": "Kříž severně od Darmyšli",
                "P31": "Pamětní kříž",
                "P131^label:cs": "Staré Sedlo",
                "P6736": "9960"
            },
            "geometry": {
                "type": "Point",
                "coordinates": [
                    12.87106,
                    49.65041
                ]
            }
        },
        {
            "type": "Feature",
            "properties": {
                "label:cs": "Kříž východně od Racova",
                "P31": "Pamětní kříž",
                "P131^label:cs": "Staré Sedlo",
                "P6736": "9958"
            },
            "geometry": {
                "type": "Point",
                "coordinates": [
                    12.84691,
                    49.64042
                ]
            }
        },
        {
            "type": "Feature",
            "properties": {
                "label:cs": "Kříž západně od Racova",
                "P31": "Pamětní kříž",
                "P131^label:cs": "Staré Sedlo",
                "P6736": "5079"
            },
            "geometry": {
                "type": "Point",
                "coordinates": [
                    12.84188,
                    49.63988
                ]
            }
        },
        {
            "type": "Feature",
            "properties": {
                "label:cs": "Pomník padlým ve Starém Sedle",
                "P31": "Pomník padlým",
                "P131^label:cs": "Staré Sedlo",
                "P6736": "4907"
            },
            "geometry": {
                "type": "Point",
                "coordinates": [
                    12.86336,
                    49.6647
                ]
            }
        },
        {
            "type": "Feature",
            "properties": {
                "label:cs": "Kříž u Starého Sedla u rozcestí",
                "P31": "Pamětní kříž",
                "P131^label:cs": "Staré Sedlo",
                "P6736": "4906"
            },
            "geometry": {
                "type": "Point",
                "coordinates": [
                    12.86128,
                    49.66288
                ]
            }
        },
        {
            "type": "Feature",
            "properties": {
                "label:cs": "Socha svatého Jana Nepomuckého ve Starém Sedle",
                "P31": "Socha",
                "P131^label:cs": "Staré Sedlo",
                "P6736": "4905"
            },
            "geometry": {
                "type": "Point",
                "coordinates": [
                    12.86364,
                    49.66376
                ]
            }
        },
        {
            "type": "Feature",
            "properties": {
                "label:cs": "Kříž u Racova",
                "P31": "Pamětní kříž",
                "P131^label:cs": "Staré Sedlo",
                "P6736": "3777"
            },
            "geometry": {
                "type": "Point",
                "coordinates": [
                    12.84152,
                    49.64062
                ]
            }
        },
        {
            "type": "Feature",
            "properties": {
                "label:cs": "Památník v Racově",
                "P31": "Památník",
                "P131^label:cs": "Staré Sedlo",
                "P6736": "3776"
            },
            "geometry": {
                "type": "Point",
                "coordinates": [
                    12.84607,
                    49.63918
                ]
            }
        },
        {
            "type": "Feature",
            "properties": {
                "label:cs": "Kříž nad Starým Sedlem",
                "P31": "Pamětní kříž",
                "P131^label:cs": "Staré Sedlo",
                "P6736": "2533"
            },
            "geometry": {
                "type": "Point",
                "coordinates": [
                    12.86136,
                    49.66224
                ]
            }
        },
        {
            "type": "Feature",
            "properties": {
                "label:cs": "Kříž nad Darmyšlí u křižovatky",
                "P31": "Pamětní kříž",
                "P131^label:cs": "Staré Sedlo",
                "P6736": "1370"
            },
            "geometry": {
                "type": "Point",
                "coordinates": [
                    12.87442,
                    49.64581
                ]
            }
        }
    ]
}