{
    "type": "FeatureCollection",
    "features": [
        {
            "type": "Feature",
            "properties": {
                "label:cs": "Památník obětí nacismu na Chodském náměstí v Domažlicích",
                "P31": "Památník",
                "P131^label:cs": "Domažlice",
                "P6736": "13896"
            },
            "geometry": {
                "type": "Point",
                "coordinates": [
                    12.92812,
                    49.43944
                ]
            }
        },
        {
            "type": "Feature",
            "properties": {
                "label:cs": "Kříž v Domažlicích v Břetislavově ulici",
                "P31": "Pamětní kříž",
                "P131^label:cs": "Domažlice",
                "P6736": "3405"
            },
            "geometry": {
                "type": "Point",
                "coordinates": [
                    12.93022,
                    49.43865
                ]
            }
        },
        {
            "type": "Feature",
            "properties": {
                "label:cs": "Kříž severně od Tlumačova v údolí Nevolického potoka",
                "P31": "Pamětní kříž",
                "P131^label:cs": "Nevolice",
                "P6736": "2174"
            },
            "geometry": {
                "type": "Point",
                "coordinates": [
                    12.9226,
                    49.41131
                ]
            }
        },
        {
            "type": "Feature",
            "properties": {
                "label:cs": "Kříž u silnice nad rozcestím severně od Tlumačova",
                "P31": "Pamětní kříž",
                "P131^label:cs": "Nevolice",
                "P6736": "2172"
            },
            "geometry": {
                "type": "Point",
                "coordinates": [
                    12.92548,
                    49.41919
                ]
            }
        },
        {
            "type": "Feature",
            "properties": {
                "label:cs": "Obrázek u mostu přes potok severně od Tlumačova",
                "P31": "Obrázek",
                "P131^label:cs": "Nevolice",
                "P6736": "2173"
            },
            "geometry": {
                "type": "Point",
                "coordinates": [
                    12.92543,
                    49.41386
                ]
            }
        },
        {
            "type": "Feature",
            "properties": {
                "label:cs": "Kříž ve křoví v zatáčce východně od Nevolic",
                "P31": "Pamětní kříž",
                "P131^label:cs": "Nevolice",
                "P6736": "2169"
            },
            "geometry": {
                "type": "Point",
                "coordinates": [
                    12.936,
                    49.41968
                ]
            }
        },
        {
            "type": "Feature",
            "properties": {
                "label:cs": "Kříž u křižovatky severně od Tlumačova",
                "P31": "Pamětní kříž",
                "P131^label:cs": "Nevolice",
                "P6736": "2171"
            },
            "geometry": {
                "type": "Point",
                "coordinates": [
                    12.92685,
                    49.41766
                ]
            }
        },
        {
            "type": "Feature",
            "properties": {
                "label:cs": "Kříž v poli východně od Nevolic",
                "P31": "Pamětní kříž",
                "P131^label:cs": "Nevolice",
                "P6736": "2168"
            },
            "geometry": {
                "type": "Point",
                "coordinates": [
                    12.94383,
                    49.41742
                ]
            }
        },
        {
            "type": "Feature",
            "properties": {
                "label:cs": "Kříž západně od Stráže",
                "P31": "Pamětní kříž",
                "P131^label:cs": "Nevolice",
                "P6736": "2170"
            },
            "geometry": {
                "type": "Point",
                "coordinates": [
                    12.92345,
                    49.41742
                ]
            }
        },
        {
            "type": "Feature",
            "properties": {
                "label:cs": "Kříž jižně od Domažlic u silnice do Tlumačova v kopci",
                "P31": "Pamětní kříž",
                "P131^label:cs": "Domažlice",
                "P6736": "1430"
            },
            "geometry": {
                "type": "Point",
                "coordinates": [
                    12.9269,
                    49.42963
                ]
            }
        },
        {
            "type": "Feature",
            "properties": {
                "label:cs": "Kříž nad Domažlicemi po Veselou horou u rozcestí",
                "P31": "Pamětní kříž",
                "P131^label:cs": "Domažlice",
                "P6736": "1434"
            },
            "geometry": {
                "type": "Point",
                "coordinates": [
                    12.92065,
                    49.42504
                ]
            }
        },
        {
            "type": "Feature",
            "properties": {
                "label:cs": "Kříž u polní cesty mezi Nevolicemi a Domažlicemi",
                "P31": "Pamětní kříž",
                "P131^label:cs": "Domažlice",
                "P6736": "1433"
            },
            "geometry": {
                "type": "Point",
                "coordinates": [
                    12.94296,
                    49.42273
                ]
            }
        },
        {
            "type": "Feature",
            "properties": {
                "label:cs": "Kříž jižně od Domažlic u silnice do Tlumačova",
                "P31": "Pamětní kříž",
                "P131^label:cs": "Domažlice",
                "P6736": "1429"
            },
            "geometry": {
                "type": "Point",
                "coordinates": [
                    12.92567,
                    49.43439
                ]
            }
        }
    ]
}