{
    "type": "FeatureCollection",
    "features": [
        {
            "type": "Feature",
            "properties": {
                "label:cs": "Kříž západně od Lštění",
                "P31": "Pamětní kříž",
                "P131^label:cs": "Blížejov",
                "P6736": "3519"
            },
            "geometry": {
                "type": "Point",
                "coordinates": [
                    13.04429,
                    49.48548
                ]
            }
        },
        {
            "type": "Feature",
            "properties": {
                "label:cs": "Kříž u kostela ve Lštění",
                "P31": "Pamětní kříž",
                "P131^label:cs": "Blížejov",
                "P6736": "3518"
            },
            "geometry": {
                "type": "Point",
                "coordinates": [
                    13.04208,
                    49.4834
                ]
            }
        },
        {
            "type": "Feature",
            "properties": {
                "label:cs": "Pomník padlým ve Lštění",
                "P31": "Pomník padlým",
                "P131^label:cs": "Blížejov",
                "P6736": "3517"
            },
            "geometry": {
                "type": "Point",
                "coordinates": [
                    13.04041,
                    49.48323
                ]
            }
        },
        {
            "type": "Feature",
            "properties": {
                "label:cs": "Kříž severně od Lštění u stromů",
                "P31": "Pamětní kříž",
                "P131^label:cs": "Blížejov",
                "P6736": "3516"
            },
            "geometry": {
                "type": "Point",
                "coordinates": [
                    13.03565,
                    49.48606
                ]
            }
        },
        {
            "type": "Feature",
            "properties": {
                "label:cs": "Kříž severně od Lštění",
                "P31": "Pamětní kříž",
                "P131^label:cs": "Blížejov",
                "P6736": "3515"
            },
            "geometry": {
                "type": "Point",
                "coordinates": [
                    13.03486,
                    49.48661
                ]
            }
        },
        {
            "type": "Feature",
            "properties": {
                "label:cs": "Kříž u pomníku severně od Lštění",
                "P31": "Pamětní kříž",
                "P131^label:cs": "Blížejov",
                "P6736": "3514"
            },
            "geometry": {
                "type": "Point",
                "coordinates": [
                    13.0333,
                    49.48801
                ]
            }
        },
        {
            "type": "Feature",
            "properties": {
                "label:cs": "Pomník severně od Lštění",
                "P31": "Pomník",
                "P131^label:cs": "Blížejov",
                "P6736": "3513"
            },
            "geometry": {
                "type": "Point",
                "coordinates": [
                    13.0333,
                    49.48827
                ]
            }
        },
        {
            "type": "Feature",
            "properties": {
                "label:cs": "Kříž severozápadně od Hvízdalky",
                "P31": "Pamětní kříž",
                "P131^label:cs": "Blížejov",
                "P6736": "3512"
            },
            "geometry": {
                "type": "Point",
                "coordinates": [
                    13.0318,
                    49.49003
                ]
            }
        },
        {
            "type": "Feature",
            "properties": {
                "label:cs": "Kříž východně od Malonic",
                "P31": "Pamětní kříž",
                "P131^label:cs": "Blížejov",
                "P6736": "3511"
            },
            "geometry": {
                "type": "Point",
                "coordinates": [
                    13.02618,
                    49.48927
                ]
            }
        },
        {
            "type": "Feature",
            "properties": {
                "label:cs": "Kříž jižně od Malonic u polní cesty",
                "P31": "Pamětní kříž",
                "P131^label:cs": "Blížejov",
                "P6736": "3510"
            },
            "geometry": {
                "type": "Point",
                "coordinates": [
                    13.02522,
                    49.48609
                ]
            }
        },
        {
            "type": "Feature",
            "properties": {
                "label:cs": "Kříž jižně od Malonic na rozcestí",
                "P31": "Pamětní kříž",
                "P131^label:cs": "Blížejov",
                "P6736": "3509"
            },
            "geometry": {
                "type": "Point",
                "coordinates": [
                    13.0202,
                    49.48746
                ]
            }
        },
        {
            "type": "Feature",
            "properties": {
                "label:cs": "Kaple v Malonicích",
                "P31": "Kaple",
                "P131^label:cs": "Blížejov",
                "P6736": "3508"
            },
            "geometry": {
                "type": "Point",
                "coordinates": [
                    13.01905,
                    49.4889
                ]
            }
        }
    ]
}