{
    "type": "FeatureCollection",
    "features": [
        {
            "type": "Feature",
            "properties": {
                "label:cs": "Památník v Trpístech",
                "P31": "Památník",
                "P131^label:cs": "Trpísty",
                "P6736": "4823"
            },
            "geometry": {
                "type": "Point",
                "coordinates": [
                    13.05861,
                    49.82287
                ]
            }
        },
        {
            "type": "Feature",
            "properties": {
                "label:cs": "Kaple v Trpístech",
                "P31": "Kaple",
                "P131^label:cs": "Trpísty",
                "P6736": "4822"
            },
            "geometry": {
                "type": "Point",
                "coordinates": [
                    13.05816,
                    49.82282
                ]
            }
        },
        {
            "type": "Feature",
            "properties": {
                "label:cs": "Kaplička u Trpíst",
                "P31": "Kaplička",
                "P131^label:cs": "Trpísty",
                "P6736": "4821"
            },
            "geometry": {
                "type": "Point",
                "coordinates": [
                    13.05762,
                    49.8244
                ]
            }
        },
        {
            "type": "Feature",
            "properties": {
                "label:cs": "Kříž jižně od Trpíst",
                "P31": "Pamětní kříž",
                "P131^label:cs": "Trpísty",
                "P6736": "4749"
            },
            "geometry": {
                "type": "Point",
                "coordinates": [
                    13.05707,
                    49.82169
                ]
            }
        },
        {
            "type": "Feature",
            "properties": {
                "label:cs": "Smírčí kříž u Trpíst",
                "P31": "Smírčí kříž",
                "P131^label:cs": "Trpísty",
                "P6736": "4748"
            },
            "geometry": {
                "type": "Point",
                "coordinates": [
                    13.05715,
                    49.82168
                ]
            }
        },
        {
            "type": "Feature",
            "properties": {
                "label:cs": "kaplička v zámecké zahradě u Trpíst",
                "P31": "Kaplička",
                "P131^label:cs": "Trpísty",
                "P6736": "4747"
            },
            "geometry": {
                "type": "Point",
                "coordinates": [
                    13.06314,
                    49.82392
                ]
            }
        },
        {
            "type": "Feature",
            "properties": {
                "label:cs": "Kaplička pod Horskými Domky",
                "P31": "Kaplička",
                "P131^label:cs": "Trpísty",
                "P6736": "4746"
            },
            "geometry": {
                "type": "Point",
                "coordinates": [
                    13.06603,
                    49.82888
                ]
            }
        },
        {
            "type": "Feature",
            "properties": {
                "label:cs": "Socha blahoslaveného Hroznaty u Pernarce",
                "P31": "Socha",
                "P131^label:cs": "Pernarec",
                "P6736": "2285"
            },
            "geometry": {
                "type": "Point",
                "coordinates": [
                    13.09425,
                    49.83735
                ]
            }
        }
    ]
}