{
    "type": "FeatureCollection",
    "features": [
        {
            "type": "Feature",
            "properties": {
                "label:cs": "Smírčí křiž jižně od Pakoslavi",
                "P31": "Smírčí kříž",
                "P131^label:cs": "Křelovice",
                "P6736": "8818"
            },
            "geometry": {
                "type": "Point",
                "coordinates": [
                    13.05422,
                    49.86319
                ]
            }
        },
        {
            "type": "Feature",
            "properties": {
                "label:cs": "Socha blahoslavaného Hroznaty v Krukanicích",
                "P31": "Socha",
                "P131^label:cs": "Pernarec",
                "P6736": "5041"
            },
            "geometry": {
                "type": "Point",
                "coordinates": [
                    13.09537,
                    49.84382
                ]
            }
        },
        {
            "type": "Feature",
            "properties": {
                "label:cs": "Socha svatého Norberta v Krukanicích",
                "P31": "Socha",
                "P131^label:cs": "Pernarec",
                "P6736": "5040"
            },
            "geometry": {
                "type": "Point",
                "coordinates": [
                    13.09537,
                    49.84365
                ]
            }
        },
        {
            "type": "Feature",
            "properties": {
                "label:cs": "Kříž v Rozněvicích",
                "P31": "Pamětní kříž",
                "P131^label:cs": "Křelovice",
                "P6736": "4925"
            },
            "geometry": {
                "type": "Point",
                "coordinates": [
                    13.06582,
                    49.85779
                ]
            }
        },
        {
            "type": "Feature",
            "properties": {
                "label:cs": "Smírčí kříž západně od Rozněvic u cesty na Šipín",
                "P31": "Smírčí kříž",
                "P131^label:cs": "Křelovice",
                "P6736": "2459"
            },
            "geometry": {
                "type": "Point",
                "coordinates": [
                    13.05956,
                    49.85711
                ]
            }
        },
        {
            "type": "Feature",
            "properties": {
                "label:cs": "Kaple severně od Rozněvic",
                "P31": "Kaple",
                "P131^label:cs": "Křelovice",
                "P6736": "2458"
            },
            "geometry": {
                "type": "Point",
                "coordinates": [
                    13.06436,
                    49.85811
                ]
            }
        },
        {
            "type": "Feature",
            "properties": {
                "label:cs": "Socha svatého Jana Nepomuckého v Krukanicích",
                "P31": "Socha",
                "P131^label:cs": "Pernarec",
                "P6736": "1836"
            },
            "geometry": {
                "type": "Point",
                "coordinates": [
                    13.09562,
                    49.84387
                ]
            }
        },
        {
            "type": "Feature",
            "properties": {
                "label:cs": "Boží muka u Krukanic",
                "P31": "Boží muka",
                "P131^label:cs": "Pernarec",
                "P6736": "1835"
            },
            "geometry": {
                "type": "Point",
                "coordinates": [
                    13.0899,
                    49.84636
                ]
            }
        }
    ]
}