{
    "type": "FeatureCollection",
    "features": [
        {
            "type": "Feature",
            "properties": {
                "label:cs": "Kříž východně od Dohanic",
                "P31": "Pamětní kříž",
                "P131^label:cs": "Močerady",
                "P6736": "3539"
            },
            "geometry": {
                "type": "Point",
                "coordinates": [
                    13.07654,
                    49.49596
                ]
            }
        },
        {
            "type": "Feature",
            "properties": {
                "label:cs": "Kříž východně od Květkovic",
                "P31": "Pamětní kříž",
                "P131^label:cs": "Koloveč",
                "P6736": "3538"
            },
            "geometry": {
                "type": "Point",
                "coordinates": [
                    13.0877,
                    49.48946
                ]
            }
        },
        {
            "type": "Feature",
            "properties": {
                "label:cs": "Kříž východně od Kanic",
                "P31": "Pamětní kříž",
                "P131^label:cs": "Kanice",
                "P6736": "3524"
            },
            "geometry": {
                "type": "Point",
                "coordinates": [
                    13.08009,
                    49.4762
                ]
            }
        },
        {
            "type": "Feature",
            "properties": {
                "label:cs": "Kaple východně od Kanice",
                "P31": "Kaple",
                "P131^label:cs": "Kanice",
                "P6736": "3523"
            },
            "geometry": {
                "type": "Point",
                "coordinates": [
                    13.07897,
                    49.47717
                ]
            }
        },
        {
            "type": "Feature",
            "properties": {
                "label:cs": "Kaplička v Kanicích",
                "P31": "Kaplička",
                "P131^label:cs": "Kanice",
                "P6736": "3522"
            },
            "geometry": {
                "type": "Point",
                "coordinates": [
                    13.07366,
                    49.47448
                ]
            }
        },
        {
            "type": "Feature",
            "properties": {
                "label:cs": "Kaple v Kanici",
                "P31": "Kaple",
                "P131^label:cs": "Kanice",
                "P6736": "3521"
            },
            "geometry": {
                "type": "Point",
                "coordinates": [
                    13.07078,
                    49.47562
                ]
            }
        },
        {
            "type": "Feature",
            "properties": {
                "label:cs": "Kříž západně od Kanice",
                "P31": "Pamětní kříž",
                "P131^label:cs": "Kanice",
                "P6736": "3520"
            },
            "geometry": {
                "type": "Point",
                "coordinates": [
                    13.06912,
                    49.47623
                ]
            }
        }
    ]
}