{
    "type": "FeatureCollection",
    "features": [
        {
            "type": "Feature",
            "properties": {
                "label:cs": "Pomník severozápadně od Přehýšova",
                "P31": "Pomník",
                "P131^label:cs": "Přehýšov",
                "P6736": "8803"
            },
            "geometry": {
                "type": "Point",
                "coordinates": [
                    13.12512,
                    49.70482
                ]
            }
        },
        {
            "type": "Feature",
            "properties": {
                "label:cs": "Pomník v Přehýšově na návsi",
                "P31": "Pomník",
                "P131^label:cs": "Přehýšov",
                "P6736": "8802"
            },
            "geometry": {
                "type": "Point",
                "coordinates": [
                    13.12875,
                    49.70192
                ]
            }
        },
        {
            "type": "Feature",
            "properties": {
                "label:cs": "Památník v Přehýšově",
                "P31": "Památník",
                "P131^label:cs": "Přehýšov",
                "P6736": "6177"
            },
            "geometry": {
                "type": "Point",
                "coordinates": [
                    13.12357,
                    49.70343
                ]
            }
        },
        {
            "type": "Feature",
            "properties": {
                "label:cs": "Kříž v Přehýšova u křižovatky",
                "P31": "Pamětní kříž",
                "P131^label:cs": "Přehýšov",
                "P6736": "6176"
            },
            "geometry": {
                "type": "Point",
                "coordinates": [
                    13.12473,
                    49.70332
                ]
            }
        },
        {
            "type": "Feature",
            "properties": {
                "label:cs": "Kaple v Přehýšově",
                "P31": "Kaple",
                "P131^label:cs": "Přehýšov",
                "P6736": "6175"
            },
            "geometry": {
                "type": "Point",
                "coordinates": [
                    13.12615,
                    49.70285
                ]
            }
        },
        {
            "type": "Feature",
            "properties": {
                "label:cs": "Kříž jižně od Přehýšova",
                "P31": "Pamětní kříž",
                "P131^label:cs": "Přehýšov",
                "P6736": "6174"
            },
            "geometry": {
                "type": "Point",
                "coordinates": [
                    13.1221,
                    49.69617
                ]
            }
        },
        {
            "type": "Feature",
            "properties": {
                "label:cs": "Kříž západně od Přehýšova III",
                "P31": "Pamětní kříž",
                "P131^label:cs": "Přehýšov",
                "P6736": "4677"
            },
            "geometry": {
                "type": "Point",
                "coordinates": [
                    13.12038,
                    49.70517
                ]
            }
        },
        {
            "type": "Feature",
            "properties": {
                "label:cs": "Boží muka západně od Přehýšova",
                "P31": "Boží muka",
                "P131^label:cs": "Přehýšov",
                "P6736": "4676"
            },
            "geometry": {
                "type": "Point",
                "coordinates": [
                    13.12035,
                    49.70517
                ]
            }
        },
        {
            "type": "Feature",
            "properties": {
                "label:cs": "Kříž západně od Přehýšova I",
                "P31": "Pamětní kříž",
                "P131^label:cs": "Přehýšov",
                "P6736": "4675"
            },
            "geometry": {
                "type": "Point",
                "coordinates": [
                    13.12033,
                    49.70517
                ]
            }
        },
        {
            "type": "Feature",
            "properties": {
                "label:cs": "Kříž u kaple v Přehýšově",
                "P31": "Pamětní kříž",
                "P131^label:cs": "Přehýšov",
                "P6736": "4674"
            },
            "geometry": {
                "type": "Point",
                "coordinates": [
                    13.12601,
                    49.70293
                ]
            }
        },
        {
            "type": "Feature",
            "properties": {
                "label:cs": "Kříž severně od Přehýšova",
                "P31": "Pamětní kříž",
                "P131^label:cs": "Přehýšov",
                "P6736": "4673"
            },
            "geometry": {
                "type": "Point",
                "coordinates": [
                    13.13403,
                    49.70446
                ]
            }
        },
        {
            "type": "Feature",
            "properties": {
                "label:cs": "Kaple Panny Marie v Dolních Sekyřanech u silnice",
                "P31": "Kaple",
                "P131^label:cs": "Heřmanova Huť",
                "P6736": "4047"
            },
            "geometry": {
                "type": "Point",
                "coordinates": [
                    13.10068,
                    49.70654
                ]
            }
        },
        {
            "type": "Feature",
            "properties": {
                "label:cs": "Kaple v Dolních Sekyřanech",
                "P31": "Kaple",
                "P131^label:cs": "Heřmanova Huť",
                "P6736": "3942"
            },
            "geometry": {
                "type": "Point",
                "coordinates": [
                    13.10111,
                    49.70586
                ]
            }
        },
        {
            "type": "Feature",
            "properties": {
                "label:cs": "Kříž u Dolních Sekyřan",
                "P31": "Pamětní kříž",
                "P131^label:cs": "Heřmanova Huť",
                "P6736": "3941"
            },
            "geometry": {
                "type": "Point",
                "coordinates": [
                    13.09912,
                    49.70509
                ]
            }
        }
    ]
}