{
    "type": "FeatureCollection",
    "features": [
        {
            "type": "Feature",
            "properties": {
                "label:cs": "Smírčí kříž na rozcestí severozápadně od Černýše",
                "P31": "Smírčí kříž",
                "P131^label:cs": "Perštejn",
                "P6736": "24027"
            },
            "geometry": {
                "type": "Point",
                "coordinates": [
                    13.12008,
                    50.37109
                ]
            }
        },
        {
            "type": "Feature",
            "properties": {
                "label:cs": "Kříž na rozcestí severozápadně od Černýše",
                "P31": "Pamětní kříž",
                "P131^label:cs": "Perštejn",
                "P6736": "24026"
            },
            "geometry": {
                "type": "Point",
                "coordinates": [
                    13.1201,
                    50.37109
                ]
            }
        },
        {
            "type": "Feature",
            "properties": {
                "label:cs": "Pomník nejasného účelu v západní části Černýše",
                "P31": "Pomník",
                "P131^label:cs": "Perštejn",
                "P6736": "24025"
            },
            "geometry": {
                "type": "Point",
                "coordinates": [
                    13.12102,
                    50.36953
                ]
            }
        },
        {
            "type": "Feature",
            "properties": {
                "label:cs": "Kaple v Černýši",
                "P31": "Kaple",
                "P131^label:cs": "Perštejn",
                "P6736": "24024"
            },
            "geometry": {
                "type": "Point",
                "coordinates": [
                    13.1245,
                    50.36954
                ]
            }
        },
        {
            "type": "Feature",
            "properties": {
                "label:cs": "Smírčí kříž na pastvině severně od Černýše",
                "P31": "Smírčí kříž",
                "P131^label:cs": "Perštejn",
                "P6736": "24023"
            },
            "geometry": {
                "type": "Point",
                "coordinates": [
                    13.12666,
                    50.37318
                ]
            }
        },
        {
            "type": "Feature",
            "properties": {
                "label:cs": "Kaple ve Smilově",
                "P31": "Kaple",
                "P131^label:cs": "Stráž nad Ohří",
                "P6736": "24020"
            },
            "geometry": {
                "type": "Point",
                "coordinates": [
                    13.09955,
                    50.37272
                ]
            }
        },
        {
            "type": "Feature",
            "properties": {
                "label:cs": "Smírčí kříž na rozcestí v osadě Lužný",
                "P31": "Smírčí kříž",
                "P131^label:cs": "Perštejn",
                "P6736": "24019"
            },
            "geometry": {
                "type": "Point",
                "coordinates": [
                    13.11492,
                    50.3698
                ]
            }
        }
    ]
}