{
    "type": "FeatureCollection",
    "features": [
        {
            "type": "Feature",
            "properties": {
                "label:cs": "Kříž na lesní cestě od trati do Záhořic",
                "P31": "Pamětní kříž",
                "P131^label:cs": "Žlutice",
                "P6736": "13799"
            },
            "geometry": {
                "type": "Point",
                "coordinates": [
                    13.19724,
                    50.08071
                ]
            }
        },
        {
            "type": "Feature",
            "properties": {
                "label:cs": "Kříž u cesty od železniční zastávky Záhořice",
                "P31": "Pamětní kříž",
                "P131^label:cs": "Žlutice",
                "P6736": "13798"
            },
            "geometry": {
                "type": "Point",
                "coordinates": [
                    13.19328,
                    50.07911
                ]
            }
        },
        {
            "type": "Feature",
            "properties": {
                "label:cs": "Pamětní kříž u Vladořic",
                "P31": "Pamětní kříž",
                "P131^label:cs": "Žlutice",
                "P6736": "11885"
            },
            "geometry": {
                "type": "Point",
                "coordinates": [
                    13.21112,
                    50.07315
                ]
            }
        },
        {
            "type": "Feature",
            "properties": {
                "label:cs": "pieta pod Vladařem",
                "P31": "Socha",
                "P131^label:cs": "Pšov",
                "P6736": "11884"
            },
            "geometry": {
                "type": "Point",
                "coordinates": [
                    13.20351,
                    50.07096
                ]
            }
        },
        {
            "type": "Feature",
            "properties": {
                "label:cs": "Socha svaté Barbory jižne od Kolešova",
                "P31": "Socha",
                "P131^label:cs": "Pšov",
                "P6736": "11883"
            },
            "geometry": {
                "type": "Point",
                "coordinates": [
                    13.19841,
                    50.06592
                ]
            }
        },
        {
            "type": "Feature",
            "properties": {
                "label:cs": "Kříž východně od Vladořic u studánky Pod Vladařem",
                "P31": "Pamětní kříž",
                "P131^label:cs": "Žlutice",
                "P6736": "3598"
            },
            "geometry": {
                "type": "Point",
                "coordinates": [
                    13.21652,
                    50.07322
                ]
            }
        },
        {
            "type": "Feature",
            "properties": {
                "label:cs": "Sousoší piety u Vladořic",
                "P31": "Socha",
                "P131^label:cs": "Žlutice",
                "P6736": "3597"
            },
            "geometry": {
                "type": "Point",
                "coordinates": [
                    13.21279,
                    50.0726
                ]
            }
        },
        {
            "type": "Feature",
            "properties": {
                "label:cs": "Kříž u křižovatky východně od Vladořic",
                "P31": "Pamětní kříž",
                "P131^label:cs": "Žlutice",
                "P6736": "3596"
            },
            "geometry": {
                "type": "Point",
                "coordinates": [
                    13.21376,
                    50.07209
                ]
            }
        },
        {
            "type": "Feature",
            "properties": {
                "label:cs": "Socha svatého Jana Nepomuckého jižně od Vladořic",
                "P31": "Socha",
                "P131^label:cs": "Žlutice",
                "P6736": "3595"
            },
            "geometry": {
                "type": "Point",
                "coordinates": [
                    13.21326,
                    50.07132
                ]
            }
        },
        {
            "type": "Feature",
            "properties": {
                "label:cs": "Socha svaté Barbory jižně od Kolešova",
                "P31": "Socha",
                "P131^label:cs": "Pšov",
                "P6736": "3594"
            },
            "geometry": {
                "type": "Point",
                "coordinates": [
                    13.19669,
                    50.06476
                ]
            }
        },
        {
            "type": "Feature",
            "properties": {
                "label:cs": "Kříž v poli východně od Kolešova",
                "P31": "Pamětní kříž",
                "P131^label:cs": "Pšov",
                "P6736": "3593"
            },
            "geometry": {
                "type": "Point",
                "coordinates": [
                    13.20533,
                    50.06513
                ]
            }
        }
    ]
}