{
    "type": "FeatureCollection",
    "features": [
        {
            "type": "Feature",
            "properties": {
                "label:cs": "Kříž jihozápadně od kaple v Doubravě",
                "P31": "Pamětní kříž",
                "P131^label:cs": "Nýřany",
                "P6736": "23170"
            },
            "geometry": {
                "type": "Point",
                "coordinates": [
                    13.18796,
                    49.74515
                ]
            }
        },
        {
            "type": "Feature",
            "properties": {
                "label:cs": "Pomník horníků v Pankráci",
                "P31": "Památník",
                "P131^label:cs": "Nýřany",
                "P6736": "8798"
            },
            "geometry": {
                "type": "Point",
                "coordinates": [
                    13.20791,
                    49.72657
                ]
            }
        },
        {
            "type": "Feature",
            "properties": {
                "label:cs": "Křížový kámen v Doubravě",
                "P31": "Křížový kámen",
                "P131^label:cs": "Nýřany",
                "P6736": "4685"
            },
            "geometry": {
                "type": "Point",
                "coordinates": [
                    13.18979,
                    49.74677
                ]
            }
        },
        {
            "type": "Feature",
            "properties": {
                "label:cs": "Socha svatého Jana Nepomuckého v Doubravě",
                "P31": "Socha",
                "P131^label:cs": "Nýřany",
                "P6736": "4684"
            },
            "geometry": {
                "type": "Point",
                "coordinates": [
                    13.18982,
                    49.74674
                ]
            }
        },
        {
            "type": "Feature",
            "properties": {
                "label:cs": "Kříž v Doubravě",
                "P31": "Pamětní kříž",
                "P131^label:cs": "Nýřany",
                "P6736": "4683"
            },
            "geometry": {
                "type": "Point",
                "coordinates": [
                    13.18968,
                    49.74595
                ]
            }
        },
        {
            "type": "Feature",
            "properties": {
                "label:cs": "Památník svobody v Doubravě",
                "P31": "Památník",
                "P131^label:cs": "Nýřany",
                "P6736": "4681"
            },
            "geometry": {
                "type": "Point",
                "coordinates": [
                    13.18921,
                    49.74596
                ]
            }
        },
        {
            "type": "Feature",
            "properties": {
                "label:cs": "Kaple v Doubravě",
                "P31": "Kaple",
                "P131^label:cs": "Nýřany",
                "P6736": "4680"
            },
            "geometry": {
                "type": "Point",
                "coordinates": [
                    13.18841,
                    49.74554
                ]
            }
        },
        {
            "type": "Feature",
            "properties": {
                "label:cs": "Památník obětem pochodu smrti v Myslince",
                "P31": "Památník",
                "P131^label:cs": "Myslinka",
                "P6736": "4026"
            },
            "geometry": {
                "type": "Point",
                "coordinates": [
                    13.21907,
                    49.74839
                ]
            }
        },
        {
            "type": "Feature",
            "properties": {
                "label:cs": "Menhir nad Nýřany nedaleko Pankráce",
                "P31": "Menhir",
                "P131^label:cs": "Nýřany",
                "P6736": "2212"
            },
            "geometry": {
                "type": "Point",
                "coordinates": [
                    13.21433,
                    49.72659
                ]
            }
        },
        {
            "type": "Feature",
            "properties": {
                "label:cs": "Kříž u Myslinky",
                "P31": "Pamětní kříž",
                "P131^label:cs": "Myslinka",
                "P6736": "2124"
            },
            "geometry": {
                "type": "Point",
                "coordinates": [
                    13.21873,
                    49.74968
                ]
            }
        }
    ]
}