{
    "type": "FeatureCollection",
    "features": [
        {
            "type": "Feature",
            "properties": {
                "label:cs": "Malá výklenková kaplička nad sjezdovkou pod Belvederem v Železné Rudě",
                "P31": "Kaplička",
                "P131^label:cs": "Železná Ruda",
                "P6736": "15582"
            },
            "geometry": {
                "type": "Point",
                "coordinates": [
                    13.23739,
                    49.14341
                ]
            }
        },
        {
            "type": "Feature",
            "properties": {
                "label:cs": "Kaple svaté Anny na konci křížové cesty v Železné Rudě",
                "P31": "Kaple",
                "P131^label:cs": "Železná Ruda",
                "P6736": "15581"
            },
            "geometry": {
                "type": "Point",
                "coordinates": [
                    13.23792,
                    49.1431
                ]
            }
        },
        {
            "type": "Feature",
            "properties": {
                "label:cs": "Kříž u kaple svaté Anny v Železné Rudě",
                "P31": "Pamětní kříž",
                "P131^label:cs": "Železná Ruda",
                "P6736": "15580"
            },
            "geometry": {
                "type": "Point",
                "coordinates": [
                    13.23786,
                    49.14305
                ]
            }
        },
        {
            "type": "Feature",
            "properties": {
                "label:cs": "Boží muka na Křížové cestě v Železné Rudě",
                "P31": "Boží muka",
                "P131^label:cs": "Železná Ruda",
                "P6736": "15579"
            },
            "geometry": {
                "type": "Point",
                "coordinates": [
                    13.23607,
                    49.14019
                ]
            }
        },
        {
            "type": "Feature",
            "properties": {
                "label:cs": "Kříž v Belvederské ulici v Železné Rudě",
                "P31": "Pamětní kříž",
                "P131^label:cs": "Železná Ruda",
                "P6736": "15578"
            },
            "geometry": {
                "type": "Point",
                "coordinates": [
                    13.23497,
                    49.13902
                ]
            }
        },
        {
            "type": "Feature",
            "properties": {
                "label:cs": "Pomník osvobození na Klostermannově náměstí v Železné Rudě",
                "P31": "Pomník",
                "P131^label:cs": "Železná Ruda",
                "P6736": "15577"
            },
            "geometry": {
                "type": "Point",
                "coordinates": [
                    13.23436,
                    49.13753
                ]
            }
        },
        {
            "type": "Feature",
            "properties": {
                "label:cs": "Kaple ve Sklářské ulici v Železné Rudě",
                "P31": "Kaple",
                "P131^label:cs": "Železná Ruda",
                "P6736": "15576"
            },
            "geometry": {
                "type": "Point",
                "coordinates": [
                    13.23334,
                    49.13518
                ]
            }
        },
        {
            "type": "Feature",
            "properties": {
                "label:cs": "Socha svatého Jana Nepomuckého u mostu ve Sklářské ulici v Železné Rudě",
                "P31": "Socha",
                "P131^label:cs": "Železná Ruda",
                "P6736": "15575"
            },
            "geometry": {
                "type": "Point",
                "coordinates": [
                    13.23402,
                    49.13596
                ]
            }
        },
        {
            "type": "Feature",
            "properties": {
                "label:cs": "Kříž u kostela v Železné Rudě",
                "P31": "Pamětní kříž",
                "P131^label:cs": "Železná Ruda",
                "P6736": "15574"
            },
            "geometry": {
                "type": "Point",
                "coordinates": [
                    13.23499,
                    49.13717
                ]
            }
        },
        {
            "type": "Feature",
            "properties": {
                "label:cs": "Pomník československým legionářům na Klostermannově náměstí v Železné Rudě",
                "P31": "Pomník",
                "P131^label:cs": "Železná Ruda",
                "P6736": "15573"
            },
            "geometry": {
                "type": "Point",
                "coordinates": [
                    13.2333,
                    49.1374
                ]
            }
        },
        {
            "type": "Feature",
            "properties": {
                "label:cs": "Pomník padlým v 1.světové válce v Železné Rudě",
                "P31": "Pomník padlým",
                "P131^label:cs": "Železná Ruda",
                "P6736": "15570"
            },
            "geometry": {
                "type": "Point",
                "coordinates": [
                    13.22985,
                    49.14054
                ]
            }
        },
        {
            "type": "Feature",
            "properties": {
                "label:cs": "kaple sv. Antonína a sv. Barbory",
                "P31": "Kaple",
                "P131^label:cs": "Železná Ruda",
                "P6736": "11847"
            },
            "geometry": {
                "type": "Point",
                "coordinates": [
                    13.22823,
                    49.14333
                ]
            }
        }
    ]
}