{
    "type": "FeatureCollection",
    "features": [
        {
            "type": "Feature",
            "properties": {
                "label:cs": "Kříž v Čeminech před bývalou školou",
                "P31": "Pamětní kříž",
                "P131^label:cs": "Čeminy",
                "P6736": "8954"
            },
            "geometry": {
                "type": "Point",
                "coordinates": [
                    13.25172,
                    49.79752
                ]
            }
        },
        {
            "type": "Feature",
            "properties": {
                "label:cs": "Pomník sestřelených letců v Čeminech",
                "P31": "Pomník padlým",
                "P131^label:cs": "Čeminy",
                "P6736": "8953"
            },
            "geometry": {
                "type": "Point",
                "coordinates": [
                    13.25272,
                    49.79933
                ]
            }
        },
        {
            "type": "Feature",
            "properties": {
                "label:cs": "Pomník padlým v Čeminech",
                "P31": "Pomník padlým",
                "P131^label:cs": "Čeminy",
                "P6736": "4887"
            },
            "geometry": {
                "type": "Point",
                "coordinates": [
                    13.25272,
                    49.79973
                ]
            }
        },
        {
            "type": "Feature",
            "properties": {
                "label:cs": "Kaple v Čeminech",
                "P31": "Kaple",
                "P131^label:cs": "Čeminy",
                "P6736": "4886"
            },
            "geometry": {
                "type": "Point",
                "coordinates": [
                    13.25319,
                    49.80048
                ]
            }
        },
        {
            "type": "Feature",
            "properties": {
                "label:cs": "Socha svatého Jana Nepomuckého v Čeminech",
                "P31": "Socha",
                "P131^label:cs": "Čeminy",
                "P6736": "4885"
            },
            "geometry": {
                "type": "Point",
                "coordinates": [
                    13.25298,
                    49.79982
                ]
            }
        },
        {
            "type": "Feature",
            "properties": {
                "label:cs": "Kříž severně od Čemin",
                "P31": "Pamětní kříž",
                "P131^label:cs": "Čeminy",
                "P6736": "3695"
            },
            "geometry": {
                "type": "Point",
                "coordinates": [
                    13.2589,
                    49.80455
                ]
            }
        },
        {
            "type": "Feature",
            "properties": {
                "label:cs": "Kaplička jižně od Košetic",
                "P31": "Kaplička",
                "P131^label:cs": "Čeminy",
                "P6736": "3694"
            },
            "geometry": {
                "type": "Point",
                "coordinates": [
                    13.22961,
                    49.8061
                ]
            }
        },
        {
            "type": "Feature",
            "properties": {
                "label:cs": "Kříž severně od Města Touškov",
                "P31": "Pamětní kříž",
                "P131^label:cs": "Město Touškov",
                "P6736": "3692"
            },
            "geometry": {
                "type": "Point",
                "coordinates": [
                    13.25051,
                    49.78818
                ]
            }
        },
        {
            "type": "Feature",
            "properties": {
                "label:cs": "Kříž jižně od Čemin",
                "P31": "Pamětní kříž",
                "P131^label:cs": "Čeminy",
                "P6736": "3691"
            },
            "geometry": {
                "type": "Point",
                "coordinates": [
                    13.25037,
                    49.79195
                ]
            }
        },
        {
            "type": "Feature",
            "properties": {
                "label:cs": "Kříž u křižovatky u Kumberku",
                "P31": "Pamětní kříž",
                "P131^label:cs": "Čeminy",
                "P6736": "3690"
            },
            "geometry": {
                "type": "Point",
                "coordinates": [
                    13.26919,
                    49.79137
                ]
            }
        },
        {
            "type": "Feature",
            "properties": {
                "label:cs": "Kříž u Města Touškov u cesty do Kumberku",
                "P31": "Pamětní kříž",
                "P131^label:cs": "Město Touškov",
                "P6736": "2036"
            },
            "geometry": {
                "type": "Point",
                "coordinates": [
                    13.25933,
                    49.78348
                ]
            }
        },
        {
            "type": "Feature",
            "properties": {
                "label:cs": "Kříž v poli u stromu nad Městem Touškov",
                "P31": "Pamětní kříž",
                "P131^label:cs": "Město Touškov",
                "P6736": "2038"
            },
            "geometry": {
                "type": "Point",
                "coordinates": [
                    13.2412,
                    49.78599
                ]
            }
        },
        {
            "type": "Feature",
            "properties": {
                "label:cs": "Kaplička severně od Čemin",
                "P31": "Kaplička",
                "P131^label:cs": "Čeminy",
                "P6736": "1323"
            },
            "geometry": {
                "type": "Point",
                "coordinates": [
                    13.25301,
                    49.80425
                ]
            }
        }
    ]
}