{
    "type": "FeatureCollection",
    "features": [
        {
            "type": "Feature",
            "properties": {
                "label:cs": "Pomník rudoarmějce ve Městě Touškov",
                "P31": "Pomník",
                "P131^label:cs": "Město Touškov",
                "P6736": "9401"
            },
            "geometry": {
                "type": "Point",
                "coordinates": [
                    13.24468,
                    49.77838
                ]
            }
        },
        {
            "type": "Feature",
            "properties": {
                "label:cs": "Hřbitovní kaple ve Městě Touškov",
                "P31": "Kaple",
                "P131^label:cs": "Město Touškov",
                "P6736": "8297"
            },
            "geometry": {
                "type": "Point",
                "coordinates": [
                    13.24398,
                    49.77803
                ]
            }
        },
        {
            "type": "Feature",
            "properties": {
                "label:cs": "Kříž u kostela ve Městě Touškov",
                "P31": "Pamětní kříž",
                "P131^label:cs": "Město Touškov",
                "P6736": "8015"
            },
            "geometry": {
                "type": "Point",
                "coordinates": [
                    13.24771,
                    49.77449
                ]
            }
        },
        {
            "type": "Feature",
            "properties": {
                "label:cs": "Kříž u kostela v Kozolupech",
                "P31": "Pamětní kříž",
                "P131^label:cs": "Kozolupy",
                "P6736": "8013"
            },
            "geometry": {
                "type": "Point",
                "coordinates": [
                    13.25413,
                    49.76369
                ]
            }
        },
        {
            "type": "Feature",
            "properties": {
                "label:cs": "Památník v Kozolupech",
                "P31": "Památník",
                "P131^label:cs": "Kozolupy",
                "P6736": "5044"
            },
            "geometry": {
                "type": "Point",
                "coordinates": [
                    13.24635,
                    49.76473
                ]
            }
        },
        {
            "type": "Feature",
            "properties": {
                "label:cs": "Pomník padlým v Kozolupech",
                "P31": "Pomník padlým",
                "P131^label:cs": "Kozolupy",
                "P6736": "5043"
            },
            "geometry": {
                "type": "Point",
                "coordinates": [
                    13.24563,
                    49.76483
                ]
            }
        },
        {
            "type": "Feature",
            "properties": {
                "label:cs": "Socha svaté Barbory u kostela v Kozolupech",
                "P31": "Socha",
                "P131^label:cs": "Kozolupy",
                "P6736": "4504"
            },
            "geometry": {
                "type": "Point",
                "coordinates": [
                    13.25385,
                    49.76366
                ]
            }
        },
        {
            "type": "Feature",
            "properties": {
                "label:cs": "Kříž u Kozolup",
                "P31": "Pamětní kříž",
                "P131^label:cs": "Kozolupy",
                "P6736": "4156"
            },
            "geometry": {
                "type": "Point",
                "coordinates": [
                    13.25689,
                    49.76313
                ]
            }
        },
        {
            "type": "Feature",
            "properties": {
                "label:cs": "Kaple v Bdeněvsi",
                "P31": "Kaple",
                "P131^label:cs": "Bdeněves",
                "P6736": "4025"
            },
            "geometry": {
                "type": "Point",
                "coordinates": [
                    13.2348,
                    49.76952
                ]
            }
        },
        {
            "type": "Feature",
            "properties": {
                "label:cs": "Sloup sousoší Nejsvětější Trojice ve Městě Touškov",
                "P31": "Sloup",
                "P131^label:cs": "Město Touškov",
                "P6736": "4024"
            },
            "geometry": {
                "type": "Point",
                "coordinates": [
                    13.24934,
                    49.77423
                ]
            }
        },
        {
            "type": "Feature",
            "properties": {
                "label:cs": "Památník obětem I. a II. odboje ve Městě Touškov",
                "P31": "Památník",
                "P131^label:cs": "Město Touškov",
                "P6736": "4022"
            },
            "geometry": {
                "type": "Point",
                "coordinates": [
                    13.24473,
                    49.77842
                ]
            }
        },
        {
            "type": "Feature",
            "properties": {
                "label:cs": "Kaple ve Městě Touškov v Partyzánské ulici",
                "P31": "Kaple",
                "P131^label:cs": "Město Touškov",
                "P6736": "2970"
            },
            "geometry": {
                "type": "Point",
                "coordinates": [
                    13.24732,
                    49.77807
                ]
            }
        },
        {
            "type": "Feature",
            "properties": {
                "label:cs": "Socha svatého Jana Nepomuckého jižně od Města Touškov",
                "P31": "Socha",
                "P131^label:cs": "Město Touškov",
                "P6736": "2037"
            },
            "geometry": {
                "type": "Point",
                "coordinates": [
                    13.24762,
                    49.77165
                ]
            }
        },
        {
            "type": "Feature",
            "properties": {
                "label:cs": "Kříž u stromu u Města Touškov",
                "P31": "Pamětní kříž",
                "P131^label:cs": "Město Touškov",
                "P6736": "2034"
            },
            "geometry": {
                "type": "Point",
                "coordinates": [
                    13.26206,
                    49.77879
                ]
            }
        },
        {
            "type": "Feature",
            "properties": {
                "label:cs": "Kaple u Města Touškov",
                "P31": "Kaple",
                "P131^label:cs": "Město Touškov",
                "P6736": "2035"
            },
            "geometry": {
                "type": "Point",
                "coordinates": [
                    13.25126,
                    49.78099
                ]
            }
        },
        {
            "type": "Feature",
            "properties": {
                "label:cs": "Kříž nad Kozolupy",
                "P31": "Pamětní kříž",
                "P131^label:cs": "Kozolupy",
                "P6736": "1787"
            },
            "geometry": {
                "type": "Point",
                "coordinates": [
                    13.24875,
                    49.75991
                ]
            }
        }
    ]
}