{
    "type": "FeatureCollection",
    "features": [
        {
            "type": "Feature",
            "properties": {
                "label:cs": "Pomník padlým v Dlouhé Louce",
                "P31": "Pomník padlým",
                "P131^label:cs": "Lužany",
                "P6736": "10943"
            },
            "geometry": {
                "type": "Point",
                "coordinates": [
                    13.28357,
                    49.54136
                ]
            }
        },
        {
            "type": "Feature",
            "properties": {
                "label:cs": "Kaple v Dlouhé Louce",
                "P31": "Kaple",
                "P131^label:cs": "Lužany",
                "P6736": "10942"
            },
            "geometry": {
                "type": "Point",
                "coordinates": [
                    13.28166,
                    49.54141
                ]
            }
        },
        {
            "type": "Feature",
            "properties": {
                "label:cs": "Kaplička u Mstic",
                "P31": "Kaplička",
                "P131^label:cs": "Vřeskovice",
                "P6736": "10941"
            },
            "geometry": {
                "type": "Point",
                "coordinates": [
                    13.27984,
                    49.53271
                ]
            }
        },
        {
            "type": "Feature",
            "properties": {
                "label:cs": "Kříž jižně od Mstic",
                "P31": "Pamětní kříž",
                "P131^label:cs": "Vřeskovice",
                "P6736": "10940"
            },
            "geometry": {
                "type": "Point",
                "coordinates": [
                    13.28448,
                    49.5286
                ]
            }
        },
        {
            "type": "Feature",
            "properties": {
                "label:cs": "Kříž východně od Vřeskovic",
                "P31": "Pamětní kříž",
                "P131^label:cs": "Vřeskovice",
                "P6736": "10939"
            },
            "geometry": {
                "type": "Point",
                "coordinates": [
                    13.28801,
                    49.52705
                ]
            }
        },
        {
            "type": "Feature",
            "properties": {
                "label:cs": "Socha svatého Jana Nepomuckého u Borov",
                "P31": "Socha",
                "P131^label:cs": "Borovy",
                "P6736": "10938"
            },
            "geometry": {
                "type": "Point",
                "coordinates": [
                    13.30146,
                    49.52807
                ]
            }
        },
        {
            "type": "Feature",
            "properties": {
                "label:cs": "Zvonička v Borovech",
                "P31": "Zvonička",
                "P131^label:cs": "Borovy",
                "P6736": "10937"
            },
            "geometry": {
                "type": "Point",
                "coordinates": [
                    13.29995,
                    49.52536
                ]
            }
        },
        {
            "type": "Feature",
            "properties": {
                "label:cs": "Kaplička u Nezdic",
                "P31": "Kaplička",
                "P131^label:cs": "Nezdice",
                "P6736": "4765"
            },
            "geometry": {
                "type": "Point",
                "coordinates": [
                    13.31492,
                    49.53126
                ]
            }
        },
        {
            "type": "Feature",
            "properties": {
                "label:cs": "Kaple v Lužanech",
                "P31": "Kaple",
                "P131^label:cs": "Lužany",
                "P6736": "4757"
            },
            "geometry": {
                "type": "Point",
                "coordinates": [
                    13.31497,
                    49.5501
                ]
            }
        },
        {
            "type": "Feature",
            "properties": {
                "label:cs": "Pomník padlým v Lužanech",
                "P31": "Pomník padlým",
                "P131^label:cs": "Lužany",
                "P6736": "4756"
            },
            "geometry": {
                "type": "Point",
                "coordinates": [
                    13.31505,
                    49.54557
                ]
            }
        },
        {
            "type": "Feature",
            "properties": {
                "label:cs": "Socha ve Vřeskovicích",
                "P31": "Socha",
                "P131^label:cs": "Vřeskovice",
                "P6736": "3306"
            },
            "geometry": {
                "type": "Point",
                "coordinates": [
                    13.27532,
                    49.52657
                ]
            }
        },
        {
            "type": "Feature",
            "properties": {
                "label:cs": "Kříž severně od Vřeskovic",
                "P31": "Pamětní kříž",
                "P131^label:cs": "Vřeskovice",
                "P6736": "3305"
            },
            "geometry": {
                "type": "Point",
                "coordinates": [
                    13.27704,
                    49.52977
                ]
            }
        }
    ]
}