{
    "type": "FeatureCollection",
    "features": [
        {
            "type": "Feature",
            "properties": {
                "label:cs": "Rozvalený podstavec sochy jihozápadně od Lubence",
                "P31": "Neznámý",
                "P131^label:cs": "Lubenec",
                "P6736": "20275"
            },
            "geometry": {
                "type": "Point",
                "coordinates": [
                    13.29345,
                    50.1213
                ]
            }
        },
        {
            "type": "Feature",
            "properties": {
                "label:cs": "Kříž na hrázi rybníka Melichovka východně od Libkovic",
                "P31": "Pamětní kříž",
                "P131^label:cs": "Lubenec",
                "P6736": "20269"
            },
            "geometry": {
                "type": "Point",
                "coordinates": [
                    13.27784,
                    50.1361
                ]
            }
        },
        {
            "type": "Feature",
            "properties": {
                "label:cs": "Boží muka pod hrází rybníka východně od Libkovic",
                "P31": "Boží muka",
                "P131^label:cs": "Lubenec",
                "P6736": "20260"
            },
            "geometry": {
                "type": "Point",
                "coordinates": [
                    13.27853,
                    50.1362
                ]
            }
        },
        {
            "type": "Feature",
            "properties": {
                "label:cs": "Kříž za železničním přejezdem v Lubenci směr Chyše",
                "P31": "Pamětní kříž",
                "P131^label:cs": "Lubenec",
                "P6736": "20153"
            },
            "geometry": {
                "type": "Point",
                "coordinates": [
                    13.30231,
                    50.12748
                ]
            }
        },
        {
            "type": "Feature",
            "properties": {
                "label:cs": "Socha svatého Řehoře u kostela v Lubenci",
                "P31": "Socha",
                "P131^label:cs": "Lubenec",
                "P6736": "20152"
            },
            "geometry": {
                "type": "Point",
                "coordinates": [
                    13.31472,
                    50.13218
                ]
            }
        },
        {
            "type": "Feature",
            "properties": {
                "label:cs": "Socha svatého Šebestiána u kostela v Lubenci",
                "P31": "Socha",
                "P131^label:cs": "Lubenec",
                "P6736": "20151"
            },
            "geometry": {
                "type": "Point",
                "coordinates": [
                    13.31474,
                    50.13207
                ]
            }
        },
        {
            "type": "Feature",
            "properties": {
                "label:cs": "Pomník obětem válek v Libyni",
                "P31": "Pomník padlým",
                "P131^label:cs": "Lubenec",
                "P6736": "20094"
            },
            "geometry": {
                "type": "Point",
                "coordinates": [
                    13.31369,
                    50.14719
                ]
            }
        },
        {
            "type": "Feature",
            "properties": {
                "label:cs": "Pamětní kříž v Libyni",
                "P31": "Pamětní kříž",
                "P131^label:cs": "Lubenec",
                "P6736": "20093"
            },
            "geometry": {
                "type": "Point",
                "coordinates": [
                    13.31371,
                    50.14694
                ]
            }
        },
        {
            "type": "Feature",
            "properties": {
                "label:cs": "Podstavec v Královské Údolí u Lubence",
                "P31": "Něco jiného",
                "P131^label:cs": "Lubenec",
                "P6736": "20092"
            },
            "geometry": {
                "type": "Point",
                "coordinates": [
                    13.30095,
                    50.14065
                ]
            }
        },
        {
            "type": "Feature",
            "properties": {
                "label:cs": "Socha svatého Floriána u hřbitova v Lubenci",
                "P31": "Socha",
                "P131^label:cs": "Lubenec",
                "P6736": "11700"
            },
            "geometry": {
                "type": "Point",
                "coordinates": [
                    13.31309,
                    50.13002
                ]
            }
        }
    ]
}