{
    "type": "FeatureCollection",
    "features": [
        {
            "type": "Feature",
            "properties": {
                "label:cs": "Kříž u kostela sv. Ambrože na Vícově",
                "P31": "Pamětní kříž",
                "P131^label:cs": "Přeštice",
                "P6736": "23896"
            },
            "geometry": {
                "type": "Point",
                "coordinates": [
                    13.35426,
                    49.58084
                ]
            }
        },
        {
            "type": "Feature",
            "properties": {
                "label:cs": "Kříž v Husově ulici v Přešticích",
                "P31": "Pamětní kříž",
                "P131^label:cs": "Přeštice",
                "P6736": "10951"
            },
            "geometry": {
                "type": "Point",
                "coordinates": [
                    13.325,
                    49.57242
                ]
            }
        },
        {
            "type": "Feature",
            "properties": {
                "label:cs": "Busta Karla Hynka Máchy v Přešticích",
                "P31": "Socha",
                "P131^label:cs": "Přeštice",
                "P6736": "10950"
            },
            "geometry": {
                "type": "Point",
                "coordinates": [
                    13.32347,
                    49.57436
                ]
            }
        },
        {
            "type": "Feature",
            "properties": {
                "label:cs": "Mariánský sloup na náměstí v Přešticích",
                "P31": "Sloup",
                "P131^label:cs": "Přeštice",
                "P6736": "10949"
            },
            "geometry": {
                "type": "Point",
                "coordinates": [
                    13.32935,
                    49.57212
                ]
            }
        },
        {
            "type": "Feature",
            "properties": {
                "label:cs": "Památník obětem druhé světové války v Přešticích",
                "P31": "Památník",
                "P131^label:cs": "Přeštice",
                "P6736": "10948"
            },
            "geometry": {
                "type": "Point",
                "coordinates": [
                    13.32918,
                    49.57228
                ]
            }
        },
        {
            "type": "Feature",
            "properties": {
                "label:cs": "Socha svatého Kiliána v Přešticích",
                "P31": "Socha",
                "P131^label:cs": "Přeštice",
                "P6736": "10947"
            },
            "geometry": {
                "type": "Point",
                "coordinates": [
                    13.33017,
                    49.57245
                ]
            }
        },
        {
            "type": "Feature",
            "properties": {
                "label:cs": "Socha u křižovatky v Přešticích",
                "P31": "Socha",
                "P131^label:cs": "Přeštice",
                "P6736": "10934"
            },
            "geometry": {
                "type": "Point",
                "coordinates": [
                    13.33225,
                    49.57431
                ]
            }
        },
        {
            "type": "Feature",
            "properties": {
                "label:cs": "Sousoší v Gagarinově ulici v Přešticích",
                "P31": "Socha",
                "P131^label:cs": "Přeštice",
                "P6736": "10933"
            },
            "geometry": {
                "type": "Point",
                "coordinates": [
                    13.33161,
                    49.57985
                ]
            }
        },
        {
            "type": "Feature",
            "properties": {
                "label:cs": "Památník 100 let českého skautingu v Přešticích",
                "P31": "Památník",
                "P131^label:cs": "Přeštice",
                "P6736": "10932"
            },
            "geometry": {
                "type": "Point",
                "coordinates": [
                    13.32869,
                    49.57723
                ]
            }
        },
        {
            "type": "Feature",
            "properties": {
                "label:cs": "Sousoší kosmonautů v Přešticích",
                "P31": "Socha",
                "P131^label:cs": "Přeštice",
                "P6736": "10931"
            },
            "geometry": {
                "type": "Point",
                "coordinates": [
                    13.32834,
                    49.57738
                ]
            }
        },
        {
            "type": "Feature",
            "properties": {
                "label:cs": "Kříž severně od Přeštic",
                "P31": "Pamětní kříž",
                "P131^label:cs": "Přeštice",
                "P6736": "10930"
            },
            "geometry": {
                "type": "Point",
                "coordinates": [
                    13.32727,
                    49.58187
                ]
            }
        },
        {
            "type": "Feature",
            "properties": {
                "label:cs": "Sochy šneků v Přešticích",
                "P31": "Socha",
                "P131^label:cs": "Přeštice",
                "P6736": "10929"
            },
            "geometry": {
                "type": "Point",
                "coordinates": [
                    13.33504,
                    49.57516
                ]
            }
        },
        {
            "type": "Feature",
            "properties": {
                "label:cs": "Kříž východně od Přeštic u rozcestí",
                "P31": "Pamětní kříž",
                "P131^label:cs": "Přeštice",
                "P6736": "10928"
            },
            "geometry": {
                "type": "Point",
                "coordinates": [
                    13.34084,
                    49.57813
                ]
            }
        },
        {
            "type": "Feature",
            "properties": {
                "label:cs": "Sousoší prasat v Přešticích",
                "P31": "Socha",
                "P131^label:cs": "Přeštice",
                "P6736": "9021"
            },
            "geometry": {
                "type": "Point",
                "coordinates": [
                    13.32721,
                    49.56944
                ]
            }
        },
        {
            "type": "Feature",
            "properties": {
                "label:cs": "Pomník obětem druhé světové války Přešticích",
                "P31": "Pomník padlým",
                "P131^label:cs": "Přeštice",
                "P6736": "5360"
            },
            "geometry": {
                "type": "Point",
                "coordinates": [
                    13.32964,
                    49.57218
                ]
            }
        },
        {
            "type": "Feature",
            "properties": {
                "label:cs": "Socha svatého Václava v Přešticích",
                "P31": "Socha",
                "P131^label:cs": "Přeštice",
                "P6736": "5359"
            },
            "geometry": {
                "type": "Point",
                "coordinates": [
                    13.32973,
                    49.57258
                ]
            }
        },
        {
            "type": "Feature",
            "properties": {
                "label:cs": "Socha svatého Jana Nepomuckého v Přešticích",
                "P31": "Socha",
                "P131^label:cs": "Přeštice",
                "P6736": "5358"
            },
            "geometry": {
                "type": "Point",
                "coordinates": [
                    13.3294,
                    49.57268
                ]
            }
        },
        {
            "type": "Feature",
            "properties": {
                "label:cs": "Socha svatého Jana Nepomuckého v Příchovicích",
                "P31": "Socha",
                "P131^label:cs": "Příchovice",
                "P6736": "5036"
            },
            "geometry": {
                "type": "Point",
                "coordinates": [
                    13.33905,
                    49.56204
                ]
            }
        },
        {
            "type": "Feature",
            "properties": {
                "label:cs": "Kříž u kostela Vícov",
                "P31": "Pamětní kříž",
                "P131^label:cs": "Přeštice",
                "P6736": "4324"
            },
            "geometry": {
                "type": "Point",
                "coordinates": [
                    13.35394,
                    49.58078
                ]
            }
        },
        {
            "type": "Feature",
            "properties": {
                "label:cs": "Socha svatého Jana Nepomuckého na mostě východně od Přeštic",
                "P31": "Socha",
                "P131^label:cs": "Přeštice",
                "P6736": "4316"
            },
            "geometry": {
                "type": "Point",
                "coordinates": [
                    13.34484,
                    49.57393
                ]
            }
        },
        {
            "type": "Feature",
            "properties": {
                "label:cs": "Památník východně od Přeštic",
                "P31": "Památník",
                "P131^label:cs": "Přeštice",
                "P6736": "4315"
            },
            "geometry": {
                "type": "Point",
                "coordinates": [
                    13.34744,
                    49.57277
                ]
            }
        },
        {
            "type": "Feature",
            "properties": {
                "label:cs": "Kříž východně od Přeštic",
                "P31": "Pamětní kříž",
                "P131^label:cs": "Přeštice",
                "P6736": "4314"
            },
            "geometry": {
                "type": "Point",
                "coordinates": [
                    13.35283,
                    49.57785
                ]
            }
        },
        {
            "type": "Feature",
            "properties": {
                "label:cs": "Kříž v Příchovicích",
                "P31": "Pamětní kříž",
                "P131^label:cs": "Příchovice",
                "P6736": "4131"
            },
            "geometry": {
                "type": "Point",
                "coordinates": [
                    13.3392,
                    49.56305
                ]
            }
        },
        {
            "type": "Feature",
            "properties": {
                "label:cs": "Pomník padlým v Příchovicích",
                "P31": "Pomník padlým",
                "P131^label:cs": "Příchovice",
                "P6736": "4130"
            },
            "geometry": {
                "type": "Point",
                "coordinates": [
                    13.33863,
                    49.56178
                ]
            }
        },
        {
            "type": "Feature",
            "properties": {
                "label:cs": "Kaple v Příchovicích",
                "P31": "Kaple",
                "P131^label:cs": "Příchovice",
                "P6736": "4129"
            },
            "geometry": {
                "type": "Point",
                "coordinates": [
                    13.33897,
                    49.56203
                ]
            }
        },
        {
            "type": "Feature",
            "properties": {
                "label:cs": "Malba Svatý Vojtěch na vrchu Ticholovec",
                "P31": "Obrázek",
                "P131^label:cs": "Příchovice",
                "P6736": "2396"
            },
            "geometry": {
                "type": "Point",
                "coordinates": [
                    13.35495,
                    49.5638
                ]
            }
        },
        {
            "type": "Feature",
            "properties": {
                "label:cs": "Kaple nad Příchovicemi",
                "P31": "Kaple",
                "P131^label:cs": "Příchovice",
                "P6736": "2395"
            },
            "geometry": {
                "type": "Point",
                "coordinates": [
                    13.3525,
                    49.55949
                ]
            }
        }
    ]
}