{
    "type": "FeatureCollection",
    "features": [
        {
            "type": "Feature",
            "properties": {
                "label:cs": "Obrázek u Sytné nad Košutkou",
                "P31": "Obrázek",
                "P131^label:cs": "Chotíkov",
                "P6736": "15266"
            },
            "geometry": {
                "type": "Point",
                "coordinates": [
                    13.34818,
                    49.78174
                ]
            }
        },
        {
            "type": "Feature",
            "properties": {
                "label:cs": "Pomník jihozápadně od Záluží",
                "P31": "Pomník",
                "P131^label:cs": "Ledce",
                "P6736": "8287"
            },
            "geometry": {
                "type": "Point",
                "coordinates": [
                    13.34837,
                    49.80741
                ]
            }
        },
        {
            "type": "Feature",
            "properties": {
                "label:cs": "Kříž jižně od Chotíkova - objekt v úschově",
                "P31": "Pamětní kříž",
                "P131^label:cs": "Chotíkov",
                "P6736": "6209"
            },
            "geometry": {
                "type": "Point",
                "coordinates": [
                    13.31659,
                    49.78854
                ]
            }
        },
        {
            "type": "Feature",
            "properties": {
                "label:cs": "Kříž východně od Chotíkova",
                "P31": "Pamětní kříž",
                "P131^label:cs": "Chotíkov",
                "P6736": "5517"
            },
            "geometry": {
                "type": "Point",
                "coordinates": [
                    13.32609,
                    49.78827
                ]
            }
        },
        {
            "type": "Feature",
            "properties": {
                "label:cs": "Kříž před kostelem v Chotíkově",
                "P31": "Pamětní kříž",
                "P131^label:cs": "Chotíkov",
                "P6736": "4926"
            },
            "geometry": {
                "type": "Point",
                "coordinates": [
                    13.31984,
                    49.79237
                ]
            }
        },
        {
            "type": "Feature",
            "properties": {
                "label:cs": "Kříž v Chotíkově u kostela",
                "P31": "Pamětní kříž",
                "P131^label:cs": "Chotíkov",
                "P6736": "4526"
            },
            "geometry": {
                "type": "Point",
                "coordinates": [
                    13.31981,
                    49.79227
                ]
            }
        },
        {
            "type": "Feature",
            "properties": {
                "label:cs": "Socha svatého Jana Nepomuckého v Chotíkově",
                "P31": "Socha",
                "P131^label:cs": "Chotíkov",
                "P6736": "4525"
            },
            "geometry": {
                "type": "Point",
                "coordinates": [
                    13.31938,
                    49.79224
                ]
            }
        },
        {
            "type": "Feature",
            "properties": {
                "label:cs": "Pomník padlým v Chotíkově",
                "P31": "Pomník padlým",
                "P131^label:cs": "Chotíkov",
                "P6736": "4524"
            },
            "geometry": {
                "type": "Point",
                "coordinates": [
                    13.31888,
                    49.79234
                ]
            }
        },
        {
            "type": "Feature",
            "properties": {
                "label:cs": "Kříž severně od Chotíkova",
                "P31": "Pamětní kříž",
                "P131^label:cs": "Chotíkov",
                "P6736": "1625"
            },
            "geometry": {
                "type": "Point",
                "coordinates": [
                    13.31799,
                    49.79896
                ]
            }
        }
    ]
}