{
    "type": "FeatureCollection",
    "features": [
        {
            "type": "Feature",
            "properties": {
                "label:cs": "Pomník padlým ve Lhotě",
                "P31": "Pomník padlým",
                "P131^label:cs": "Plzeň",
                "P6736": "10829"
            },
            "geometry": {
                "type": "Point",
                "coordinates": [
                    13.32101,
                    49.69105
                ]
            }
        },
        {
            "type": "Feature",
            "properties": {
                "label:cs": "Dálniční kaple smíření u Šlovic",
                "P31": "Kaple",
                "P131^label:cs": "Dobřany",
                "P6736": "10824"
            },
            "geometry": {
                "type": "Point",
                "coordinates": [
                    13.32902,
                    49.67709
                ]
            }
        },
        {
            "type": "Feature",
            "properties": {
                "label:cs": "Kaple na návsi ve Šlovicích",
                "P31": "Kaple",
                "P131^label:cs": "Dobřany",
                "P6736": "10823"
            },
            "geometry": {
                "type": "Point",
                "coordinates": [
                    13.34972,
                    49.6763
                ]
            }
        },
        {
            "type": "Feature",
            "properties": {
                "label:cs": "Mohyla jihozápadně od Litic",
                "P31": "Něco jiného",
                "P131^label:cs": "Plzeň",
                "P6736": "9940"
            },
            "geometry": {
                "type": "Point",
                "coordinates": [
                    13.34578,
                    49.6939
                ]
            }
        },
        {
            "type": "Feature",
            "properties": {
                "label:cs": "Kříž jihozápadně od Litic",
                "P31": "Pamětní kříž",
                "P131^label:cs": "Plzeň",
                "P6736": "9939"
            },
            "geometry": {
                "type": "Point",
                "coordinates": [
                    13.34631,
                    49.69357
                ]
            }
        },
        {
            "type": "Feature",
            "properties": {
                "label:cs": "Socha svaté Anny v Liticích u kostela",
                "P31": "Socha",
                "P131^label:cs": "Plzeň",
                "P6736": "9938"
            },
            "geometry": {
                "type": "Point",
                "coordinates": [
                    13.35252,
                    49.69552
                ]
            }
        },
        {
            "type": "Feature",
            "properties": {
                "label:cs": "Kaple nad Šlovicemi",
                "P31": "Kaple",
                "P131^label:cs": "Dobřany",
                "P6736": "6881"
            },
            "geometry": {
                "type": "Point",
                "coordinates": [
                    13.3504,
                    49.67843
                ]
            }
        },
        {
            "type": "Feature",
            "properties": {
                "label:cs": "Kaple jižně od Šlovic",
                "P31": "Kaple",
                "P131^label:cs": "Dobřany",
                "P6736": "6880"
            },
            "geometry": {
                "type": "Point",
                "coordinates": [
                    13.35007,
                    49.67424
                ]
            }
        },
        {
            "type": "Feature",
            "properties": {
                "label:cs": "Kaple u cesty z Dobřan do Lhoty",
                "P31": "Kaple",
                "P131^label:cs": "Dobřany",
                "P6736": "6879"
            },
            "geometry": {
                "type": "Point",
                "coordinates": [
                    13.31792,
                    49.67551
                ]
            }
        },
        {
            "type": "Feature",
            "properties": {
                "label:cs": "Kříž ve Lhotě v ulici Ke Křížku",
                "P31": "Pamětní kříž",
                "P131^label:cs": "Plzeň",
                "P6736": "5382"
            },
            "geometry": {
                "type": "Point",
                "coordinates": [
                    13.31967,
                    49.69165
                ]
            }
        },
        {
            "type": "Feature",
            "properties": {
                "label:cs": "Kaple ve Lhotě",
                "P31": "Kaple",
                "P131^label:cs": "Plzeň",
                "P6736": "4155"
            },
            "geometry": {
                "type": "Point",
                "coordinates": [
                    13.32272,
                    49.68913
                ]
            }
        }
    ]
}