{
    "type": "FeatureCollection",
    "features": [
        {
            "type": "Feature",
            "properties": {
                "label:cs": "Památník založení PO SSM Trnová",
                "P31": "Památník",
                "P131^label:cs": "Trnová",
                "P6736": "8307"
            },
            "geometry": {
                "type": "Point",
                "coordinates": [
                    13.31927,
                    49.86168
                ]
            }
        },
        {
            "type": "Feature",
            "properties": {
                "label:cs": "Kříž severně od Trnové u okraje lesa",
                "P31": "Pamětní kříž",
                "P131^label:cs": "Krašovice",
                "P6736": "7244"
            },
            "geometry": {
                "type": "Point",
                "coordinates": [
                    13.3195,
                    49.86609
                ]
            }
        },
        {
            "type": "Feature",
            "properties": {
                "label:cs": "Obrázek severně od Horní Břízy",
                "P31": "Obrázek",
                "P131^label:cs": "Horní Bříza",
                "P6736": "5662"
            },
            "geometry": {
                "type": "Point",
                "coordinates": [
                    13.35743,
                    49.84848
                ]
            }
        },
        {
            "type": "Feature",
            "properties": {
                "label:cs": "Kříž v Horní Bříze v ulici Na Rypličce",
                "P31": "Pamětní kříž",
                "P131^label:cs": "Horní Bříza",
                "P6736": "5661"
            },
            "geometry": {
                "type": "Point",
                "coordinates": [
                    13.35526,
                    49.84412
                ]
            }
        },
        {
            "type": "Feature",
            "properties": {
                "label:cs": "Plastika v Horní Bříze v ulici U Vrbky",
                "P31": "Plastika",
                "P131^label:cs": "Horní Bříza",
                "P6736": "5660"
            },
            "geometry": {
                "type": "Point",
                "coordinates": [
                    13.35649,
                    49.84363
                ]
            }
        },
        {
            "type": "Feature",
            "properties": {
                "label:cs": "Plastika Radostný život v Horní Bříze před školou",
                "P31": "Plastika",
                "P131^label:cs": "Horní Bříza",
                "P6736": "5659"
            },
            "geometry": {
                "type": "Point",
                "coordinates": [
                    13.35835,
                    49.84155
                ]
            }
        },
        {
            "type": "Feature",
            "properties": {
                "label:cs": "Památník stromu republiky v Horní Bříze",
                "P31": "Památník",
                "P131^label:cs": "Horní Bříza",
                "P6736": "5658"
            },
            "geometry": {
                "type": "Point",
                "coordinates": [
                    13.35696,
                    49.84099
                ]
            }
        },
        {
            "type": "Feature",
            "properties": {
                "label:cs": "Kaple u Trnové",
                "P31": "Kaple",
                "P131^label:cs": "Trnová",
                "P6736": "4840"
            },
            "geometry": {
                "type": "Point",
                "coordinates": [
                    13.33446,
                    49.85744
                ]
            }
        },
        {
            "type": "Feature",
            "properties": {
                "label:cs": "Kaple svatého Petra v Horní Bříze",
                "P31": "Kaple",
                "P131^label:cs": "Horní Bříza",
                "P6736": "4839"
            },
            "geometry": {
                "type": "Point",
                "coordinates": [
                    13.34808,
                    49.83847
                ]
            }
        },
        {
            "type": "Feature",
            "properties": {
                "label:cs": "Pomník padlým v Horní Bříze",
                "P31": "Pomník padlým",
                "P131^label:cs": "Horní Bříza",
                "P6736": "4363"
            },
            "geometry": {
                "type": "Point",
                "coordinates": [
                    13.35579,
                    49.83994
                ]
            }
        },
        {
            "type": "Feature",
            "properties": {
                "label:cs": "Pomník padlým v Trnové",
                "P31": "Pomník padlým",
                "P131^label:cs": "Trnová",
                "P6736": "4186"
            },
            "geometry": {
                "type": "Point",
                "coordinates": [
                    13.31969,
                    49.86086
                ]
            }
        },
        {
            "type": "Feature",
            "properties": {
                "label:cs": "Kříž v Trnové u zastávky",
                "P31": "Pamětní kříž",
                "P131^label:cs": "Trnová",
                "P6736": "3543"
            },
            "geometry": {
                "type": "Point",
                "coordinates": [
                    13.31936,
                    49.86074
                ]
            }
        },
        {
            "type": "Feature",
            "properties": {
                "label:cs": "Kříž mezi Žilovem a Horní Břízou",
                "P31": "Pamětní kříž",
                "P131^label:cs": "Žilov",
                "P6736": "2879"
            },
            "geometry": {
                "type": "Point",
                "coordinates": [
                    13.3218,
                    49.83864
                ]
            }
        },
        {
            "type": "Feature",
            "properties": {
                "label:cs": "Kříž nad Horní Břízou u cesty do Žilova",
                "P31": "Pamětní kříž",
                "P131^label:cs": "Horní Bříza",
                "P6736": "1553"
            },
            "geometry": {
                "type": "Point",
                "coordinates": [
                    13.34466,
                    49.8386
                ]
            }
        }
    ]
}