{
    "type": "FeatureCollection",
    "features": [
        {
            "type": "Feature",
            "properties": {
                "label:cs": "Křížový kámen západně od Řemešína",
                "P31": "Křížový kámen",
                "P131^label:cs": "Kralovice",
                "P6736": "10381"
            },
            "geometry": {
                "type": "Point",
                "coordinates": [
                    13.37941,
                    49.99631
                ]
            }
        },
        {
            "type": "Feature",
            "properties": {
                "label:cs": "Husitská kaple v Mladoticích",
                "P31": "Kaple",
                "P131^label:cs": "Mladotice",
                "P6736": "8118"
            },
            "geometry": {
                "type": "Point",
                "coordinates": [
                    13.36461,
                    49.98536
                ]
            }
        },
        {
            "type": "Feature",
            "properties": {
                "label:cs": "Kříž jihovýchodně od Mladotic",
                "P31": "Pamětní kříž",
                "P131^label:cs": "Mladotice",
                "P6736": "8110"
            },
            "geometry": {
                "type": "Point",
                "coordinates": [
                    13.36699,
                    49.9812
                ]
            }
        },
        {
            "type": "Feature",
            "properties": {
                "label:cs": "Kříž západně od Trojan",
                "P31": "Pamětní kříž",
                "P131^label:cs": "Mladotice",
                "P6736": "5244"
            },
            "geometry": {
                "type": "Point",
                "coordinates": [
                    13.38879,
                    49.98195
                ]
            }
        },
        {
            "type": "Feature",
            "properties": {
                "label:cs": "Pomník jižně od Řemešína",
                "P31": "Pomník",
                "P131^label:cs": "Kralovice",
                "P6736": "5243"
            },
            "geometry": {
                "type": "Point",
                "coordinates": [
                    13.38853,
                    49.98683
                ]
            }
        },
        {
            "type": "Feature",
            "properties": {
                "label:cs": "Kříž severně od Řemešína",
                "P31": "Pamětní kříž",
                "P131^label:cs": "Kralovice",
                "P6736": "5242"
            },
            "geometry": {
                "type": "Point",
                "coordinates": [
                    13.38837,
                    49.99785
                ]
            }
        },
        {
            "type": "Feature",
            "properties": {
                "label:cs": "Dřevěný kříž v Mladoticích",
                "P31": "Pamětní kříž",
                "P131^label:cs": "Mladotice",
                "P6736": "4383"
            },
            "geometry": {
                "type": "Point",
                "coordinates": [
                    13.36557,
                    49.9857
                ]
            }
        },
        {
            "type": "Feature",
            "properties": {
                "label:cs": "Kaple Panny Marie v Mladoticích",
                "P31": "Kaple",
                "P131^label:cs": "Mladotice",
                "P6736": "4382"
            },
            "geometry": {
                "type": "Point",
                "coordinates": [
                    13.3667,
                    49.98589
                ]
            }
        },
        {
            "type": "Feature",
            "properties": {
                "label:cs": "Pomník padlým v Mladoticích",
                "P31": "Pomník padlým",
                "P131^label:cs": "Mladotice",
                "P6736": "4381"
            },
            "geometry": {
                "type": "Point",
                "coordinates": [
                    13.36409,
                    49.98556
                ]
            }
        },
        {
            "type": "Feature",
            "properties": {
                "label:cs": "Kříž v Řemešíně",
                "P31": "Pamětní kříž",
                "P131^label:cs": "Kralovice",
                "P6736": "3821"
            },
            "geometry": {
                "type": "Point",
                "coordinates": [
                    13.3874,
                    49.99459
                ]
            }
        },
        {
            "type": "Feature",
            "properties": {
                "label:cs": "Pomník padlým v Řemešíně",
                "P31": "Pomník padlým",
                "P131^label:cs": "Kralovice",
                "P6736": "3820"
            },
            "geometry": {
                "type": "Point",
                "coordinates": [
                    13.38771,
                    49.99476
                ]
            }
        },
        {
            "type": "Feature",
            "properties": {
                "label:cs": "Pomník v lese východně od Chrášťovic",
                "P31": "Pomník",
                "P131^label:cs": "Mladotice",
                "P6736": "2941"
            },
            "geometry": {
                "type": "Point",
                "coordinates": [
                    13.3642,
                    50.00103
                ]
            }
        },
        {
            "type": "Feature",
            "properties": {
                "label:cs": "Socha svatého Antonína Paduánského u Řemešína",
                "P31": "Socha",
                "P131^label:cs": "Kralovice",
                "P6736": "2451"
            },
            "geometry": {
                "type": "Point",
                "coordinates": [
                    13.38606,
                    49.99186
                ]
            }
        },
        {
            "type": "Feature",
            "properties": {
                "label:cs": "Kříž u Mladotic na křižovatce",
                "P31": "Pamětní kříž",
                "P131^label:cs": "Mladotice",
                "P6736": "2062"
            },
            "geometry": {
                "type": "Point",
                "coordinates": [
                    13.36957,
                    49.98433
                ]
            }
        },
        {
            "type": "Feature",
            "properties": {
                "label:cs": "Kříž na Řemešínském vrchu",
                "P31": "Pamětní kříž",
                "P131^label:cs": "Kralovice",
                "P6736": "1306"
            },
            "geometry": {
                "type": "Point",
                "coordinates": [
                    13.40254,
                    50.00123
                ]
            }
        },
        {
            "type": "Feature",
            "properties": {
                "label:cs": "Kříž západně od Bukoviny",
                "P31": "Pamětní kříž",
                "P131^label:cs": "Kralovice",
                "P6736": "1305"
            },
            "geometry": {
                "type": "Point",
                "coordinates": [
                    13.40052,
                    49.99223
                ]
            }
        }
    ]
}