{
    "type": "FeatureCollection",
    "features": [
        {
            "type": "Feature",
            "properties": {
                "label:cs": "Kříž severně od Kbela",
                "P31": "Pamětní kříž",
                "P131^label:cs": "Kbel",
                "P6736": "4779"
            },
            "geometry": {
                "type": "Point",
                "coordinates": [
                    13.36322,
                    49.49807
                ]
            }
        },
        {
            "type": "Feature",
            "properties": {
                "label:cs": "Kříž ve Vlčí u rozcestí",
                "P31": "Pamětní kříž",
                "P131^label:cs": "Vlčí",
                "P6736": "4778"
            },
            "geometry": {
                "type": "Point",
                "coordinates": [
                    13.36075,
                    49.51591
                ]
            }
        },
        {
            "type": "Feature",
            "properties": {
                "label:cs": "Pomník padlým ve Vlčí",
                "P31": "Pomník padlým",
                "P131^label:cs": "Vlčí",
                "P6736": "4323"
            },
            "geometry": {
                "type": "Point",
                "coordinates": [
                    13.35994,
                    49.51181
                ]
            }
        },
        {
            "type": "Feature",
            "properties": {
                "label:cs": "Kaple ve Vlčí",
                "P31": "Kaple",
                "P131^label:cs": "Vlčí",
                "P6736": "4322"
            },
            "geometry": {
                "type": "Point",
                "coordinates": [
                    13.36008,
                    49.51173
                ]
            }
        },
        {
            "type": "Feature",
            "properties": {
                "label:cs": "Kříž severně od Nové Vsi",
                "P31": "Pamětní kříž",
                "P131^label:cs": "Kbel",
                "P6736": "4293"
            },
            "geometry": {
                "type": "Point",
                "coordinates": [
                    13.37998,
                    49.49914
                ]
            }
        },
        {
            "type": "Feature",
            "properties": {
                "label:cs": "Kříž u Vlčí",
                "P31": "Pamětní kříž",
                "P131^label:cs": "Vlčí",
                "P6736": "2769"
            },
            "geometry": {
                "type": "Point",
                "coordinates": [
                    13.35987,
                    49.50809
                ]
            }
        }
    ]
}