{
    "type": "FeatureCollection",
    "features": [
        {
            "type": "Feature",
            "properties": {
                "label:cs": "Boží muka západně od Velečína",
                "P31": "Boží muka",
                "P131^label:cs": "Velečín",
                "P6736": "8607"
            },
            "geometry": {
                "type": "Point",
                "coordinates": [
                    13.39463,
                    50.0725
                ]
            }
        },
        {
            "type": "Feature",
            "properties": {
                "label:cs": "Kříž jižně od Pastuchovic",
                "P31": "Pamětní kříž",
                "P131^label:cs": "Pastuchovice",
                "P6736": "4224"
            },
            "geometry": {
                "type": "Point",
                "coordinates": [
                    13.38415,
                    50.06551
                ]
            }
        },
        {
            "type": "Feature",
            "properties": {
                "label:cs": "Kříž v Pastuchovicích u zatáčky",
                "P31": "Pamětní kříž",
                "P131^label:cs": "Pastuchovice",
                "P6736": "4223"
            },
            "geometry": {
                "type": "Point",
                "coordinates": [
                    13.38268,
                    50.06881
                ]
            }
        },
        {
            "type": "Feature",
            "properties": {
                "label:cs": "Pomník osvobození v Pastuchovicích",
                "P31": "Pomník padlým",
                "P131^label:cs": "Pastuchovice",
                "P6736": "4222"
            },
            "geometry": {
                "type": "Point",
                "coordinates": [
                    13.38538,
                    50.06981
                ]
            }
        },
        {
            "type": "Feature",
            "properties": {
                "label:cs": "Kříž v Pastuchovicích",
                "P31": "Pamětní kříž",
                "P131^label:cs": "Pastuchovice",
                "P6736": "4221"
            },
            "geometry": {
                "type": "Point",
                "coordinates": [
                    13.3852,
                    50.06995
                ]
            }
        },
        {
            "type": "Feature",
            "properties": {
                "label:cs": "Kaple v Pastuchovicích",
                "P31": "Kaple",
                "P131^label:cs": "Pastuchovice",
                "P6736": "4220"
            },
            "geometry": {
                "type": "Point",
                "coordinates": [
                    13.38516,
                    50.06961
                ]
            }
        },
        {
            "type": "Feature",
            "properties": {
                "label:cs": "Památník T. G. Masaryka v Pastuchovicích",
                "P31": "Památník",
                "P131^label:cs": "Pastuchovice",
                "P6736": "4219"
            },
            "geometry": {
                "type": "Point",
                "coordinates": [
                    13.38505,
                    50.06889
                ]
            }
        },
        {
            "type": "Feature",
            "properties": {
                "label:cs": "Socha Krista v Pastuchovicích",
                "P31": "Socha",
                "P131^label:cs": "Pastuchovice",
                "P6736": "4218"
            },
            "geometry": {
                "type": "Point",
                "coordinates": [
                    13.38578,
                    50.06931
                ]
            }
        },
        {
            "type": "Feature",
            "properties": {
                "label:cs": "Památník W. Taubera ve Velečíně",
                "P31": "Památník",
                "P131^label:cs": "Velečín",
                "P6736": "4216"
            },
            "geometry": {
                "type": "Point",
                "coordinates": [
                    13.40153,
                    50.07449
                ]
            }
        },
        {
            "type": "Feature",
            "properties": {
                "label:cs": "Kaplička ve Velečíně",
                "P31": "Kaplička",
                "P131^label:cs": "Velečín",
                "P6736": "4215"
            },
            "geometry": {
                "type": "Point",
                "coordinates": [
                    13.40108,
                    50.07513
                ]
            }
        },
        {
            "type": "Feature",
            "properties": {
                "label:cs": "Kříž u Pastuchovic",
                "P31": "Pamětní kříž",
                "P131^label:cs": "Pastuchovice",
                "P6736": "2282"
            },
            "geometry": {
                "type": "Point",
                "coordinates": [
                    13.38821,
                    50.0697
                ]
            }
        }
    ]
}