{
    "type": "FeatureCollection",
    "features": [
        {
            "type": "Feature",
            "properties": {
                "label:cs": "Památník severovýchodně od Plas",
                "P31": "Památník",
                "P131^label:cs": "Plasy",
                "P6736": "8914"
            },
            "geometry": {
                "type": "Point",
                "coordinates": [
                    13.40773,
                    49.93978
                ]
            }
        },
        {
            "type": "Feature",
            "properties": {
                "label:cs": "Kříž severozápadně od Babiny u lesa",
                "P31": "Pamětní kříž",
                "P131^label:cs": "Plasy",
                "P6736": "3113"
            },
            "geometry": {
                "type": "Point",
                "coordinates": [
                    13.41071,
                    49.94772
                ]
            }
        },
        {
            "type": "Feature",
            "properties": {
                "label:cs": "Kříž severozápadně od Babiny",
                "P31": "Pamětní kříž",
                "P131^label:cs": "Plasy",
                "P6736": "3112"
            },
            "geometry": {
                "type": "Point",
                "coordinates": [
                    13.41307,
                    49.94642
                ]
            }
        },
        {
            "type": "Feature",
            "properties": {
                "label:cs": "Kříž u silnice v Babině",
                "P31": "Pamětní kříž",
                "P131^label:cs": "Plasy",
                "P6736": "3111"
            },
            "geometry": {
                "type": "Point",
                "coordinates": [
                    13.42795,
                    49.93767
                ]
            }
        },
        {
            "type": "Feature",
            "properties": {
                "label:cs": "Kříž v Babině",
                "P31": "Pamětní kříž",
                "P131^label:cs": "Plasy",
                "P6736": "3110"
            },
            "geometry": {
                "type": "Point",
                "coordinates": [
                    13.43,
                    49.93652
                ]
            }
        },
        {
            "type": "Feature",
            "properties": {
                "label:cs": "Pomník padlým v Babině",
                "P31": "Pomník padlým",
                "P131^label:cs": "Plasy",
                "P6736": "3109"
            },
            "geometry": {
                "type": "Point",
                "coordinates": [
                    13.43011,
                    49.93649
                ]
            }
        },
        {
            "type": "Feature",
            "properties": {
                "label:cs": "Kaple v Babině",
                "P31": "Kaple",
                "P131^label:cs": "Plasy",
                "P6736": "3108"
            },
            "geometry": {
                "type": "Point",
                "coordinates": [
                    13.43015,
                    49.93592
                ]
            }
        },
        {
            "type": "Feature",
            "properties": {
                "label:cs": "Kříž jižně od Babiny",
                "P31": "Pamětní kříž",
                "P131^label:cs": "Plasy",
                "P6736": "3107"
            },
            "geometry": {
                "type": "Point",
                "coordinates": [
                    13.42917,
                    49.93413
                ]
            }
        },
        {
            "type": "Feature",
            "properties": {
                "label:cs": "Kříž západně od Babiny",
                "P31": "Pamětní kříž",
                "P131^label:cs": "Plasy",
                "P6736": "3106"
            },
            "geometry": {
                "type": "Point",
                "coordinates": [
                    13.41757,
                    49.9355
                ]
            }
        },
        {
            "type": "Feature",
            "properties": {
                "label:cs": "Kříž východně od Plas",
                "P31": "Pamětní kříž",
                "P131^label:cs": "Plasy",
                "P6736": "3105"
            },
            "geometry": {
                "type": "Point",
                "coordinates": [
                    13.40389,
                    49.93221
                ]
            }
        }
    ]
}