{
    "type": "FeatureCollection",
    "features": [
        {
            "type": "Feature",
            "properties": {
                "label:cs": "Odpočivný kámen na návsi v Droužkovicích",
                "P31": "Památný kámen",
                "P131^label:cs": "Droužkovice",
                "P6736": "23576"
            },
            "geometry": {
                "type": "Point",
                "coordinates": [
                    13.42874,
                    50.43092
                ]
            }
        },
        {
            "type": "Feature",
            "properties": {
                "label:cs": "Kříž u domu 34 v ulici Jana Švermy v Droužkovicích",
                "P31": "Pamětní kříž",
                "P131^label:cs": "Droužkovice",
                "P6736": "23575"
            },
            "geometry": {
                "type": "Point",
                "coordinates": [
                    13.42743,
                    50.43117
                ]
            }
        },
        {
            "type": "Feature",
            "properties": {
                "label:cs": "Menhiry v poli severozápadně od Droužkovic",
                "P31": "Menhir",
                "P131^label:cs": "Chomutov",
                "P6736": "23574"
            },
            "geometry": {
                "type": "Point",
                "coordinates": [
                    13.42059,
                    50.43823
                ]
            }
        },
        {
            "type": "Feature",
            "properties": {
                "label:cs": "Socha svatého Františka za školkou v Droužkovicích",
                "P31": "Socha",
                "P131^label:cs": "Droužkovice",
                "P6736": "23573"
            },
            "geometry": {
                "type": "Point",
                "coordinates": [
                    13.43062,
                    50.43127
                ]
            }
        },
        {
            "type": "Feature",
            "properties": {
                "label:cs": "Zvonice u obecního úřadu v Droužkovicích",
                "P31": "Zvonička",
                "P131^label:cs": "Droužkovice",
                "P6736": "23572"
            },
            "geometry": {
                "type": "Point",
                "coordinates": [
                    13.42996,
                    50.43061
                ]
            }
        },
        {
            "type": "Feature",
            "properties": {
                "label:cs": "Kříž u kostela v Droužkovicích",
                "P31": "Pamětní kříž",
                "P131^label:cs": "Droužkovice",
                "P6736": "23571"
            },
            "geometry": {
                "type": "Point",
                "coordinates": [
                    13.42978,
                    50.43081
                ]
            }
        },
        {
            "type": "Feature",
            "properties": {
                "label:cs": "Pomník osvobození u kostela v Droužkovicích",
                "P31": "Pomník",
                "P131^label:cs": "Droužkovice",
                "P6736": "23570"
            },
            "geometry": {
                "type": "Point",
                "coordinates": [
                    13.42983,
                    50.43072
                ]
            }
        },
        {
            "type": "Feature",
            "properties": {
                "label:cs": "Kaplička svatého Jana Nepomuckého u obecního úřadu v Droužkovicích",
                "P31": "Kaplička",
                "P131^label:cs": "Droužkovice",
                "P6736": "23569"
            },
            "geometry": {
                "type": "Point",
                "coordinates": [
                    13.43035,
                    50.43048
                ]
            }
        },
        {
            "type": "Feature",
            "properties": {
                "label:cs": "Pomník nejasného účelu v ulici Rudé Armády v Droužkovicích",
                "P31": "Pomník",
                "P131^label:cs": "Droužkovice",
                "P6736": "23568"
            },
            "geometry": {
                "type": "Point",
                "coordinates": [
                    13.43132,
                    50.4297
                ]
            }
        },
        {
            "type": "Feature",
            "properties": {
                "label:cs": "Památník zaniklé židovské komunity na bývalém židovském hřbitově v Chomutově",
                "P31": "Památník",
                "P131^label:cs": "Chomutov",
                "P6736": "23457"
            },
            "geometry": {
                "type": "Point",
                "coordinates": [
                    13.40959,
                    50.44938
                ]
            }
        },
        {
            "type": "Feature",
            "properties": {
                "label:cs": "Pomník bývalého židovského hřbitova v Chomutově",
                "P31": "Pomník",
                "P131^label:cs": "Chomutov",
                "P6736": "23456"
            },
            "geometry": {
                "type": "Point",
                "coordinates": [
                    13.40905,
                    50.44911
                ]
            }
        },
        {
            "type": "Feature",
            "properties": {
                "label:cs": "Socha Houslistka u Základní umělecké školy v Chomutově",
                "P31": "Socha",
                "P131^label:cs": "Chomutov",
                "P6736": "20936"
            },
            "geometry": {
                "type": "Point",
                "coordinates": [
                    13.41493,
                    50.45663
                ]
            }
        },
        {
            "type": "Feature",
            "properties": {
                "label:cs": "Kaple na rozcestí v Dukelské ulici v Chomutově",
                "P31": "Kaple",
                "P131^label:cs": "Chomutov",
                "P6736": "20933"
            },
            "geometry": {
                "type": "Point",
                "coordinates": [
                    13.43051,
                    50.4556
                ]
            }
        },
        {
            "type": "Feature",
            "properties": {
                "label:cs": "Socha Tomáše G. Masaryka v Chomutově",
                "P31": "Socha",
                "P131^label:cs": "Chomutov",
                "P6736": "11486"
            },
            "geometry": {
                "type": "Point",
                "coordinates": [
                    13.41519,
                    50.45697
                ]
            }
        }
    ]
}