{
    "type": "FeatureCollection",
    "features": [
        {
            "type": "Feature",
            "properties": {
                "label:cs": "Minaret v Druztové",
                "P31": "Něco jiného",
                "P131^label:cs": "Druztová",
                "P6736": "7245"
            },
            "geometry": {
                "type": "Point",
                "coordinates": [
                    13.44554,
                    49.79865
                ]
            }
        },
        {
            "type": "Feature",
            "properties": {
                "label:cs": "Kříž západně od Druztové",
                "P31": "Pamětní kříž",
                "P131^label:cs": "Zruč-Senec",
                "P6736": "4859"
            },
            "geometry": {
                "type": "Point",
                "coordinates": [
                    13.43379,
                    49.79452
                ]
            }
        },
        {
            "type": "Feature",
            "properties": {
                "label:cs": "Kaple ve Zruči",
                "P31": "Kaple",
                "P131^label:cs": "Zruč-Senec",
                "P6736": "4466"
            },
            "geometry": {
                "type": "Point",
                "coordinates": [
                    13.4325,
                    49.80917
                ]
            }
        },
        {
            "type": "Feature",
            "properties": {
                "label:cs": "Kříž v Druztové u křižovatky",
                "P31": "Pamětní kříž",
                "P131^label:cs": "Druztová",
                "P6736": "4450"
            },
            "geometry": {
                "type": "Point",
                "coordinates": [
                    13.44582,
                    49.79654
                ]
            }
        },
        {
            "type": "Feature",
            "properties": {
                "label:cs": "Pomník padlým v Senci",
                "P31": "Pomník padlým",
                "P131^label:cs": "Zruč-Senec",
                "P6736": "4089"
            },
            "geometry": {
                "type": "Point",
                "coordinates": [
                    13.41583,
                    49.79822
                ]
            }
        },
        {
            "type": "Feature",
            "properties": {
                "label:cs": "Boží muka u Zruče",
                "P31": "Boží muka",
                "P131^label:cs": "Zruč-Senec",
                "P6736": "4088"
            },
            "geometry": {
                "type": "Point",
                "coordinates": [
                    13.43361,
                    49.80703
                ]
            }
        },
        {
            "type": "Feature",
            "properties": {
                "label:cs": "Kaple v Senci",
                "P31": "Kaple",
                "P131^label:cs": "Zruč-Senec",
                "P6736": "4087"
            },
            "geometry": {
                "type": "Point",
                "coordinates": [
                    13.42039,
                    49.79346
                ]
            }
        },
        {
            "type": "Feature",
            "properties": {
                "label:cs": "Pomník padlým ve Zruči",
                "P31": "Pomník padlým",
                "P131^label:cs": "Zruč-Senec",
                "P6736": "4086"
            },
            "geometry": {
                "type": "Point",
                "coordinates": [
                    13.43138,
                    49.80903
                ]
            }
        },
        {
            "type": "Feature",
            "properties": {
                "label:cs": "Památník Husitů u Zruče",
                "P31": "Památník",
                "P131^label:cs": "Zruč-Senec",
                "P6736": "2884"
            },
            "geometry": {
                "type": "Point",
                "coordinates": [
                    13.42124,
                    49.80857
                ]
            }
        }
    ]
}