{
    "type": "FeatureCollection",
    "features": [
        {
            "type": "Feature",
            "properties": {
                "label:cs": "Pomník padlým v Nebřezinách",
                "P31": "Pomník padlým",
                "P131^label:cs": "Plasy",
                "P6736": "8340"
            },
            "geometry": {
                "type": "Point",
                "coordinates": [
                    13.41311,
                    49.92121
                ]
            }
        },
        {
            "type": "Feature",
            "properties": {
                "label:cs": "Kříž jihovýchodně od Nebřezin",
                "P31": "Pamětní kříž",
                "P131^label:cs": "Obora",
                "P6736": "8339"
            },
            "geometry": {
                "type": "Point",
                "coordinates": [
                    13.42486,
                    49.9058
                ]
            }
        },
        {
            "type": "Feature",
            "properties": {
                "label:cs": "Obrázek severně od Obory",
                "P31": "Obrázek",
                "P131^label:cs": "Obora",
                "P6736": "5086"
            },
            "geometry": {
                "type": "Point",
                "coordinates": [
                    13.42897,
                    49.90664
                ]
            }
        },
        {
            "type": "Feature",
            "properties": {
                "label:cs": "Pomník pilota západně od Koryt",
                "P31": "Pomník",
                "P131^label:cs": "Obora",
                "P6736": "5082"
            },
            "geometry": {
                "type": "Point",
                "coordinates": [
                    13.44575,
                    49.90892
                ]
            }
        },
        {
            "type": "Feature",
            "properties": {
                "label:cs": "Socha svatého Jana Nepomuckého v Nebřezinech",
                "P31": "Socha",
                "P131^label:cs": "Plasy",
                "P6736": "4112"
            },
            "geometry": {
                "type": "Point",
                "coordinates": [
                    13.41362,
                    49.92226
                ]
            }
        },
        {
            "type": "Feature",
            "properties": {
                "label:cs": "Kaple v Nebřezinech",
                "P31": "Kaple",
                "P131^label:cs": "Plasy",
                "P6736": "4052"
            },
            "geometry": {
                "type": "Point",
                "coordinates": [
                    13.41465,
                    49.91894
                ]
            }
        },
        {
            "type": "Feature",
            "properties": {
                "label:cs": "Sloup se sochou Panny Marie v Nebřezinech",
                "P31": "Sloup",
                "P131^label:cs": "Plasy",
                "P6736": "4051"
            },
            "geometry": {
                "type": "Point",
                "coordinates": [
                    13.41467,
                    49.91898
                ]
            }
        },
        {
            "type": "Feature",
            "properties": {
                "label:cs": "Kříž nad Vobořickou hájovnou u rozcestí",
                "P31": "Pamětní kříž",
                "P131^label:cs": "Obora",
                "P6736": "2219"
            },
            "geometry": {
                "type": "Point",
                "coordinates": [
                    13.4331,
                    49.90413
                ]
            }
        },
        {
            "type": "Feature",
            "properties": {
                "label:cs": "Kříž u Vobořické hájovny",
                "P31": "Pamětní kříž",
                "P131^label:cs": "Obora",
                "P6736": "2218"
            },
            "geometry": {
                "type": "Point",
                "coordinates": [
                    13.43767,
                    49.89816
                ]
            }
        }
    ]
}