{
    "type": "FeatureCollection",
    "features": [
        {
            "type": "Feature",
            "properties": {
                "label:cs": "Pomník jižně od Starého Plzence",
                "P31": "Pomník",
                "P131^label:cs": "Starý Plzenec",
                "P6736": "7146"
            },
            "geometry": {
                "type": "Point",
                "coordinates": [
                    13.47589,
                    49.6771
                ]
            }
        },
        {
            "type": "Feature",
            "properties": {
                "label:cs": "Socha Karla IV ve Starém Plzenci v ulici Elišky Krásnohorské",
                "P31": "Socha",
                "P131^label:cs": "Starý Plzenec",
                "P6736": "7145"
            },
            "geometry": {
                "type": "Point",
                "coordinates": [
                    13.47555,
                    49.68818
                ]
            }
        },
        {
            "type": "Feature",
            "properties": {
                "label:cs": "Kaple v Losiné",
                "P31": "Kaple",
                "P131^label:cs": "Losiná",
                "P6736": "4491"
            },
            "geometry": {
                "type": "Point",
                "coordinates": [
                    13.44788,
                    49.66962
                ]
            }
        },
        {
            "type": "Feature",
            "properties": {
                "label:cs": "Kříž v Losiné na křižovatce",
                "P31": "Pamětní kříž",
                "P131^label:cs": "Losiná",
                "P6736": "4489"
            },
            "geometry": {
                "type": "Point",
                "coordinates": [
                    13.44991,
                    49.66971
                ]
            }
        },
        {
            "type": "Feature",
            "properties": {
                "label:cs": "Kříž v Losiné u zahrad",
                "P31": "Pamětní kříž",
                "P131^label:cs": "Losiná",
                "P6736": "4488"
            },
            "geometry": {
                "type": "Point",
                "coordinates": [
                    13.45325,
                    49.66945
                ]
            }
        },
        {
            "type": "Feature",
            "properties": {
                "label:cs": "Pomník padlým v Losiné",
                "P31": "Pomník padlým",
                "P131^label:cs": "Losiná",
                "P6736": "4487"
            },
            "geometry": {
                "type": "Point",
                "coordinates": [
                    13.45452,
                    49.66884
                ]
            }
        },
        {
            "type": "Feature",
            "properties": {
                "label:cs": "Památník v Losiné",
                "P31": "Památník",
                "P131^label:cs": "Losiná",
                "P6736": "4486"
            },
            "geometry": {
                "type": "Point",
                "coordinates": [
                    13.45659,
                    49.66858
                ]
            }
        }
    ]
}