{
    "type": "FeatureCollection",
    "features": [
        {
            "type": "Feature",
            "properties": {
                "label:cs": "Socha svatého Rocha v Siřemi",
                "P31": "Socha",
                "P131^label:cs": "Blšany",
                "P6736": "15770"
            },
            "geometry": {
                "type": "Point",
                "coordinates": [
                    13.50549,
                    50.23379
                ]
            }
        },
        {
            "type": "Feature",
            "properties": {
                "label:cs": "Sochy andělů před kostelem v Siřemi",
                "P31": "Socha",
                "P131^label:cs": "Blšany",
                "P6736": "15769"
            },
            "geometry": {
                "type": "Point",
                "coordinates": [
                    13.50497,
                    50.23401
                ]
            }
        },
        {
            "type": "Feature",
            "properties": {
                "label:cs": "Pomník padlých v Siřemi",
                "P31": "Pomník padlým",
                "P131^label:cs": "Blšany",
                "P6736": "15768"
            },
            "geometry": {
                "type": "Point",
                "coordinates": [
                    13.50511,
                    50.23411
                ]
            }
        },
        {
            "type": "Feature",
            "properties": {
                "label:cs": "Kříž v Čárce",
                "P31": "Pamětní kříž",
                "P131^label:cs": "Blšany",
                "P6736": "15767"
            },
            "geometry": {
                "type": "Point",
                "coordinates": [
                    13.49586,
                    50.23873
                ]
            }
        },
        {
            "type": "Feature",
            "properties": {
                "label:cs": "Kaple svaté Anny v Čárce",
                "P31": "Kaple",
                "P131^label:cs": "Blšany",
                "P6736": "15766"
            },
            "geometry": {
                "type": "Point",
                "coordinates": [
                    13.49451,
                    50.23881
                ]
            }
        },
        {
            "type": "Feature",
            "properties": {
                "label:cs": "Kříž u rozcestí v Liběšovicích",
                "P31": "Pamětní kříž",
                "P131^label:cs": "Blšany",
                "P6736": "15765"
            },
            "geometry": {
                "type": "Point",
                "coordinates": [
                    13.49742,
                    50.24391
                ]
            }
        },
        {
            "type": "Feature",
            "properties": {
                "label:cs": "Kaple Nejsvětější Trojice v Liběšovicích",
                "P31": "Kaple",
                "P131^label:cs": "Blšany",
                "P6736": "15764"
            },
            "geometry": {
                "type": "Point",
                "coordinates": [
                    13.50053,
                    50.2454
                ]
            }
        },
        {
            "type": "Feature",
            "properties": {
                "label:cs": "Socha svatého Judy v Liběšovicích",
                "P31": "Socha",
                "P131^label:cs": "Blšany",
                "P6736": "15763"
            },
            "geometry": {
                "type": "Point",
                "coordinates": [
                    13.50061,
                    50.24551
                ]
            }
        },
        {
            "type": "Feature",
            "properties": {
                "label:cs": "Pomník padlým v Liběšovicích",
                "P31": "Pomník padlým",
                "P131^label:cs": "Blšany",
                "P6736": "15762"
            },
            "geometry": {
                "type": "Point",
                "coordinates": [
                    13.50129,
                    50.24612
                ]
            }
        },
        {
            "type": "Feature",
            "properties": {
                "label:cs": "Socha v Liběšovicích v parku",
                "P31": "Socha",
                "P131^label:cs": "Blšany",
                "P6736": "15761"
            },
            "geometry": {
                "type": "Point",
                "coordinates": [
                    13.50163,
                    50.24643
                ]
            }
        },
        {
            "type": "Feature",
            "properties": {
                "label:cs": "Kaplička v Liběšovicích",
                "P31": "Kaplička",
                "P131^label:cs": "Blšany",
                "P6736": "15760"
            },
            "geometry": {
                "type": "Point",
                "coordinates": [
                    13.50202,
                    50.24717
                ]
            }
        },
        {
            "type": "Feature",
            "properties": {
                "label:cs": "Kříž západně od Libořic",
                "P31": "Pamětní kříž",
                "P131^label:cs": "Blšany",
                "P6736": "15759"
            },
            "geometry": {
                "type": "Point",
                "coordinates": [
                    13.50663,
                    50.25252
                ]
            }
        },
        {
            "type": "Feature",
            "properties": {
                "label:cs": "Socha svatého Jana Nepomuckého v Libořicích",
                "P31": "Socha",
                "P131^label:cs": "Libořice",
                "P6736": "15758"
            },
            "geometry": {
                "type": "Point",
                "coordinates": [
                    13.51433,
                    50.25421
                ]
            }
        },
        {
            "type": "Feature",
            "properties": {
                "label:cs": "Kaplička v Železné",
                "P31": "Kaplička",
                "P131^label:cs": "Libořice",
                "P6736": "15757"
            },
            "geometry": {
                "type": "Point",
                "coordinates": [
                    13.5242,
                    50.25974
                ]
            }
        },
        {
            "type": "Feature",
            "properties": {
                "label:cs": "Pomník padlým v Železné",
                "P31": "Pomník padlým",
                "P131^label:cs": "Libořice",
                "P6736": "15756"
            },
            "geometry": {
                "type": "Point",
                "coordinates": [
                    13.524,
                    50.25969
                ]
            }
        },
        {
            "type": "Feature",
            "properties": {
                "label:cs": "Kaplička u Libořic",
                "P31": "Kaplička",
                "P131^label:cs": "Libořice",
                "P6736": "11233"
            },
            "geometry": {
                "type": "Point",
                "coordinates": [
                    13.51525,
                    50.26018
                ]
            }
        }
    ]
}