{
    "type": "FeatureCollection",
    "features": [
        {
            "type": "Feature",
            "properties": {
                "label:cs": "Kříž severovýchodně od Lednice",
                "P31": "Pamětní kříž",
                "P131^label:cs": "Kozojedy",
                "P6736": "10365"
            },
            "geometry": {
                "type": "Point",
                "coordinates": [
                    13.52206,
                    49.94598
                ]
            }
        },
        {
            "type": "Feature",
            "properties": {
                "label:cs": "Plastika v Lednici u křižovatky",
                "P31": "Plastika",
                "P131^label:cs": "Kozojedy",
                "P6736": "8300"
            },
            "geometry": {
                "type": "Point",
                "coordinates": [
                    13.51596,
                    49.94206
                ]
            }
        },
        {
            "type": "Feature",
            "properties": {
                "label:cs": "Kříž západně od Lednice",
                "P31": "Pamětní kříž",
                "P131^label:cs": "Kozojedy",
                "P6736": "4277"
            },
            "geometry": {
                "type": "Point",
                "coordinates": [
                    13.49843,
                    49.94659
                ]
            }
        },
        {
            "type": "Feature",
            "properties": {
                "label:cs": "Kaple v Lednici",
                "P31": "Kaple",
                "P131^label:cs": "Kozojedy",
                "P6736": "4276"
            },
            "geometry": {
                "type": "Point",
                "coordinates": [
                    13.51387,
                    49.94239
                ]
            }
        },
        {
            "type": "Feature",
            "properties": {
                "label:cs": "Kříž severně od Lednice",
                "P31": "Pamětní kříž",
                "P131^label:cs": "Kozojedy",
                "P6736": "4275"
            },
            "geometry": {
                "type": "Point",
                "coordinates": [
                    13.51745,
                    49.94304
                ]
            }
        },
        {
            "type": "Feature",
            "properties": {
                "label:cs": "Kříž u Lednice na svahu",
                "P31": "Pamětní kříž",
                "P131^label:cs": "Kozojedy",
                "P6736": "4274"
            },
            "geometry": {
                "type": "Point",
                "coordinates": [
                    13.51717,
                    49.94157
                ]
            }
        },
        {
            "type": "Feature",
            "properties": {
                "label:cs": "Kříž západně od Kozojed",
                "P31": "Pamětní kříž",
                "P131^label:cs": "Kozojedy",
                "P6736": "4273"
            },
            "geometry": {
                "type": "Point",
                "coordinates": [
                    13.52684,
                    49.93056
                ]
            }
        }
    ]
}