{
    "type": "FeatureCollection",
    "features": [
        {
            "type": "Feature",
            "properties": {
                "label:cs": "Kříž jižně od Velenov u křižovatky",
                "P31": "Pamětní kříž",
                "P131^label:cs": "Nalžovské Hory",
                "P6736": "10054"
            },
            "geometry": {
                "type": "Point",
                "coordinates": [
                    13.54556,
                    49.35443
                ]
            }
        },
        {
            "type": "Feature",
            "properties": {
                "label:cs": "Boží muka jižně od Velenov",
                "P31": "Boží muka",
                "P131^label:cs": "Nalžovské Hory",
                "P6736": "10053"
            },
            "geometry": {
                "type": "Point",
                "coordinates": [
                    13.5454,
                    49.35509
                ]
            }
        },
        {
            "type": "Feature",
            "properties": {
                "label:cs": "Kříž na rozcestí v jižní části Velenov",
                "P31": "Pamětní kříž",
                "P131^label:cs": "Nalžovské Hory",
                "P6736": "10052"
            },
            "geometry": {
                "type": "Point",
                "coordinates": [
                    13.54564,
                    49.35698
                ]
            }
        },
        {
            "type": "Feature",
            "properties": {
                "label:cs": "Kříž v jihozápadní části Velenov",
                "P31": "Pamětní kříž",
                "P131^label:cs": "Nalžovské Hory",
                "P6736": "10051"
            },
            "geometry": {
                "type": "Point",
                "coordinates": [
                    13.54751,
                    49.3565
                ]
            }
        },
        {
            "type": "Feature",
            "properties": {
                "label:cs": "Kříž ve Velenovech na rozcestí",
                "P31": "Pamětní kříž",
                "P131^label:cs": "Nalžovské Hory",
                "P6736": "10050"
            },
            "geometry": {
                "type": "Point",
                "coordinates": [
                    13.54082,
                    49.35799
                ]
            }
        },
        {
            "type": "Feature",
            "properties": {
                "label:cs": "Kříž před kostelem ve Velenovech",
                "P31": "Pamětní kříž",
                "P131^label:cs": "Nalžovské Hory",
                "P6736": "10049"
            },
            "geometry": {
                "type": "Point",
                "coordinates": [
                    13.5461,
                    49.35826
                ]
            }
        },
        {
            "type": "Feature",
            "properties": {
                "label:cs": "Kříž u rozcestí ve Velenovech",
                "P31": "Pamětní kříž",
                "P131^label:cs": "Nalžovské Hory",
                "P6736": "10048"
            },
            "geometry": {
                "type": "Point",
                "coordinates": [
                    13.54321,
                    49.35789
                ]
            }
        },
        {
            "type": "Feature",
            "properties": {
                "label:cs": "Pomník padlým ve Velenovech",
                "P31": "Pomník padlým",
                "P131^label:cs": "Nalžovské Hory",
                "P6736": "10047"
            },
            "geometry": {
                "type": "Point",
                "coordinates": [
                    13.54605,
                    49.35838
                ]
            }
        },
        {
            "type": "Feature",
            "properties": {
                "label:cs": "Kříž východně od Velenov u zaniklé cesty",
                "P31": "Pamětní kříž",
                "P131^label:cs": "Nalžovské Hory",
                "P6736": "10046"
            },
            "geometry": {
                "type": "Point",
                "coordinates": [
                    13.55049,
                    49.35973
                ]
            }
        },
        {
            "type": "Feature",
            "properties": {
                "label:cs": "Kříž východně od Velenov",
                "P31": "Pamětní kříž",
                "P131^label:cs": "Nalžovské Hory",
                "P6736": "10045"
            },
            "geometry": {
                "type": "Point",
                "coordinates": [
                    13.55309,
                    49.35919
                ]
            }
        },
        {
            "type": "Feature",
            "properties": {
                "label:cs": "Boží muka ve Velenovech u křižovatky",
                "P31": "Boží muka",
                "P131^label:cs": "Nalžovské Hory",
                "P6736": "10044"
            },
            "geometry": {
                "type": "Point",
                "coordinates": [
                    13.5475,
                    49.35904
                ]
            }
        },
        {
            "type": "Feature",
            "properties": {
                "label:cs": "Kříž ve Velenovech u křižovatky u zdi",
                "P31": "Pamětní kříž",
                "P131^label:cs": "Nalžovské Hory",
                "P6736": "10043"
            },
            "geometry": {
                "type": "Point",
                "coordinates": [
                    13.54603,
                    49.36044
                ]
            }
        },
        {
            "type": "Feature",
            "properties": {
                "label:cs": "Kříž severozápadně od Velenov",
                "P31": "Pamětní kříž",
                "P131^label:cs": "Nalžovské Hory",
                "P6736": "10042"
            },
            "geometry": {
                "type": "Point",
                "coordinates": [
                    13.54352,
                    49.36161
                ]
            }
        },
        {
            "type": "Feature",
            "properties": {
                "label:cs": "Kříž severozápadně od Velenov",
                "P31": "Pamětní kříž",
                "P131^label:cs": "Nalžovské Hory",
                "P6736": "10041"
            },
            "geometry": {
                "type": "Point",
                "coordinates": [
                    13.5442,
                    49.36286
                ]
            }
        },
        {
            "type": "Feature",
            "properties": {
                "label:cs": "Kříž severně od Velenov",
                "P31": "Pamětní kříž",
                "P131^label:cs": "Nalžovské Hory",
                "P6736": "10040"
            },
            "geometry": {
                "type": "Point",
                "coordinates": [
                    13.54807,
                    49.36228
                ]
            }
        },
        {
            "type": "Feature",
            "properties": {
                "label:cs": "Kříž severovýchodně od Velenov",
                "P31": "Pamětní kříž",
                "P131^label:cs": "Nalžovské Hory",
                "P6736": "10039"
            },
            "geometry": {
                "type": "Point",
                "coordinates": [
                    13.55056,
                    49.36285
                ]
            }
        },
        {
            "type": "Feature",
            "properties": {
                "label:cs": "Kříž západně od Těchonic",
                "P31": "Pamětní kříž",
                "P131^label:cs": "Nalžovské Hory",
                "P6736": "10038"
            },
            "geometry": {
                "type": "Point",
                "coordinates": [
                    13.56607,
                    49.3664
                ]
            }
        },
        {
            "type": "Feature",
            "properties": {
                "label:cs": "Kaplička v Těchonicích",
                "P31": "Kaplička",
                "P131^label:cs": "Nalžovské Hory",
                "P6736": "10037"
            },
            "geometry": {
                "type": "Point",
                "coordinates": [
                    13.56974,
                    49.36619
                ]
            }
        },
        {
            "type": "Feature",
            "properties": {
                "label:cs": "Kříž jihovýchodně od Těchonic",
                "P31": "Pamětní kříž",
                "P131^label:cs": "Nalžovské Hory",
                "P6736": "10036"
            },
            "geometry": {
                "type": "Point",
                "coordinates": [
                    13.57294,
                    49.36491
                ]
            }
        },
        {
            "type": "Feature",
            "properties": {
                "label:cs": "Socha svatého Jana Nepomuckého v Těchonicích",
                "P31": "Socha",
                "P131^label:cs": "Nalžovské Hory",
                "P6736": "10035"
            },
            "geometry": {
                "type": "Point",
                "coordinates": [
                    13.57108,
                    49.36677
                ]
            }
        },
        {
            "type": "Feature",
            "properties": {
                "label:cs": "Kříž u kostela v Těchonicích",
                "P31": "Pamětní kříž",
                "P131^label:cs": "Nalžovské Hory",
                "P6736": "10034"
            },
            "geometry": {
                "type": "Point",
                "coordinates": [
                    13.57095,
                    49.36778
                ]
            }
        },
        {
            "type": "Feature",
            "properties": {
                "label:cs": "Kříž v Těchonicích před kostelem",
                "P31": "Pamětní kříž",
                "P131^label:cs": "Nalžovské Hory",
                "P6736": "10033"
            },
            "geometry": {
                "type": "Point",
                "coordinates": [
                    13.57107,
                    49.36776
                ]
            }
        },
        {
            "type": "Feature",
            "properties": {
                "label:cs": "Kříž na návsi v Těchonicích",
                "P31": "Pamětní kříž",
                "P131^label:cs": "Nalžovské Hory",
                "P6736": "10032"
            },
            "geometry": {
                "type": "Point",
                "coordinates": [
                    13.57124,
                    49.36803
                ]
            }
        },
        {
            "type": "Feature",
            "properties": {
                "label:cs": "Kříž východně od Těchonic u ohrady",
                "P31": "Pamětní kříž",
                "P131^label:cs": "Nalžovské Hory",
                "P6736": "10031"
            },
            "geometry": {
                "type": "Point",
                "coordinates": [
                    13.57222,
                    49.36732
                ]
            }
        },
        {
            "type": "Feature",
            "properties": {
                "label:cs": "Kříž východně od Těchonic u rozcestí",
                "P31": "Pamětní kříž",
                "P131^label:cs": "Nalžovské Hory",
                "P6736": "10029"
            },
            "geometry": {
                "type": "Point",
                "coordinates": [
                    13.57509,
                    49.36931
                ]
            }
        },
        {
            "type": "Feature",
            "properties": {
                "label:cs": "Kříž severně od Těchonic",
                "P31": "Pamětní kříž",
                "P131^label:cs": "Nalžovské Hory",
                "P6736": "10028"
            },
            "geometry": {
                "type": "Point",
                "coordinates": [
                    13.57112,
                    49.37275
                ]
            }
        },
        {
            "type": "Feature",
            "properties": {
                "label:cs": "Kříž západně od Těchonic",
                "P31": "Pamětní kříž",
                "P131^label:cs": "Nalžovské Hory",
                "P6736": "10027"
            },
            "geometry": {
                "type": "Point",
                "coordinates": [
                    13.56771,
                    49.37019
                ]
            }
        },
        {
            "type": "Feature",
            "properties": {
                "label:cs": "Kříž jihovýchodně od Žďáru",
                "P31": "Pamětní kříž",
                "P131^label:cs": "Nalžovské Hory",
                "P6736": "10026"
            },
            "geometry": {
                "type": "Point",
                "coordinates": [
                    13.56295,
                    49.37409
                ]
            }
        },
        {
            "type": "Feature",
            "properties": {
                "label:cs": "Pomník jižně od Žďáru u křižovatky",
                "P31": "Pomník",
                "P131^label:cs": "Nalžovské Hory",
                "P6736": "10025"
            },
            "geometry": {
                "type": "Point",
                "coordinates": [
                    13.55591,
                    49.37814
                ]
            }
        },
        {
            "type": "Feature",
            "properties": {
                "label:cs": "Kříž u kaple ve Žďáru",
                "P31": "Pamětní kříž",
                "P131^label:cs": "Nalžovské Hory",
                "P6736": "10024"
            },
            "geometry": {
                "type": "Point",
                "coordinates": [
                    13.55585,
                    49.38001
                ]
            }
        },
        {
            "type": "Feature",
            "properties": {
                "label:cs": "Kaple ve Žďáru",
                "P31": "Kaple",
                "P131^label:cs": "Nalžovské Hory",
                "P6736": "10023"
            },
            "geometry": {
                "type": "Point",
                "coordinates": [
                    13.55586,
                    49.38004
                ]
            }
        },
        {
            "type": "Feature",
            "properties": {
                "label:cs": "Kříž východně od Žďáru",
                "P31": "Pamětní kříž",
                "P131^label:cs": "Nalžovské Hory",
                "P6736": "10022"
            },
            "geometry": {
                "type": "Point",
                "coordinates": [
                    13.55891,
                    49.38137
                ]
            }
        },
        {
            "type": "Feature",
            "properties": {
                "label:cs": "Kříž východně od Žďáru u rybníků",
                "P31": "Pamětní kříž",
                "P131^label:cs": "Nalžovské Hory",
                "P6736": "2867"
            },
            "geometry": {
                "type": "Point",
                "coordinates": [
                    13.56514,
                    49.38137
                ]
            }
        },
        {
            "type": "Feature",
            "properties": {
                "label:cs": "Kříž západně od Žďáru",
                "P31": "Pamětní kříž",
                "P131^label:cs": "Nalžovské Hory",
                "P6736": "2868"
            },
            "geometry": {
                "type": "Point",
                "coordinates": [
                    13.54099,
                    49.3807
                ]
            }
        },
        {
            "type": "Feature",
            "properties": {
                "label:cs": "Kříž jižně od Žďáru",
                "P31": "Pamětní kříž",
                "P131^label:cs": "Nalžovské Hory",
                "P6736": "2864"
            },
            "geometry": {
                "type": "Point",
                "coordinates": [
                    13.55585,
                    49.37816
                ]
            }
        }
    ]
}