{
    "type": "FeatureCollection",
    "features": [
        {
            "type": "Feature",
            "properties": {
                "label:cs": "Kříž v severní části osady Minice",
                "P31": "Pamětní kříž",
                "P131^label:cs": "Velemyšleves",
                "P6736": "24702"
            },
            "geometry": {
                "type": "Point",
                "coordinates": [
                    13.57845,
                    50.39289
                ]
            }
        },
        {
            "type": "Feature",
            "properties": {
                "label:cs": "Polodřevěná zvonice u kostela v osadě Minice",
                "P31": "Zvonička",
                "P131^label:cs": "Velemyšleves",
                "P6736": "24701"
            },
            "geometry": {
                "type": "Point",
                "coordinates": [
                    13.57543,
                    50.39175
                ]
            }
        },
        {
            "type": "Feature",
            "properties": {
                "label:cs": "Kříž na severním okraji osady Minice",
                "P31": "Pamětní kříž",
                "P131^label:cs": "Velemyšleves",
                "P6736": "24700"
            },
            "geometry": {
                "type": "Point",
                "coordinates": [
                    13.57463,
                    50.39222
                ]
            }
        },
        {
            "type": "Feature",
            "properties": {
                "label:cs": "Kaple v osadě Truzenice",
                "P31": "Kaple",
                "P131^label:cs": "Velemyšleves",
                "P6736": "24699"
            },
            "geometry": {
                "type": "Point",
                "coordinates": [
                    13.57388,
                    50.39538
                ]
            }
        },
        {
            "type": "Feature",
            "properties": {
                "label:cs": "Socha svatého Jana Nepomuckého u lesní cesty východně od Velemyšlevsi",
                "P31": "Socha",
                "P131^label:cs": "Velemyšleves",
                "P6736": "24698"
            },
            "geometry": {
                "type": "Point",
                "coordinates": [
                    13.5691,
                    50.39966
                ]
            }
        },
        {
            "type": "Feature",
            "properties": {
                "label:cs": "Socha svatého Jana Nepomuckého ve Velemyšlevsi",
                "P31": "Socha",
                "P131^label:cs": "Velemyšleves",
                "P6736": "23957"
            },
            "geometry": {
                "type": "Point",
                "coordinates": [
                    13.56323,
                    50.40091
                ]
            }
        }
    ]
}