{
    "type": "FeatureCollection",
    "features": [
        {
            "type": "Feature",
            "properties": {
                "label:cs": "Kříž jihozápadně od Dobršína",
                "P31": "Pamětní kříž",
                "P131^label:cs": "Dobršín",
                "P6736": "10197"
            },
            "geometry": {
                "type": "Point",
                "coordinates": [
                    13.55618,
                    49.25759
                ]
            }
        },
        {
            "type": "Feature",
            "properties": {
                "label:cs": "Kříž u kaple v Dobršíně",
                "P31": "Pamětní kříž",
                "P131^label:cs": "Dobršín",
                "P6736": "10194"
            },
            "geometry": {
                "type": "Point",
                "coordinates": [
                    13.56067,
                    49.26143
                ]
            }
        },
        {
            "type": "Feature",
            "properties": {
                "label:cs": "Kříž jižně od Dobršína",
                "P31": "Pamětní kříž",
                "P131^label:cs": "Dobršín",
                "P6736": "10196"
            },
            "geometry": {
                "type": "Point",
                "coordinates": [
                    13.55933,
                    49.26005
                ]
            }
        },
        {
            "type": "Feature",
            "properties": {
                "label:cs": "Kaplička v Dobršíně",
                "P31": "Kaplička",
                "P131^label:cs": "Dobršín",
                "P6736": "10195"
            },
            "geometry": {
                "type": "Point",
                "coordinates": [
                    13.56011,
                    49.26117
                ]
            }
        },
        {
            "type": "Feature",
            "properties": {
                "label:cs": "Kaple v Dobršíně",
                "P31": "Kaple",
                "P131^label:cs": "Dobršín",
                "P6736": "10193"
            },
            "geometry": {
                "type": "Point",
                "coordinates": [
                    13.56071,
                    49.26147
                ]
            }
        },
        {
            "type": "Feature",
            "properties": {
                "label:cs": "Kříž u křižovatky v Dobršíně",
                "P31": "Pamětní kříž",
                "P131^label:cs": "Dobršín",
                "P6736": "10192"
            },
            "geometry": {
                "type": "Point",
                "coordinates": [
                    13.56208,
                    49.26234
                ]
            }
        }
    ]
}