{
    "type": "FeatureCollection",
    "features": [
        {
            "type": "Feature",
            "properties": {
                "label:cs": "Kříž západně od Volduch",
                "P31": "Pamětní kříž",
                "P131^label:cs": "Volduchy",
                "P6736": "25032"
            },
            "geometry": {
                "type": "Point",
                "coordinates": [
                    13.60794,
                    49.76962
                ]
            }
        },
        {
            "type": "Feature",
            "properties": {
                "label:cs": "Boží muka západně od Volduch",
                "P31": "Boží muka",
                "P131^label:cs": "Volduchy",
                "P6736": "6888"
            },
            "geometry": {
                "type": "Point",
                "coordinates": [
                    13.60897,
                    49.77643
                ]
            }
        },
        {
            "type": "Feature",
            "properties": {
                "label:cs": "Socha svatého Jana Nepomuckého v Oseku",
                "P31": "Socha",
                "P131^label:cs": "Osek",
                "P6736": "6885"
            },
            "geometry": {
                "type": "Point",
                "coordinates": [
                    13.59432,
                    49.77967
                ]
            }
        },
        {
            "type": "Feature",
            "properties": {
                "label:cs": "Kříž v Oseku u kostela",
                "P31": "Pamětní kříž",
                "P131^label:cs": "Osek",
                "P6736": "6884"
            },
            "geometry": {
                "type": "Point",
                "coordinates": [
                    13.59304,
                    49.77965
                ]
            }
        },
        {
            "type": "Feature",
            "properties": {
                "label:cs": "Kaple severozápadně od Oseku",
                "P31": "Kaple",
                "P131^label:cs": "Osek",
                "P6736": "6883"
            },
            "geometry": {
                "type": "Point",
                "coordinates": [
                    13.58971,
                    49.78121
                ]
            }
        },
        {
            "type": "Feature",
            "properties": {
                "label:cs": "Kříž severozápadně od Oseku",
                "P31": "Pamětní kříž",
                "P131^label:cs": "Osek",
                "P6736": "6882"
            },
            "geometry": {
                "type": "Point",
                "coordinates": [
                    13.58973,
                    49.78098
                ]
            }
        },
        {
            "type": "Feature",
            "properties": {
                "label:cs": "Kaplička v Oseku",
                "P31": "Kaplička",
                "P131^label:cs": "Osek",
                "P6736": "4613"
            },
            "geometry": {
                "type": "Point",
                "coordinates": [
                    13.59261,
                    49.77942
                ]
            }
        },
        {
            "type": "Feature",
            "properties": {
                "label:cs": "Pomník padlým v Oseku",
                "P31": "Pomník padlým",
                "P131^label:cs": "Osek",
                "P6736": "4612"
            },
            "geometry": {
                "type": "Point",
                "coordinates": [
                    13.59231,
                    49.77873
                ]
            }
        },
        {
            "type": "Feature",
            "properties": {
                "label:cs": "Sloup u Dílů",
                "P31": "Sloup",
                "P131^label:cs": "Volduchy",
                "P6736": "2783"
            },
            "geometry": {
                "type": "Point",
                "coordinates": [
                    13.60529,
                    49.75835
                ]
            }
        },
        {
            "type": "Feature",
            "properties": {
                "label:cs": "Kříž u Dílů",
                "P31": "Pamětní kříž",
                "P131^label:cs": "Volduchy",
                "P6736": "2782"
            },
            "geometry": {
                "type": "Point",
                "coordinates": [
                    13.60914,
                    49.76337
                ]
            }
        }
    ]
}