{
    "type": "FeatureCollection",
    "features": [
        {
            "type": "Feature",
            "properties": {
                "label:cs": "Socha vodníka nad Berounkou u Krašova",
                "P31": "Socha",
                "P131^label:cs": "Bohy",
                "P6736": "10376"
            },
            "geometry": {
                "type": "Point",
                "coordinates": [
                    13.58873,
                    49.9371
                ]
            }
        },
        {
            "type": "Feature",
            "properties": {
                "label:cs": "Kaple severně od Hřešihlav",
                "P31": "Kaple",
                "P131^label:cs": "Kladruby",
                "P6736": "8158"
            },
            "geometry": {
                "type": "Point",
                "coordinates": [
                    13.61669,
                    49.93084
                ]
            }
        },
        {
            "type": "Feature",
            "properties": {
                "label:cs": "Kaple v Hřešihlavech",
                "P31": "Kaple",
                "P131^label:cs": "Kladruby",
                "P6736": "8156"
            },
            "geometry": {
                "type": "Point",
                "coordinates": [
                    13.61974,
                    49.92765
                ]
            }
        },
        {
            "type": "Feature",
            "properties": {
                "label:cs": "Kříž nad Rybárnou nad Rakolusky",
                "P31": "Pamětní kříž",
                "P131^label:cs": "Bohy",
                "P6736": "5422"
            },
            "geometry": {
                "type": "Point",
                "coordinates": [
                    13.58074,
                    49.92882
                ]
            }
        },
        {
            "type": "Feature",
            "properties": {
                "label:cs": "Kříž západně od Rakolusek",
                "P31": "Pamětní kříž",
                "P131^label:cs": "Bohy",
                "P6736": "5421"
            },
            "geometry": {
                "type": "Point",
                "coordinates": [
                    13.59329,
                    49.92454
                ]
            }
        },
        {
            "type": "Feature",
            "properties": {
                "label:cs": "Kříž v Rakoluskách",
                "P31": "Pamětní kříž",
                "P131^label:cs": "Bohy",
                "P6736": "5420"
            },
            "geometry": {
                "type": "Point",
                "coordinates": [
                    13.59637,
                    49.92517
                ]
            }
        },
        {
            "type": "Feature",
            "properties": {
                "label:cs": "Pomník padlým v Rakoluskách",
                "P31": "Pomník padlým",
                "P131^label:cs": "Bohy",
                "P6736": "5419"
            },
            "geometry": {
                "type": "Point",
                "coordinates": [
                    13.59671,
                    49.92529
                ]
            }
        },
        {
            "type": "Feature",
            "properties": {
                "label:cs": "Pomník jihovýchodně od Bohů",
                "P31": "Pomník",
                "P131^label:cs": "Bohy",
                "P6736": "5418"
            },
            "geometry": {
                "type": "Point",
                "coordinates": [
                    13.58388,
                    49.93318
                ]
            }
        },
        {
            "type": "Feature",
            "properties": {
                "label:cs": "Kaple v Rakuluskách",
                "P31": "Kaple",
                "P131^label:cs": "Bohy",
                "P6736": "5417"
            },
            "geometry": {
                "type": "Point",
                "coordinates": [
                    13.5973,
                    49.92498
                ]
            }
        },
        {
            "type": "Feature",
            "properties": {
                "label:cs": "Socha svatého Jana Nepomuckého v Krašově",
                "P31": "Socha",
                "P131^label:cs": "Bohy",
                "P6736": "5413"
            },
            "geometry": {
                "type": "Point",
                "coordinates": [
                    13.58772,
                    49.93803
                ]
            }
        },
        {
            "type": "Feature",
            "properties": {
                "label:cs": "Pomník padlým v Hřešihlavech",
                "P31": "Pomník padlým",
                "P131^label:cs": "Kladruby",
                "P6736": "3850"
            },
            "geometry": {
                "type": "Point",
                "coordinates": [
                    13.61932,
                    49.92804
                ]
            }
        },
        {
            "type": "Feature",
            "properties": {
                "label:cs": "Kaple v Třímanech",
                "P31": "Kaple",
                "P131^label:cs": "Kladruby",
                "P6736": "3849"
            },
            "geometry": {
                "type": "Point",
                "coordinates": [
                    13.60728,
                    49.94059
                ]
            }
        },
        {
            "type": "Feature",
            "properties": {
                "label:cs": "Kříž v Třímanech",
                "P31": "Pamětní kříž",
                "P131^label:cs": "Kladruby",
                "P6736": "3848"
            },
            "geometry": {
                "type": "Point",
                "coordinates": [
                    13.60738,
                    49.94062
                ]
            }
        },
        {
            "type": "Feature",
            "properties": {
                "label:cs": "Socha Piety v Hřešihlavech",
                "P31": "Socha",
                "P131^label:cs": "Kladruby",
                "P6736": "3847"
            },
            "geometry": {
                "type": "Point",
                "coordinates": [
                    13.61907,
                    49.92825
                ]
            }
        },
        {
            "type": "Feature",
            "properties": {
                "label:cs": "Kříž u Tříman",
                "P31": "Pamětní kříž",
                "P131^label:cs": "Kladruby",
                "P6736": "2684"
            },
            "geometry": {
                "type": "Point",
                "coordinates": [
                    13.6088,
                    49.9418
                ]
            }
        },
        {
            "type": "Feature",
            "properties": {
                "label:cs": "Kříž nad Hřešihlavami na svahu",
                "P31": "Pamětní kříž",
                "P131^label:cs": "Kladruby",
                "P6736": "1589"
            },
            "geometry": {
                "type": "Point",
                "coordinates": [
                    13.61637,
                    49.92975
                ]
            }
        },
        {
            "type": "Feature",
            "properties": {
                "label:cs": "Kříž nad Hřešihlavami u lesa",
                "P31": "Pamětní kříž",
                "P131^label:cs": "Kladruby",
                "P6736": "1590"
            },
            "geometry": {
                "type": "Point",
                "coordinates": [
                    13.61502,
                    49.93004
                ]
            }
        }
    ]
}