{
    "type": "FeatureCollection",
    "features": [
        {
            "type": "Feature",
            "properties": {
                "label:cs": "Kříž jihovýchodně od Vísky",
                "P31": "Pamětní kříž",
                "P131^label:cs": "Čmelíny",
                "P6736": "8554"
            },
            "geometry": {
                "type": "Point",
                "coordinates": [
                    13.66626,
                    49.48691
                ]
            }
        },
        {
            "type": "Feature",
            "properties": {
                "label:cs": "Památník založení obce ve Vísce",
                "P31": "Památník",
                "P131^label:cs": "Čmelíny",
                "P6736": "8552"
            },
            "geometry": {
                "type": "Point",
                "coordinates": [
                    13.66165,
                    49.48912
                ]
            }
        },
        {
            "type": "Feature",
            "properties": {
                "label:cs": "Kříž ve Vísce v zahradě",
                "P31": "Pamětní kříž",
                "P131^label:cs": "Čmelíny",
                "P6736": "8553"
            },
            "geometry": {
                "type": "Point",
                "coordinates": [
                    13.66173,
                    49.4884
                ]
            }
        },
        {
            "type": "Feature",
            "properties": {
                "label:cs": "Památník založení obce v Čmelínech",
                "P31": "Památník",
                "P131^label:cs": "Čmelíny",
                "P6736": "8551"
            },
            "geometry": {
                "type": "Point",
                "coordinates": [
                    13.65501,
                    49.4887
                ]
            }
        },
        {
            "type": "Feature",
            "properties": {
                "label:cs": "Kříž severozápadně od Čmelín",
                "P31": "Pamětní kříž",
                "P131^label:cs": "Čmelíny",
                "P6736": "8550"
            },
            "geometry": {
                "type": "Point",
                "coordinates": [
                    13.6433,
                    49.49397
                ]
            }
        },
        {
            "type": "Feature",
            "properties": {
                "label:cs": "Kříž v Mohelnici u rozcestí",
                "P31": "Pamětní kříž",
                "P131^label:cs": "Mohelnice",
                "P6736": "8549"
            },
            "geometry": {
                "type": "Point",
                "coordinates": [
                    13.64303,
                    49.47986
                ]
            }
        },
        {
            "type": "Feature",
            "properties": {
                "label:cs": "Kaple v Mohelnici",
                "P31": "Kaple",
                "P131^label:cs": "Mohelnice",
                "P6736": "8548"
            },
            "geometry": {
                "type": "Point",
                "coordinates": [
                    13.64097,
                    49.48086
                ]
            }
        },
        {
            "type": "Feature",
            "properties": {
                "label:cs": "Pomník padlým v Mohelnici",
                "P31": "Pomník padlým",
                "P131^label:cs": "Mohelnice",
                "P6736": "8547"
            },
            "geometry": {
                "type": "Point",
                "coordinates": [
                    13.64038,
                    49.48066
                ]
            }
        },
        {
            "type": "Feature",
            "properties": {
                "label:cs": "Kříž v Mohelnici na návsi",
                "P31": "Pamětní kříž",
                "P131^label:cs": "Mohelnice",
                "P6736": "8545"
            },
            "geometry": {
                "type": "Point",
                "coordinates": [
                    13.64002,
                    49.4808
                ]
            }
        },
        {
            "type": "Feature",
            "properties": {
                "label:cs": "Kříž západně od Mohelnice",
                "P31": "Pamětní kříž",
                "P131^label:cs": "Mohelnice",
                "P6736": "8544"
            },
            "geometry": {
                "type": "Point",
                "coordinates": [
                    13.63722,
                    49.48009
                ]
            }
        },
        {
            "type": "Feature",
            "properties": {
                "label:cs": "Kříž v Podhůří",
                "P31": "Pamětní kříž",
                "P131^label:cs": "Kasejovice",
                "P6736": "8431"
            },
            "geometry": {
                "type": "Point",
                "coordinates": [
                    13.66582,
                    49.47255
                ]
            }
        },
        {
            "type": "Feature",
            "properties": {
                "label:cs": "Pomník padlým v Tojicích",
                "P31": "Pomník padlým",
                "P131^label:cs": "Tojice",
                "P6736": "7432"
            },
            "geometry": {
                "type": "Point",
                "coordinates": [
                    13.62677,
                    49.49252
                ]
            }
        },
        {
            "type": "Feature",
            "properties": {
                "label:cs": "Plastika v Tojicích",
                "P31": "Plastika",
                "P131^label:cs": "Tojice",
                "P6736": "7433"
            },
            "geometry": {
                "type": "Point",
                "coordinates": [
                    13.62667,
                    49.49228
                ]
            }
        },
        {
            "type": "Feature",
            "properties": {
                "label:cs": "Kříž u rozcestí severně od Tojic",
                "P31": "Pamětní kříž",
                "P131^label:cs": "Tojice",
                "P6736": "7431"
            },
            "geometry": {
                "type": "Point",
                "coordinates": [
                    13.6253,
                    49.49429
                ]
            }
        },
        {
            "type": "Feature",
            "properties": {
                "label:cs": "Pomník padlým ve Vísce",
                "P31": "Pomník padlým",
                "P131^label:cs": "Čmelíny",
                "P6736": "4985"
            },
            "geometry": {
                "type": "Point",
                "coordinates": [
                    13.6617,
                    49.48913
                ]
            }
        },
        {
            "type": "Feature",
            "properties": {
                "label:cs": "Kříž na křižovatce v Čemínech",
                "P31": "Pamětní kříž",
                "P131^label:cs": "Čmelíny",
                "P6736": "4984"
            },
            "geometry": {
                "type": "Point",
                "coordinates": [
                    13.65499,
                    49.48824
                ]
            }
        },
        {
            "type": "Feature",
            "properties": {
                "label:cs": "Pomník padlým ve Čmelínech",
                "P31": "Pomník padlým",
                "P131^label:cs": "Čmelíny",
                "P6736": "4983"
            },
            "geometry": {
                "type": "Point",
                "coordinates": [
                    13.655,
                    49.48867
                ]
            }
        },
        {
            "type": "Feature",
            "properties": {
                "label:cs": "Kříž v Tojicích u silnice",
                "P31": "Pamětní kříž",
                "P131^label:cs": "Tojice",
                "P6736": "4982"
            },
            "geometry": {
                "type": "Point",
                "coordinates": [
                    13.62309,
                    49.49258
                ]
            }
        },
        {
            "type": "Feature",
            "properties": {
                "label:cs": "Kříž u kaple v Tojicích",
                "P31": "Pamětní kříž",
                "P131^label:cs": "Tojice",
                "P6736": "4958"
            },
            "geometry": {
                "type": "Point",
                "coordinates": [
                    13.62668,
                    49.49257
                ]
            }
        },
        {
            "type": "Feature",
            "properties": {
                "label:cs": "Kaple v Tojicích",
                "P31": "Kaple",
                "P131^label:cs": "Tojice",
                "P6736": "4957"
            },
            "geometry": {
                "type": "Point",
                "coordinates": [
                    13.62664,
                    49.49261
                ]
            }
        },
        {
            "type": "Feature",
            "properties": {
                "label:cs": "Kříž ve Čmelínech u kaple",
                "P31": "Pamětní kříž",
                "P131^label:cs": "Čmelíny",
                "P6736": "4956"
            },
            "geometry": {
                "type": "Point",
                "coordinates": [
                    13.65476,
                    49.48863
                ]
            }
        },
        {
            "type": "Feature",
            "properties": {
                "label:cs": "Kaple ve Čmelínech",
                "P31": "Kaple",
                "P131^label:cs": "Čmelíny",
                "P6736": "4955"
            },
            "geometry": {
                "type": "Point",
                "coordinates": [
                    13.6547,
                    49.48867
                ]
            }
        },
        {
            "type": "Feature",
            "properties": {
                "label:cs": "Kaple ve Vísce",
                "P31": "Kaple",
                "P131^label:cs": "Čmelíny",
                "P6736": "4954"
            },
            "geometry": {
                "type": "Point",
                "coordinates": [
                    13.66051,
                    49.48963
                ]
            }
        },
        {
            "type": "Feature",
            "properties": {
                "label:cs": "Kříž ve Vísce na rozcestí",
                "P31": "Pamětní kříž",
                "P131^label:cs": "Čmelíny",
                "P6736": "4953"
            },
            "geometry": {
                "type": "Point",
                "coordinates": [
                    13.66262,
                    49.48882
                ]
            }
        },
        {
            "type": "Feature",
            "properties": {
                "label:cs": "Kříž západně od Čmelín",
                "P31": "Pamětní kříž",
                "P131^label:cs": "Čmelíny",
                "P6736": "1363"
            },
            "geometry": {
                "type": "Point",
                "coordinates": [
                    13.64898,
                    49.48946
                ]
            }
        }
    ]
}