{
    "type": "FeatureCollection",
    "features": [
        {
            "type": "Feature",
            "properties": {
                "label:cs": "Kaple Nejsvětější Trojice v Horním Lomu",
                "P31": "Kaple",
                "P131^label:cs": "Lom",
                "P6736": "18340"
            },
            "geometry": {
                "type": "Point",
                "coordinates": [
                    13.64823,
                    50.61104
                ]
            }
        },
        {
            "type": "Feature",
            "properties": {
                "label:cs": "Kříž ve Školní ulici v Loučné u Lomu",
                "P31": "Pamětní kříž",
                "P131^label:cs": "Lom",
                "P6736": "18339"
            },
            "geometry": {
                "type": "Point",
                "coordinates": [
                    13.6546,
                    50.6132
                ]
            }
        },
        {
            "type": "Feature",
            "properties": {
                "label:cs": "Kaple v Loučné u Lomu",
                "P31": "Kaple",
                "P131^label:cs": "Lom",
                "P6736": "18338"
            },
            "geometry": {
                "type": "Point",
                "coordinates": [
                    13.65625,
                    50.61488
                ]
            }
        },
        {
            "type": "Feature",
            "properties": {
                "label:cs": "Památník zaniklých důlních děl v Horním Lomu",
                "P31": "Památník",
                "P131^label:cs": "Lom",
                "P6736": "18337"
            },
            "geometry": {
                "type": "Point",
                "coordinates": [
                    13.65085,
                    50.61342
                ]
            }
        },
        {
            "type": "Feature",
            "properties": {
                "label:cs": "Pomník osvobození v Podkrušnohorské ulici v Horním Lomu",
                "P31": "Pomník",
                "P131^label:cs": "Lom",
                "P6736": "18336"
            },
            "geometry": {
                "type": "Point",
                "coordinates": [
                    13.64741,
                    50.61227
                ]
            }
        },
        {
            "type": "Feature",
            "properties": {
                "label:cs": "Socha Budovatelé stavby mládeže u Citadely v Litvínově",
                "P31": "Socha",
                "P131^label:cs": "Litvínov",
                "P6736": "18335"
            },
            "geometry": {
                "type": "Point",
                "coordinates": [
                    13.62687,
                    50.60873
                ]
            }
        }
    ]
}