{
    "type": "FeatureCollection",
    "features": [
        {
            "type": "Feature",
            "properties": {
                "label:cs": "Kříž ve Vejvanově",
                "P31": "Pamětní kříž",
                "P131^label:cs": "Vejvanov",
                "P6736": "24391"
            },
            "geometry": {
                "type": "Point",
                "coordinates": [
                    13.65278,
                    49.87173
                ]
            }
        },
        {
            "type": "Feature",
            "properties": {
                "label:cs": "Kaple ve Hlohovicích před kostelem",
                "P31": "Kaple",
                "P131^label:cs": "Hlohovice",
                "P6736": "8069"
            },
            "geometry": {
                "type": "Point",
                "coordinates": [
                    13.64046,
                    49.8901
                ]
            }
        },
        {
            "type": "Feature",
            "properties": {
                "label:cs": "Kaple ve Hlohovicích na Hřbitově",
                "P31": "Kaple",
                "P131^label:cs": "Hlohovice",
                "P6736": "8068"
            },
            "geometry": {
                "type": "Point",
                "coordinates": [
                    13.63948,
                    49.8899
                ]
            }
        },
        {
            "type": "Feature",
            "properties": {
                "label:cs": "Kaple ve Vejvanově",
                "P31": "Kaple",
                "P131^label:cs": "Vejvanov",
                "P6736": "3893"
            },
            "geometry": {
                "type": "Point",
                "coordinates": [
                    13.65338,
                    49.86929
                ]
            }
        },
        {
            "type": "Feature",
            "properties": {
                "label:cs": "Kříž u kaple ve Vejvanově",
                "P31": "Pamětní kříž",
                "P131^label:cs": "Vejvanov",
                "P6736": "3892"
            },
            "geometry": {
                "type": "Point",
                "coordinates": [
                    13.65341,
                    49.86932
                ]
            }
        },
        {
            "type": "Feature",
            "properties": {
                "label:cs": "Pomník padlým ve Vejvanově",
                "P31": "Pomník padlým",
                "P131^label:cs": "Vejvanov",
                "P6736": "3891"
            },
            "geometry": {
                "type": "Point",
                "coordinates": [
                    13.65262,
                    49.86834
                ]
            }
        },
        {
            "type": "Feature",
            "properties": {
                "label:cs": "Kříž u kostela ve Hlohovicích",
                "P31": "Pamětní kříž",
                "P131^label:cs": "Hlohovice",
                "P6736": "3840"
            },
            "geometry": {
                "type": "Point",
                "coordinates": [
                    13.64048,
                    49.89015
                ]
            }
        },
        {
            "type": "Feature",
            "properties": {
                "label:cs": "Pomník padlým ve Hlohovicích",
                "P31": "Pomník padlým",
                "P131^label:cs": "Hlohovice",
                "P6736": "3830"
            },
            "geometry": {
                "type": "Point",
                "coordinates": [
                    13.64273,
                    49.88957
                ]
            }
        },
        {
            "type": "Feature",
            "properties": {
                "label:cs": "Socha svatého Jana Nepomuckého v Hlohovicích",
                "P31": "Socha",
                "P131^label:cs": "Hlohovice",
                "P6736": "3829"
            },
            "geometry": {
                "type": "Point",
                "coordinates": [
                    13.64266,
                    49.88951
                ]
            }
        },
        {
            "type": "Feature",
            "properties": {
                "label:cs": "Kaple v Mostišti",
                "P31": "Kaple",
                "P131^label:cs": "Hlohovice",
                "P6736": "3828"
            },
            "geometry": {
                "type": "Point",
                "coordinates": [
                    13.63029,
                    49.87635
                ]
            }
        },
        {
            "type": "Feature",
            "properties": {
                "label:cs": "Boží muka u rozcestí u Mostiště",
                "P31": "Boží muka",
                "P131^label:cs": "Hlohovice",
                "P6736": "2101"
            },
            "geometry": {
                "type": "Point",
                "coordinates": [
                    13.63123,
                    49.87434
                ]
            }
        },
        {
            "type": "Feature",
            "properties": {
                "label:cs": "Kříž u stromu v poli u Hlohovic",
                "P31": "Pamětní kříž",
                "P131^label:cs": "Hlohovice",
                "P6736": "1521"
            },
            "geometry": {
                "type": "Point",
                "coordinates": [
                    13.63426,
                    49.89332
                ]
            }
        }
    ]
}