{
    "type": "FeatureCollection",
    "features": [
        {
            "type": "Feature",
            "properties": {
                "label:cs": "Památník TGM v Hrádku",
                "P31": "Památník",
                "P131^label:cs": "Hrádek",
                "P6736": "19802"
            },
            "geometry": {
                "type": "Point",
                "coordinates": [
                    13.64823,
                    49.70994
                ]
            }
        },
        {
            "type": "Feature",
            "properties": {
                "label:cs": "Kamenný kříž na vrchu Svatý Vojtěch",
                "P31": "Pamětní kříž",
                "P131^label:cs": "Mirošov",
                "P6736": "18111"
            },
            "geometry": {
                "type": "Point",
                "coordinates": [
                    13.64726,
                    49.70189
                ]
            }
        },
        {
            "type": "Feature",
            "properties": {
                "label:cs": "Kříž u hřbitova v Mirošově",
                "P31": "Pamětní kříž",
                "P131^label:cs": "Mirošov",
                "P6736": "14841"
            },
            "geometry": {
                "type": "Point",
                "coordinates": [
                    13.64868,
                    49.70427
                ]
            }
        },
        {
            "type": "Feature",
            "properties": {
                "label:cs": "Centrální kříž na hřbitově v Mirošově",
                "P31": "Pamětní kříž",
                "P131^label:cs": "Mirošov",
                "P6736": "14840"
            },
            "geometry": {
                "type": "Point",
                "coordinates": [
                    13.6485,
                    49.70477
                ]
            }
        },
        {
            "type": "Feature",
            "properties": {
                "label:cs": "Kaplička severně od Mirošova",
                "P31": "Kaplička",
                "P131^label:cs": "Mirošov",
                "P6736": "7151"
            },
            "geometry": {
                "type": "Point",
                "coordinates": [
                    13.66551,
                    49.70205
                ]
            }
        },
        {
            "type": "Feature",
            "properties": {
                "label:cs": "Kříž jihozápadně od Hrádku",
                "P31": "Pamětní kříž",
                "P131^label:cs": "Mirošov",
                "P6736": "7150"
            },
            "geometry": {
                "type": "Point",
                "coordinates": [
                    13.62803,
                    49.70056
                ]
            }
        },
        {
            "type": "Feature",
            "properties": {
                "label:cs": "Kašna v Kamenném Újezdu",
                "P31": "Kašna",
                "P131^label:cs": "Kamenný Újezd",
                "P6736": "5140"
            },
            "geometry": {
                "type": "Point",
                "coordinates": [
                    13.62401,
                    49.7242
                ]
            }
        },
        {
            "type": "Feature",
            "properties": {
                "label:cs": "Pomník padlým v Kamenném Újezdu",
                "P31": "Pomník padlým",
                "P131^label:cs": "Kamenný Újezd",
                "P6736": "5139"
            },
            "geometry": {
                "type": "Point",
                "coordinates": [
                    13.62515,
                    49.72368
                ]
            }
        },
        {
            "type": "Feature",
            "properties": {
                "label:cs": "Plastika v Nové Huti u Rokycanské ulice",
                "P31": "Plastika",
                "P131^label:cs": "Hrádek",
                "P6736": "5137"
            },
            "geometry": {
                "type": "Point",
                "coordinates": [
                    13.63602,
                    49.7195
                ]
            }
        },
        {
            "type": "Feature",
            "properties": {
                "label:cs": "Pomník v Hrádku v Rokycanské ulici",
                "P31": "Pomník",
                "P131^label:cs": "Hrádek",
                "P6736": "5138"
            },
            "geometry": {
                "type": "Point",
                "coordinates": [
                    13.63955,
                    49.71479
                ]
            }
        },
        {
            "type": "Feature",
            "properties": {
                "label:cs": "Pomník padlým v Hrádku",
                "P31": "Pomník padlým",
                "P131^label:cs": "Hrádek",
                "P6736": "5136"
            },
            "geometry": {
                "type": "Point",
                "coordinates": [
                    13.64904,
                    49.71049
                ]
            }
        },
        {
            "type": "Feature",
            "properties": {
                "label:cs": "Kříž u Čtrnáctky",
                "P31": "Pamětní kříž",
                "P131^label:cs": "Mirošov",
                "P6736": "5135"
            },
            "geometry": {
                "type": "Point",
                "coordinates": [
                    13.6522,
                    49.70004
                ]
            }
        },
        {
            "type": "Feature",
            "properties": {
                "label:cs": "Kaplička severně od Čtrnáctky",
                "P31": "Kaplička",
                "P131^label:cs": "Mirošov",
                "P6736": "2056"
            },
            "geometry": {
                "type": "Point",
                "coordinates": [
                    13.64988,
                    49.70272
                ]
            }
        }
    ]
}