{
    "type": "FeatureCollection",
    "features": [
        {
            "type": "Feature",
            "properties": {
                "label:cs": "Rolnický památník",
                "P31": "Památník",
                "P131^label:cs": "Panoší Újezd",
                "P6736": "21217"
            },
            "geometry": {
                "type": "Point",
                "coordinates": [
                    13.70528,
                    50.02845
                ]
            }
        },
        {
            "type": "Feature",
            "properties": {
                "label:cs": "Plastika v zahradě v Nové Vsi u Rousínova východně od Rousínová",
                "P31": "Plastika",
                "P131^label:cs": "Slabce",
                "P6736": "16531"
            },
            "geometry": {
                "type": "Point",
                "coordinates": [
                    13.69638,
                    50.0219
                ]
            }
        },
        {
            "type": "Feature",
            "properties": {
                "label:cs": "Pamětní deska na domě v jižní části Rousínova u silnice na Modřejovice",
                "P31": "Pamětní deska",
                "P131^label:cs": "Slabce",
                "P6736": "13007"
            },
            "geometry": {
                "type": "Point",
                "coordinates": [
                    13.67467,
                    50.01867
                ]
            }
        },
        {
            "type": "Feature",
            "properties": {
                "label:cs": "Pomník padlým v Rousínově",
                "P31": "Pomník padlým",
                "P131^label:cs": "Slabce",
                "P6736": "13006"
            },
            "geometry": {
                "type": "Point",
                "coordinates": [
                    13.67698,
                    50.01979
                ]
            }
        },
        {
            "type": "Feature",
            "properties": {
                "label:cs": "Pamětní deska na domě v severní části návsi v Rousínově",
                "P31": "Pamětní deska",
                "P131^label:cs": "Slabce",
                "P6736": "13005"
            },
            "geometry": {
                "type": "Point",
                "coordinates": [
                    13.67728,
                    50.02061
                ]
            }
        },
        {
            "type": "Feature",
            "properties": {
                "label:cs": "Pamětní kříž na hřbitově v Rousínově",
                "P31": "Pamětní kříž",
                "P131^label:cs": "Slabce",
                "P6736": "13004"
            },
            "geometry": {
                "type": "Point",
                "coordinates": [
                    13.67482,
                    50.02313
                ]
            }
        },
        {
            "type": "Feature",
            "properties": {
                "label:cs": "Kaplička severozápadně od Rousínova",
                "P31": "Kaplička",
                "P131^label:cs": "Slabce",
                "P6736": "12998"
            },
            "geometry": {
                "type": "Point",
                "coordinates": [
                    13.67155,
                    50.02308
                ]
            }
        }
    ]
}