{
    "type": "FeatureCollection",
    "features": [
        {
            "type": "Feature",
            "properties": {
                "label:cs": "Kříž východně od Sebečic",
                "P31": "Pamětní kříž",
                "P131^label:cs": "Sebečice",
                "P6736": "8032"
            },
            "geometry": {
                "type": "Point",
                "coordinates": [
                    13.69493,
                    49.8707
                ]
            }
        },
        {
            "type": "Feature",
            "properties": {
                "label:cs": "Kříž na návsi v Sebečicích",
                "P31": "Pamětní kříž",
                "P131^label:cs": "Sebečice",
                "P6736": "8031"
            },
            "geometry": {
                "type": "Point",
                "coordinates": [
                    13.6919,
                    49.86968
                ]
            }
        },
        {
            "type": "Feature",
            "properties": {
                "label:cs": "Kaple v Sebečicích",
                "P31": "Kaple",
                "P131^label:cs": "Sebečice",
                "P6736": "8030"
            },
            "geometry": {
                "type": "Point",
                "coordinates": [
                    13.6916,
                    49.86982
                ]
            }
        },
        {
            "type": "Feature",
            "properties": {
                "label:cs": "Pomník padlým v Sebečicích",
                "P31": "Pomník padlým",
                "P131^label:cs": "Sebečice",
                "P6736": "8028"
            },
            "geometry": {
                "type": "Point",
                "coordinates": [
                    13.69223,
                    49.87004
                ]
            }
        },
        {
            "type": "Feature",
            "properties": {
                "label:cs": "Kaple v Biskoupkách",
                "P31": "Kaple",
                "P131^label:cs": "Sebečice",
                "P6736": "3895"
            },
            "geometry": {
                "type": "Point",
                "coordinates": [
                    13.68181,
                    49.8746
                ]
            }
        },
        {
            "type": "Feature",
            "properties": {
                "label:cs": "Kříž u kaple v Biskoupkách",
                "P31": "Pamětní kříž",
                "P131^label:cs": "Sebečice",
                "P6736": "3894"
            },
            "geometry": {
                "type": "Point",
                "coordinates": [
                    13.68175,
                    49.87469
                ]
            }
        },
        {
            "type": "Feature",
            "properties": {
                "label:cs": "Kaple v Bílé Skále",
                "P31": "Kaple",
                "P131^label:cs": "Terešov",
                "P6736": "3833"
            },
            "geometry": {
                "type": "Point",
                "coordinates": [
                    13.67729,
                    49.88523
                ]
            }
        },
        {
            "type": "Feature",
            "properties": {
                "label:cs": "Pomník padlým v Hlohovičkách",
                "P31": "Pomník padlým",
                "P131^label:cs": "Hlohovice",
                "P6736": "3832"
            },
            "geometry": {
                "type": "Point",
                "coordinates": [
                    13.67334,
                    49.89411
                ]
            }
        },
        {
            "type": "Feature",
            "properties": {
                "label:cs": "Kaple v Hlohovičkách",
                "P31": "Kaple",
                "P131^label:cs": "Hlohovice",
                "P6736": "3831"
            },
            "geometry": {
                "type": "Point",
                "coordinates": [
                    13.67344,
                    49.89412
                ]
            }
        },
        {
            "type": "Feature",
            "properties": {
                "label:cs": "Kříž u cesty nedaleko Bílé Skály",
                "P31": "Pamětní kříž",
                "P131^label:cs": "Terešov",
                "P6736": "2642"
            },
            "geometry": {
                "type": "Point",
                "coordinates": [
                    13.68101,
                    49.88645
                ]
            }
        },
        {
            "type": "Feature",
            "properties": {
                "label:cs": "Kříž východně od Hlohoviček",
                "P31": "Pamětní kříž",
                "P131^label:cs": "Terešov",
                "P6736": "2643"
            },
            "geometry": {
                "type": "Point",
                "coordinates": [
                    13.67902,
                    49.89273
                ]
            }
        },
        {
            "type": "Feature",
            "properties": {
                "label:cs": "Kříž u Terešova u zámku",
                "P31": "Pamětní kříž",
                "P131^label:cs": "Terešov",
                "P6736": "2644"
            },
            "geometry": {
                "type": "Point",
                "coordinates": [
                    13.70355,
                    49.89354
                ]
            }
        },
        {
            "type": "Feature",
            "properties": {
                "label:cs": "Kříž východně od Biskoupek na křižovatce",
                "P31": "Pamětní kříž",
                "P131^label:cs": "Sebečice",
                "P6736": "1242"
            },
            "geometry": {
                "type": "Point",
                "coordinates": [
                    13.68723,
                    49.87775
                ]
            }
        },
        {
            "type": "Feature",
            "properties": {
                "label:cs": "Kříž nad Biskoupky",
                "P31": "Pamětní kříž",
                "P131^label:cs": "Sebečice",
                "P6736": "1241"
            },
            "geometry": {
                "type": "Point",
                "coordinates": [
                    13.6776,
                    49.87449
                ]
            }
        }
    ]
}