{
    "type": "FeatureCollection",
    "features": [
        {
            "type": "Feature",
            "properties": {
                "label:cs": "Pomník padlým v Mutějovicích",
                "P31": "Pomník padlým",
                "P131^label:cs": "Mutějovice",
                "P6736": "21541"
            },
            "geometry": {
                "type": "Point",
                "coordinates": [
                    13.70907,
                    50.19442
                ]
            }
        },
        {
            "type": "Feature",
            "properties": {
                "label:cs": "Křížový kámen u Mutějovic",
                "P31": "Křížový kámen",
                "P131^label:cs": "Mutějovice",
                "P6736": "21539"
            },
            "geometry": {
                "type": "Point",
                "coordinates": [
                    13.70032,
                    50.19939
                ]
            }
        },
        {
            "type": "Feature",
            "properties": {
                "label:cs": "Kaple svatého Prokopa v Mutějovicích",
                "P31": "Kaple",
                "P131^label:cs": "Mutějovice",
                "P6736": "21536"
            },
            "geometry": {
                "type": "Point",
                "coordinates": [
                    13.7063,
                    50.19665
                ]
            }
        },
        {
            "type": "Feature",
            "properties": {
                "label:cs": "Kříž v Milostíně u mostu přes Lišanský potok",
                "P31": "Pamětní kříž",
                "P131^label:cs": "Milostín",
                "P6736": "15744"
            },
            "geometry": {
                "type": "Point",
                "coordinates": [
                    13.6714,
                    50.1964
                ]
            }
        },
        {
            "type": "Feature",
            "properties": {
                "label:cs": "Pomník padlým v Nesuchyni",
                "P31": "Pomník padlým",
                "P131^label:cs": "Nesuchyně",
                "P6736": "15743"
            },
            "geometry": {
                "type": "Point",
                "coordinates": [
                    13.68951,
                    50.17945
                ]
            }
        },
        {
            "type": "Feature",
            "properties": {
                "label:cs": "Památník v Nesuchyni",
                "P31": "Památník",
                "P131^label:cs": "Nesuchyně",
                "P6736": "15742"
            },
            "geometry": {
                "type": "Point",
                "coordinates": [
                    13.68977,
                    50.17949
                ]
            }
        },
        {
            "type": "Feature",
            "properties": {
                "label:cs": "Památník v Milostíně",
                "P31": "Památník",
                "P131^label:cs": "Milostín",
                "P6736": "15741"
            },
            "geometry": {
                "type": "Point",
                "coordinates": [
                    13.66759,
                    50.19382
                ]
            }
        },
        {
            "type": "Feature",
            "properties": {
                "label:cs": "Socha v Nesuchyni u hotelu Lions",
                "P31": "Socha",
                "P131^label:cs": "Nesuchyně",
                "P6736": "11421"
            },
            "geometry": {
                "type": "Point",
                "coordinates": [
                    13.69032,
                    50.17924
                ]
            }
        },
        {
            "type": "Feature",
            "properties": {
                "label:cs": "Pomník amerického pilota v Milostíně",
                "P31": "Památník",
                "P131^label:cs": "Milostín",
                "P6736": "11219"
            },
            "geometry": {
                "type": "Point",
                "coordinates": [
                    13.66768,
                    50.1939
                ]
            }
        },
        {
            "type": "Feature",
            "properties": {
                "label:cs": "Pomník padlým ve světové válce v Mutějovicích",
                "P31": "Pomník padlým",
                "P131^label:cs": "Mutějovice",
                "P6736": "11213"
            },
            "geometry": {
                "type": "Point",
                "coordinates": [
                    13.70909,
                    50.19442
                ]
            }
        },
        {
            "type": "Feature",
            "properties": {
                "label:cs": "Památník v Mutějovicích na křižovatce",
                "P31": "Památník",
                "P131^label:cs": "Mutějovice",
                "P6736": "7538"
            },
            "geometry": {
                "type": "Point",
                "coordinates": [
                    13.70617,
                    50.19384
                ]
            }
        },
        {
            "type": "Feature",
            "properties": {
                "label:cs": "Kříž v Mutějovicích u křižovatky",
                "P31": "Pamětní kříž",
                "P131^label:cs": "Mutějovice",
                "P6736": "7537"
            },
            "geometry": {
                "type": "Point",
                "coordinates": [
                    13.70561,
                    50.19269
                ]
            }
        },
        {
            "type": "Feature",
            "properties": {
                "label:cs": "Boží muka severně od Nesuchyně",
                "P31": "Boží muka",
                "P131^label:cs": "Nesuchyně",
                "P6736": "2163"
            },
            "geometry": {
                "type": "Point",
                "coordinates": [
                    13.68662,
                    50.18123
                ]
            }
        }
    ]
}