{
    "type": "FeatureCollection",
    "features": [
        {
            "type": "Feature",
            "properties": {
                "label:cs": "Dřevěný kříž na místě bývalého hřbitova u Mirošovského lágru",
                "P31": "Pamětní kříž",
                "P131^label:cs": "Mirošov",
                "P6736": "14850"
            },
            "geometry": {
                "type": "Point",
                "coordinates": [
                    13.67089,
                    49.67963
                ]
            }
        },
        {
            "type": "Feature",
            "properties": {
                "label:cs": "Kříž na místě bývalého hřbitova u Mirošovského lágru",
                "P31": "Pamětní kříž",
                "P131^label:cs": "Mirošov",
                "P6736": "14849"
            },
            "geometry": {
                "type": "Point",
                "coordinates": [
                    13.67065,
                    49.67995
                ]
            }
        },
        {
            "type": "Feature",
            "properties": {
                "label:cs": "Památník na místě tzv. lágru u Mirošova",
                "P31": "Památník",
                "P131^label:cs": "Mirošov",
                "P6736": "14848"
            },
            "geometry": {
                "type": "Point",
                "coordinates": [
                    13.67372,
                    49.68135
                ]
            }
        },
        {
            "type": "Feature",
            "properties": {
                "label:cs": "Kříž východně od Příkosic",
                "P31": "Pamětní kříž",
                "P131^label:cs": "Mirošov",
                "P6736": "5208"
            },
            "geometry": {
                "type": "Point",
                "coordinates": [
                    13.67108,
                    49.672
                ]
            }
        },
        {
            "type": "Feature",
            "properties": {
                "label:cs": "Kříž u Štítova",
                "P31": "Pamětní kříž",
                "P131^label:cs": "Štítov",
                "P6736": "5207"
            },
            "geometry": {
                "type": "Point",
                "coordinates": [
                    13.68264,
                    49.66784
                ]
            }
        },
        {
            "type": "Feature",
            "properties": {
                "label:cs": "Kaple ve Štítově",
                "P31": "Kaple",
                "P131^label:cs": "Štítov",
                "P6736": "5206"
            },
            "geometry": {
                "type": "Point",
                "coordinates": [
                    13.68084,
                    49.66778
                ]
            }
        },
        {
            "type": "Feature",
            "properties": {
                "label:cs": "Kaple severovýchodně od Mirošova",
                "P31": "Kaple",
                "P131^label:cs": "Mirošov",
                "P6736": "5133"
            },
            "geometry": {
                "type": "Point",
                "coordinates": [
                    13.66884,
                    49.69441
                ]
            }
        },
        {
            "type": "Feature",
            "properties": {
                "label:cs": "Kříž východně od Mirošova",
                "P31": "Pamětní kříž",
                "P131^label:cs": "Mirošov",
                "P6736": "5132"
            },
            "geometry": {
                "type": "Point",
                "coordinates": [
                    13.66904,
                    49.68571
                ]
            }
        },
        {
            "type": "Feature",
            "properties": {
                "label:cs": "Kaplička ve Skořicích",
                "P31": "Kaplička",
                "P131^label:cs": "Skořice",
                "P6736": "4283"
            },
            "geometry": {
                "type": "Point",
                "coordinates": [
                    13.7058,
                    49.67772
                ]
            }
        },
        {
            "type": "Feature",
            "properties": {
                "label:cs": "Kříž ve Skořicích",
                "P31": "Pamětní kříž",
                "P131^label:cs": "Skořice",
                "P6736": "4282"
            },
            "geometry": {
                "type": "Point",
                "coordinates": [
                    13.7031,
                    49.67798
                ]
            }
        },
        {
            "type": "Feature",
            "properties": {
                "label:cs": "Pomníky padlým ve Skořicích",
                "P31": "Pomník padlým",
                "P131^label:cs": "Skořice",
                "P6736": "4281"
            },
            "geometry": {
                "type": "Point",
                "coordinates": [
                    13.70308,
                    49.67823
                ]
            }
        },
        {
            "type": "Feature",
            "properties": {
                "label:cs": "Kříž u kostela ve Skořicích",
                "P31": "Pamětní kříž",
                "P131^label:cs": "Skořice",
                "P6736": "4280"
            },
            "geometry": {
                "type": "Point",
                "coordinates": [
                    13.70142,
                    49.67877
                ]
            }
        }
    ]
}