{
    "type": "FeatureCollection",
    "features": [
        {
            "type": "Feature",
            "properties": {
                "label:cs": "Pomník padlým v Plískově",
                "P31": "Pomník padlým",
                "P131^label:cs": "Plískov",
                "P6736": "6934"
            },
            "geometry": {
                "type": "Point",
                "coordinates": [
                    13.73808,
                    49.84271
                ]
            }
        },
        {
            "type": "Feature",
            "properties": {
                "label:cs": "Kříž severovýchodně od Plískova u rozcestí",
                "P31": "Pamětní kříž",
                "P131^label:cs": "Plískov",
                "P6736": "6920"
            },
            "geometry": {
                "type": "Point",
                "coordinates": [
                    13.74157,
                    49.84341
                ]
            }
        },
        {
            "type": "Feature",
            "properties": {
                "label:cs": "Kaple v Plískově",
                "P31": "Kaple",
                "P131^label:cs": "Plískov",
                "P6736": "6921"
            },
            "geometry": {
                "type": "Point",
                "coordinates": [
                    13.73573,
                    49.84345
                ]
            }
        },
        {
            "type": "Feature",
            "properties": {
                "label:cs": "Kříž jihovýchodně od Chotětína",
                "P31": "Pamětní kříž",
                "P131^label:cs": "Plískov",
                "P6736": "6918"
            },
            "geometry": {
                "type": "Point",
                "coordinates": [
                    13.73214,
                    49.85158
                ]
            }
        },
        {
            "type": "Feature",
            "properties": {
                "label:cs": "Kříž u kaple v Plískově",
                "P31": "Pamětní kříž",
                "P131^label:cs": "Plískov",
                "P6736": "6919"
            },
            "geometry": {
                "type": "Point",
                "coordinates": [
                    13.73577,
                    49.84342
                ]
            }
        },
        {
            "type": "Feature",
            "properties": {
                "label:cs": "Kaple u Chotětína",
                "P31": "Kaple",
                "P131^label:cs": "Zbiroh",
                "P6736": "6917"
            },
            "geometry": {
                "type": "Point",
                "coordinates": [
                    13.72713,
                    49.85652
                ]
            }
        }
    ]
}