{
    "type": "FeatureCollection",
    "features": [
        {
            "type": "Feature",
            "properties": {
                "label:cs": "Kříž u věže kostela sv. Jana Křtitele v Mýtě",
                "P31": "Pamětní kříž",
                "P131^label:cs": "Mýto",
                "P6736": "25478"
            },
            "geometry": {
                "type": "Point",
                "coordinates": [
                    13.7341,
                    49.78883
                ]
            }
        },
        {
            "type": "Feature",
            "properties": {
                "label:cs": "Kříž v Mýtě za tratí",
                "P31": "Pamětní kříž",
                "P131^label:cs": "Mýto",
                "P6736": "20482"
            },
            "geometry": {
                "type": "Point",
                "coordinates": [
                    13.74124,
                    49.78211
                ]
            }
        },
        {
            "type": "Feature",
            "properties": {
                "label:cs": "Pamětní deska J. Pohla v Mýtě",
                "P31": "Pamětní deska",
                "P131^label:cs": "Mýto",
                "P6736": "13300"
            },
            "geometry": {
                "type": "Point",
                "coordinates": [
                    13.73165,
                    49.78865
                ]
            }
        },
        {
            "type": "Feature",
            "properties": {
                "label:cs": "Pamětní deska A. V. Ambrose v Mýtě",
                "P31": "Pamětní deska",
                "P131^label:cs": "Mýto",
                "P6736": "13299"
            },
            "geometry": {
                "type": "Point",
                "coordinates": [
                    13.73195,
                    49.78872
                ]
            }
        },
        {
            "type": "Feature",
            "properties": {
                "label:cs": "Kaple východně od Mýta na hřbitově",
                "P31": "Kaple",
                "P131^label:cs": "Mýto",
                "P6736": "6908"
            },
            "geometry": {
                "type": "Point",
                "coordinates": [
                    13.75175,
                    49.79415
                ]
            }
        },
        {
            "type": "Feature",
            "properties": {
                "label:cs": "Kříž severovýchodně od Mýta",
                "P31": "Pamětní kříž",
                "P131^label:cs": "Mýto",
                "P6736": "6909"
            },
            "geometry": {
                "type": "Point",
                "coordinates": [
                    13.74486,
                    49.79626
                ]
            }
        },
        {
            "type": "Feature",
            "properties": {
                "label:cs": "Kaplička východně od Mýta",
                "P31": "Kaplička",
                "P131^label:cs": "Mýto",
                "P6736": "6907"
            },
            "geometry": {
                "type": "Point",
                "coordinates": [
                    13.75314,
                    49.79405
                ]
            }
        },
        {
            "type": "Feature",
            "properties": {
                "label:cs": "Socha svatého Antonína Paduánského u Mýta",
                "P31": "Socha",
                "P131^label:cs": "Mýto",
                "P6736": "6905"
            },
            "geometry": {
                "type": "Point",
                "coordinates": [
                    13.74393,
                    49.79265
                ]
            }
        },
        {
            "type": "Feature",
            "properties": {
                "label:cs": "Kaple východně od Mýta u rybníka",
                "P31": "Kaple",
                "P131^label:cs": "Mýto",
                "P6736": "6906"
            },
            "geometry": {
                "type": "Point",
                "coordinates": [
                    13.74922,
                    49.79313
                ]
            }
        },
        {
            "type": "Feature",
            "properties": {
                "label:cs": "Kaple svatého Vojtěcha severně od Mýta",
                "P31": "Kaple",
                "P131^label:cs": "Mýto",
                "P6736": "6903"
            },
            "geometry": {
                "type": "Point",
                "coordinates": [
                    13.7277,
                    49.79615
                ]
            }
        },
        {
            "type": "Feature",
            "properties": {
                "label:cs": "Kříž v Mýtě v ulici Svatopluka Čecha",
                "P31": "Pamětní kříž",
                "P131^label:cs": "Mýto",
                "P6736": "6904"
            },
            "geometry": {
                "type": "Point",
                "coordinates": [
                    13.74141,
                    49.79163
                ]
            }
        },
        {
            "type": "Feature",
            "properties": {
                "label:cs": "Socha svatého Jana Nepomuckého v Mýtě",
                "P31": "Socha",
                "P131^label:cs": "Mýto",
                "P6736": "6902"
            },
            "geometry": {
                "type": "Point",
                "coordinates": [
                    13.73555,
                    49.78926
                ]
            }
        },
        {
            "type": "Feature",
            "properties": {
                "label:cs": "Kříž v Mýtě v Plzeňské ulici",
                "P31": "Pamětní kříž",
                "P131^label:cs": "Mýto",
                "P6736": "6901"
            },
            "geometry": {
                "type": "Point",
                "coordinates": [
                    13.73281,
                    49.7888
                ]
            }
        },
        {
            "type": "Feature",
            "properties": {
                "label:cs": "Kříž v Mýtu u kostela",
                "P31": "Pamětní kříž",
                "P131^label:cs": "Mýto",
                "P6736": "6899"
            },
            "geometry": {
                "type": "Point",
                "coordinates": [
                    13.73461,
                    49.78896
                ]
            }
        },
        {
            "type": "Feature",
            "properties": {
                "label:cs": "Pomník padlým v Mýtu",
                "P31": "Pomník padlým",
                "P131^label:cs": "Mýto",
                "P6736": "6900"
            },
            "geometry": {
                "type": "Point",
                "coordinates": [
                    13.73398,
                    49.78883
                ]
            }
        },
        {
            "type": "Feature",
            "properties": {
                "label:cs": "Kříž v Mýtě u ulice Letná II",
                "P31": "Pamětní kříž",
                "P131^label:cs": "Mýto",
                "P6736": "6898"
            },
            "geometry": {
                "type": "Point",
                "coordinates": [
                    13.73884,
                    49.7858
                ]
            }
        },
        {
            "type": "Feature",
            "properties": {
                "label:cs": "Kříž jižně od Mýta u Podmýteckého rybníka",
                "P31": "Pamětní kříž",
                "P131^label:cs": "Mýto",
                "P6736": "6897"
            },
            "geometry": {
                "type": "Point",
                "coordinates": [
                    13.72829,
                    49.7814
                ]
            }
        }
    ]
}