{
    "type": "FeatureCollection",
    "features": [
        {
            "type": "Feature",
            "properties": {
                "label:cs": "Zvonička v Siré",
                "P31": "Zvonička",
                "P131^label:cs": "Sirá",
                "P6736": "24546"
            },
            "geometry": {
                "type": "Point",
                "coordinates": [
                    13.7384,
                    49.82157
                ]
            }
        },
        {
            "type": "Feature",
            "properties": {
                "label:cs": "Kaplička v lese mezi Lhotou p. Radčem a Sirou",
                "P31": "Kaplička",
                "P131^label:cs": "Lhota pod Radčem",
                "P6736": "24545"
            },
            "geometry": {
                "type": "Point",
                "coordinates": [
                    13.7231,
                    49.8229
                ]
            }
        },
        {
            "type": "Feature",
            "properties": {
                "label:cs": "Kříž na návsi v Siré",
                "P31": "Pamětní kříž",
                "P131^label:cs": "Sirá",
                "P6736": "24544"
            },
            "geometry": {
                "type": "Point",
                "coordinates": [
                    13.73853,
                    49.8213
                ]
            }
        },
        {
            "type": "Feature",
            "properties": {
                "label:cs": "Kříž v Siré",
                "P31": "Pamětní kříž",
                "P131^label:cs": "Sirá",
                "P6736": "24543"
            },
            "geometry": {
                "type": "Point",
                "coordinates": [
                    13.73805,
                    49.81883
                ]
            }
        },
        {
            "type": "Feature",
            "properties": {
                "label:cs": "Pomník Václavu Holubovi u Siré",
                "P31": "Pomník",
                "P131^label:cs": "Sirá",
                "P6736": "24542"
            },
            "geometry": {
                "type": "Point",
                "coordinates": [
                    13.75171,
                    49.81136
                ]
            }
        },
        {
            "type": "Feature",
            "properties": {
                "label:cs": "Kříž severovýchodně od Lhoty pod Radčem",
                "P31": "Pamětní kříž",
                "P131^label:cs": "Lhota pod Radčem",
                "P6736": "6922"
            },
            "geometry": {
                "type": "Point",
                "coordinates": [
                    13.72116,
                    49.83161
                ]
            }
        }
    ]
}