{
    "type": "FeatureCollection",
    "features": [
        {
            "type": "Feature",
            "properties": {
                "label:cs": "Pomník osvobození na hřbitově v Duchcově",
                "P31": "Pomník",
                "P131^label:cs": "Duchcov",
                "P6736": "18922"
            },
            "geometry": {
                "type": "Point",
                "coordinates": [
                    13.76165,
                    50.60307
                ]
            }
        },
        {
            "type": "Feature",
            "properties": {
                "label:cs": "Památník obětí neštěstí na dole Svěží štěstí 19.9.1900 na hřbitově v Duchcově",
                "P31": "Památník",
                "P131^label:cs": "Duchcov",
                "P6736": "18921"
            },
            "geometry": {
                "type": "Point",
                "coordinates": [
                    13.76125,
                    50.60302
                ]
            }
        },
        {
            "type": "Feature",
            "properties": {
                "label:cs": "Kaple Panny Marie Pomocné u hřbitova v Duchcově",
                "P31": "Kaple",
                "P131^label:cs": "Duchcov",
                "P6736": "18920"
            },
            "geometry": {
                "type": "Point",
                "coordinates": [
                    13.76027,
                    50.60246
                ]
            }
        },
        {
            "type": "Feature",
            "properties": {
                "label:cs": "Pomník obětem válek v Želénkách",
                "P31": "Pomník padlým",
                "P131^label:cs": "Zabrušany",
                "P6736": "15255"
            },
            "geometry": {
                "type": "Point",
                "coordinates": [
                    13.78004,
                    50.59897
                ]
            }
        },
        {
            "type": "Feature",
            "properties": {
                "label:cs": "Kaple svatého Jana Nepomuckého v osadě Štěrbina",
                "P31": "Kaple",
                "P131^label:cs": "Zabrušany",
                "P6736": "15157"
            },
            "geometry": {
                "type": "Point",
                "coordinates": [
                    13.79821,
                    50.61207
                ]
            }
        },
        {
            "type": "Feature",
            "properties": {
                "label:cs": "Pomník padlým ve Všechlapech",
                "P31": "Pomník padlým",
                "P131^label:cs": "Zabrušany",
                "P6736": "15156"
            },
            "geometry": {
                "type": "Point",
                "coordinates": [
                    13.78996,
                    50.60894
                ]
            }
        },
        {
            "type": "Feature",
            "properties": {
                "label:cs": "Kaple v Želénkách",
                "P31": "Kaple",
                "P131^label:cs": "Zabrušany",
                "P6736": "15155"
            },
            "geometry": {
                "type": "Point",
                "coordinates": [
                    13.78159,
                    50.59996
                ]
            }
        },
        {
            "type": "Feature",
            "properties": {
                "label:cs": "Pomník obětem okupace 1939-1945 v Zabrušanech",
                "P31": "Pomník padlým",
                "P131^label:cs": "Zabrušany",
                "P6736": "15154"
            },
            "geometry": {
                "type": "Point",
                "coordinates": [
                    13.78861,
                    50.60523
                ]
            }
        },
        {
            "type": "Feature",
            "properties": {
                "label:cs": "Socha Piety u kostela v Zabrušanech",
                "P31": "Socha",
                "P131^label:cs": "Zabrušany",
                "P6736": "15153"
            },
            "geometry": {
                "type": "Point",
                "coordinates": [
                    13.78746,
                    50.60566
                ]
            }
        },
        {
            "type": "Feature",
            "properties": {
                "label:cs": "Kříž v Zabrušanech",
                "P31": "Pamětní kříž",
                "P131^label:cs": "Zabrušany",
                "P6736": "15152"
            },
            "geometry": {
                "type": "Point",
                "coordinates": [
                    13.78235,
                    50.60646
                ]
            }
        },
        {
            "type": "Feature",
            "properties": {
                "label:cs": "Kaplička svatého Jana Nepomuckého v Lahošti",
                "P31": "Kaplička",
                "P131^label:cs": "Lahošť",
                "P6736": "14790"
            },
            "geometry": {
                "type": "Point",
                "coordinates": [
                    13.76847,
                    50.61803
                ]
            }
        },
        {
            "type": "Feature",
            "properties": {
                "label:cs": "Kaple Panny Marie v Lahošti",
                "P31": "Kaple",
                "P131^label:cs": "Lahošť",
                "P6736": "14789"
            },
            "geometry": {
                "type": "Point",
                "coordinates": [
                    13.7656,
                    50.61901
                ]
            }
        },
        {
            "type": "Feature",
            "properties": {
                "label:cs": "Kříž na rozcestí v Lahošti",
                "P31": "Pamětní kříž",
                "P131^label:cs": "Lahošť",
                "P6736": "14780"
            },
            "geometry": {
                "type": "Point",
                "coordinates": [
                    13.75843,
                    50.62142
                ]
            }
        },
        {
            "type": "Feature",
            "properties": {
                "label:cs": "Pomník obětem důlního neštěstí 1879 v Lipové ulici v Duchcově",
                "P31": "Pomník",
                "P131^label:cs": "Duchcov",
                "P6736": "14694"
            },
            "geometry": {
                "type": "Point",
                "coordinates": [
                    13.75506,
                    50.60262
                ]
            }
        }
    ]
}