{
    "type": "FeatureCollection",
    "features": [
        {
            "type": "Feature",
            "properties": {
                "label:cs": "Pomník nejasného účelu v ulici Jiřího z Poděbrad v Trnovanech",
                "P31": "Pomník",
                "P131^label:cs": "Teplice",
                "P6736": "18939"
            },
            "geometry": {
                "type": "Point",
                "coordinates": [
                    13.84088,
                    50.65332
                ]
            }
        },
        {
            "type": "Feature",
            "properties": {
                "label:cs": "Pomník Jana Husa na Husově vrchu u Běhánek",
                "P31": "Pomník",
                "P131^label:cs": "Dubí",
                "P6736": "18664"
            },
            "geometry": {
                "type": "Point",
                "coordinates": [
                    13.80542,
                    50.67786
                ]
            }
        },
        {
            "type": "Feature",
            "properties": {
                "label:cs": "Porcelánová plastika v areálu porcelánky v Tovární ulici v Dubí u Teplic",
                "P31": "Plastika",
                "P131^label:cs": "Dubí",
                "P6736": "18640"
            },
            "geometry": {
                "type": "Point",
                "coordinates": [
                    13.79883,
                    50.67252
                ]
            }
        },
        {
            "type": "Feature",
            "properties": {
                "label:cs": "Opravená boží muka u hřbitova v Novosedlicích",
                "P31": "Boží muka",
                "P131^label:cs": "Novosedlice",
                "P6736": "18536"
            },
            "geometry": {
                "type": "Point",
                "coordinates": [
                    13.81647,
                    50.65839
                ]
            }
        },
        {
            "type": "Feature",
            "properties": {
                "label:cs": "Socha svatého Valentina ve výklenku kostela v Novosedlicích",
                "P31": "Socha",
                "P131^label:cs": "Novosedlice",
                "P6736": "18533"
            },
            "geometry": {
                "type": "Point",
                "coordinates": [
                    13.82222,
                    50.65833
                ]
            }
        },
        {
            "type": "Feature",
            "properties": {
                "label:cs": "Betonové plastiky s mozaikami pohádek u školy v Edisonově ulici v Trnovanech",
                "P31": "Plastika",
                "P131^label:cs": "Teplice",
                "P6736": "18445"
            },
            "geometry": {
                "type": "Point",
                "coordinates": [
                    13.84195,
                    50.65451
                ]
            }
        },
        {
            "type": "Feature",
            "properties": {
                "label:cs": "Výklenková kaplička v zahradě domu v Úzké ulici v Novosedlicích",
                "P31": "Kaplička",
                "P131^label:cs": "Novosedlice",
                "P6736": "16740"
            },
            "geometry": {
                "type": "Point",
                "coordinates": [
                    13.82209,
                    50.65894
                ]
            }
        },
        {
            "type": "Feature",
            "properties": {
                "label:cs": "Socha Krista nad portálem kostela svatého Valentina v Novosedlicích",
                "P31": "Socha",
                "P131^label:cs": "Novosedlice",
                "P6736": "16739"
            },
            "geometry": {
                "type": "Point",
                "coordinates": [
                    13.82184,
                    50.65848
                ]
            }
        },
        {
            "type": "Feature",
            "properties": {
                "label:cs": "Zvonice u kostela svatého Valentina v Novosedlicích",
                "P31": "Zvonička",
                "P131^label:cs": "Novosedlice",
                "P6736": "16738"
            },
            "geometry": {
                "type": "Point",
                "coordinates": [
                    13.82171,
                    50.65842
                ]
            }
        },
        {
            "type": "Feature",
            "properties": {
                "label:cs": "Socha Madony v Kostelní ulici v Novosedlicích",
                "P31": "Socha",
                "P131^label:cs": "Novosedlice",
                "P6736": "16737"
            },
            "geometry": {
                "type": "Point",
                "coordinates": [
                    13.82182,
                    50.65815
                ]
            }
        },
        {
            "type": "Feature",
            "properties": {
                "label:cs": "Pomník osvobození v parku v ulici Míru v Novosedlicích",
                "P31": "Pomník",
                "P131^label:cs": "Novosedlice",
                "P6736": "16736"
            },
            "geometry": {
                "type": "Point",
                "coordinates": [
                    13.82311,
                    50.655
                ]
            }
        },
        {
            "type": "Feature",
            "properties": {
                "label:cs": "Pomník obětem nacistické okupace 1939-1945 v Proboštově",
                "P31": "Pomník padlým",
                "P131^label:cs": "Proboštov",
                "P6736": "15295"
            },
            "geometry": {
                "type": "Point",
                "coordinates": [
                    13.83437,
                    50.6673
                ]
            }
        },
        {
            "type": "Feature",
            "properties": {
                "label:cs": "Kašna před Obecním úřadem v Proboštově",
                "P31": "Kašna",
                "P131^label:cs": "Proboštov",
                "P6736": "15294"
            },
            "geometry": {
                "type": "Point",
                "coordinates": [
                    13.83543,
                    50.66732
                ]
            }
        },
        {
            "type": "Feature",
            "properties": {
                "label:cs": "Pamětní deska padlým v 1. světové válce na kapli v Proboštově",
                "P31": "Pamětní deska",
                "P131^label:cs": "Proboštov",
                "P6736": "15293"
            },
            "geometry": {
                "type": "Point",
                "coordinates": [
                    13.83602,
                    50.66775
                ]
            }
        },
        {
            "type": "Feature",
            "properties": {
                "label:cs": "Kaple svatého Antonína v Proboštově",
                "P31": "Kaple",
                "P131^label:cs": "Proboštov",
                "P6736": "15292"
            },
            "geometry": {
                "type": "Point",
                "coordinates": [
                    13.83611,
                    50.66771
                ]
            }
        }
    ]
}