{
    "type": "FeatureCollection",
    "features": [
        {
            "type": "Feature",
            "properties": {
                "label:cs": "Kříž pod Jivinou",
                "P31": "Pamětní kříž",
                "P131^label:cs": "Jivina",
                "P6736": "23902"
            },
            "geometry": {
                "type": "Point",
                "coordinates": [
                    13.84171,
                    49.78994
                ]
            }
        },
        {
            "type": "Feature",
            "properties": {
                "label:cs": "Pomník obětem světových válek na Jivině",
                "P31": "Pomník padlým",
                "P131^label:cs": "Jivina",
                "P6736": "23901"
            },
            "geometry": {
                "type": "Point",
                "coordinates": [
                    13.83714,
                    49.7934
                ]
            }
        },
        {
            "type": "Feature",
            "properties": {
                "label:cs": "Kříž u kapličky na Jivině",
                "P31": "Pamětní kříž",
                "P131^label:cs": "Jivina",
                "P6736": "23900"
            },
            "geometry": {
                "type": "Point",
                "coordinates": [
                    13.83733,
                    49.79352
                ]
            }
        },
        {
            "type": "Feature",
            "properties": {
                "label:cs": "Kaplička na Jivině",
                "P31": "Kaplička",
                "P131^label:cs": "Jivina",
                "P6736": "23899"
            },
            "geometry": {
                "type": "Point",
                "coordinates": [
                    13.83729,
                    49.79351
                ]
            }
        },
        {
            "type": "Feature",
            "properties": {
                "label:cs": "Pomník padlým v 1. světové válce v Olešné",
                "P31": "Pomník padlým",
                "P131^label:cs": "Olešná",
                "P6736": "13054"
            },
            "geometry": {
                "type": "Point",
                "coordinates": [
                    13.81197,
                    49.78155
                ]
            }
        },
        {
            "type": "Feature",
            "properties": {
                "label:cs": "Kříž před kaplí v Olešné",
                "P31": "Pamětní kříž",
                "P131^label:cs": "Olešná",
                "P6736": "13053"
            },
            "geometry": {
                "type": "Point",
                "coordinates": [
                    13.81242,
                    49.7822
                ]
            }
        },
        {
            "type": "Feature",
            "properties": {
                "label:cs": "Kaple v Olešné",
                "P31": "Kaple",
                "P131^label:cs": "Olešná",
                "P6736": "13052"
            },
            "geometry": {
                "type": "Point",
                "coordinates": [
                    13.8124,
                    49.78223
                ]
            }
        }
    ]
}