{
    "type": "FeatureCollection",
    "features": [
        {
            "type": "Feature",
            "properties": {
                "label:cs": "Pomník padlým v Úlehli",
                "P31": "Pomník padlým",
                "P131^label:cs": "Předslavice",
                "P6736": "19026"
            },
            "geometry": {
                "type": "Point",
                "coordinates": [
                    13.92579,
                    49.12659
                ]
            }
        },
        {
            "type": "Feature",
            "properties": {
                "label:cs": "Kříž u návesní kaple v Úlehli",
                "P31": "Pamětní kříž",
                "P131^label:cs": "Předslavice",
                "P6736": "19020"
            },
            "geometry": {
                "type": "Point",
                "coordinates": [
                    13.92581,
                    49.1266
                ]
            }
        },
        {
            "type": "Feature",
            "properties": {
                "label:cs": "Návesní kaple v Úlehli",
                "P31": "Kaple",
                "P131^label:cs": "Předslavice",
                "P6736": "19019"
            },
            "geometry": {
                "type": "Point",
                "coordinates": [
                    13.92578,
                    49.12662
                ]
            }
        },
        {
            "type": "Feature",
            "properties": {
                "label:cs": "Kříž západně od Úlehle",
                "P31": "Pamětní kříž",
                "P131^label:cs": "Předslavice",
                "P6736": "19018"
            },
            "geometry": {
                "type": "Point",
                "coordinates": [
                    13.92116,
                    49.12549
                ]
            }
        },
        {
            "type": "Feature",
            "properties": {
                "label:cs": "Pomník štábního strážmistra četnictva Cyrila Šrámka východně od Malenic",
                "P31": "Pomník",
                "P131^label:cs": "Malenice",
                "P6736": "17880"
            },
            "geometry": {
                "type": "Point",
                "coordinates": [
                    13.89148,
                    49.12506
                ]
            }
        },
        {
            "type": "Feature",
            "properties": {
                "label:cs": "Kříž v Malenicích na křižovatce ulic Straňovická a Ve Hlinkách",
                "P31": "Pamětní kříž",
                "P131^label:cs": "Malenice",
                "P6736": "17879"
            },
            "geometry": {
                "type": "Point",
                "coordinates": [
                    13.88735,
                    49.12558
                ]
            }
        }
    ]
}