{
    "type": "FeatureCollection",
    "features": [
        {
            "type": "Feature",
            "properties": {
                "label:cs": "Kamenná plastika ve Vrbnovské ulici v Hořovicích",
                "P31": "Plastika",
                "P131^label:cs": "Hořovice",
                "P6736": "14978"
            },
            "geometry": {
                "type": "Point",
                "coordinates": [
                    13.90825,
                    49.83885
                ]
            }
        },
        {
            "type": "Feature",
            "properties": {
                "label:cs": "Boží muka u cesty ke stadionu v Hořovicích",
                "P31": "Boží muka",
                "P131^label:cs": "Hořovice",
                "P6736": "14976"
            },
            "geometry": {
                "type": "Point",
                "coordinates": [
                    13.9049,
                    49.84023
                ]
            }
        },
        {
            "type": "Feature",
            "properties": {
                "label:cs": "Figurální plastika slévače u Starého zámku v Hořovicích",
                "P31": "Plastika",
                "P131^label:cs": "Hořovice",
                "P6736": "14974"
            },
            "geometry": {
                "type": "Point",
                "coordinates": [
                    13.90658,
                    49.83808
                ]
            }
        },
        {
            "type": "Feature",
            "properties": {
                "label:cs": "Pomník Fridricha Wilhelma Hessenského v zámeckém parku v Hořovicích",
                "P31": "Pomník",
                "P131^label:cs": "Hořovice",
                "P6736": "14973"
            },
            "geometry": {
                "type": "Point",
                "coordinates": [
                    13.91138,
                    49.83856
                ]
            }
        },
        {
            "type": "Feature",
            "properties": {
                "label:cs": "Pomník padlým v Kotopekách",
                "P31": "Pomník padlým",
                "P131^label:cs": "Kotopeky",
                "P6736": "14655"
            },
            "geometry": {
                "type": "Point",
                "coordinates": [
                    13.92305,
                    49.85845
                ]
            }
        },
        {
            "type": "Feature",
            "properties": {
                "label:cs": "Kaple v Kotopekách",
                "P31": "Kaple",
                "P131^label:cs": "Kotopeky",
                "P6736": "14339"
            },
            "geometry": {
                "type": "Point",
                "coordinates": [
                    13.92295,
                    49.85888
                ]
            }
        },
        {
            "type": "Feature",
            "properties": {
                "label:cs": "Pomník padlým v Kotopekách - Tihavě",
                "P31": "Pomník padlým",
                "P131^label:cs": "Kotopeky",
                "P6736": "14338"
            },
            "geometry": {
                "type": "Point",
                "coordinates": [
                    13.92342,
                    49.85192
                ]
            }
        },
        {
            "type": "Feature",
            "properties": {
                "label:cs": "Kaple v Kotopekách - Tihavě",
                "P31": "Kaple",
                "P131^label:cs": "Kotopeky",
                "P6736": "14335"
            },
            "geometry": {
                "type": "Point",
                "coordinates": [
                    13.9241,
                    49.85193
                ]
            }
        },
        {
            "type": "Feature",
            "properties": {
                "label:cs": "Památník květnového povstání v Hořovicích na nádraží",
                "P31": "Pamětní deska",
                "P131^label:cs": "Hořovice",
                "P6736": "11387"
            },
            "geometry": {
                "type": "Point",
                "coordinates": [
                    13.89926,
                    49.84314
                ]
            }
        }
    ]
}