{
    "type": "FeatureCollection",
    "features": [
        {
            "type": "Feature",
            "properties": {
                "label:cs": "Kaplička svatého Václava v Ohrazenici",
                "P31": "Kaplička",
                "P131^label:cs": "Ohrazenice",
                "P6736": "19319"
            },
            "geometry": {
                "type": "Point",
                "coordinates": [
                    13.95455,
                    49.78168
                ]
            }
        },
        {
            "type": "Feature",
            "properties": {
                "label:cs": "Kaple v Ohrazenici",
                "P31": "Kaple",
                "P131^label:cs": "Ohrazenice",
                "P6736": "19168"
            },
            "geometry": {
                "type": "Point",
                "coordinates": [
                    13.95824,
                    49.78854
                ]
            }
        },
        {
            "type": "Feature",
            "properties": {
                "label:cs": "Pomník padlým v Ohrazenici",
                "P31": "Pomník padlým",
                "P131^label:cs": "Ohrazenice",
                "P6736": "19166"
            },
            "geometry": {
                "type": "Point",
                "coordinates": [
                    13.95957,
                    49.78988
                ]
            }
        },
        {
            "type": "Feature",
            "properties": {
                "label:cs": "Kříž u Ohrazenice",
                "P31": "Pamětní kříž",
                "P131^label:cs": "Jince",
                "P6736": "19164"
            },
            "geometry": {
                "type": "Point",
                "coordinates": [
                    13.96655,
                    49.79111
                ]
            }
        },
        {
            "type": "Feature",
            "properties": {
                "label:cs": "Kříž u kapličky v Rejkovicích",
                "P31": "Pamětní kříž",
                "P131^label:cs": "Jince",
                "P6736": "19160"
            },
            "geometry": {
                "type": "Point",
                "coordinates": [
                    13.9695,
                    49.80899
                ]
            }
        },
        {
            "type": "Feature",
            "properties": {
                "label:cs": "Kaplička v Rejkovicích",
                "P31": "Kaplička",
                "P131^label:cs": "Jince",
                "P6736": "19159"
            },
            "geometry": {
                "type": "Point",
                "coordinates": [
                    13.96957,
                    49.80899
                ]
            }
        }
    ]
}