{
    "type": "FeatureCollection",
    "features": [
        {
            "type": "Feature",
            "properties": {
                "label:cs": "Kříž západně od Plíškovic",
                "P31": "Pamětní kříž",
                "P131^label:cs": "Mirovice",
                "P6736": "10504"
            },
            "geometry": {
                "type": "Point",
                "coordinates": [
                    14.00671,
                    49.52182
                ]
            }
        },
        {
            "type": "Feature",
            "properties": {
                "label:cs": "Kříž v Draheničkách",
                "P31": "Pamětní kříž",
                "P131^label:cs": "Mišovice",
                "P6736": "7904"
            },
            "geometry": {
                "type": "Point",
                "coordinates": [
                    13.97477,
                    49.50729
                ]
            }
        },
        {
            "type": "Feature",
            "properties": {
                "label:cs": "Kříž na křižovatce ve Svučicích",
                "P31": "Pamětní kříž",
                "P131^label:cs": "Mišovice",
                "P6736": "7903"
            },
            "geometry": {
                "type": "Point",
                "coordinates": [
                    13.98686,
                    49.49852
                ]
            }
        },
        {
            "type": "Feature",
            "properties": {
                "label:cs": "Kaple u Svučic",
                "P31": "Kaple",
                "P131^label:cs": "Mišovice",
                "P6736": "2614"
            },
            "geometry": {
                "type": "Point",
                "coordinates": [
                    13.99038,
                    49.49858
                ]
            }
        },
        {
            "type": "Feature",
            "properties": {
                "label:cs": "Kříž u Svučic",
                "P31": "Pamětní kříž",
                "P131^label:cs": "Mišovice",
                "P6736": "2615"
            },
            "geometry": {
                "type": "Point",
                "coordinates": [
                    13.9803,
                    49.5053
                ]
            }
        }
    ]
}