{
    "type": "FeatureCollection",
    "features": [
        {
            "type": "Feature",
            "properties": {
                "label:cs": "Socha svatého Petra ve výklenku kostela Nejsvětější Trojice na Střekově",
                "P31": "Socha",
                "P131^label:cs": "Ústí nad Labem",
                "P6736": "19639"
            },
            "geometry": {
                "type": "Point",
                "coordinates": [
                    14.05707,
                    50.65127
                ]
            }
        },
        {
            "type": "Feature",
            "properties": {
                "label:cs": "Boží muka na Novosedlickém náměstí na Střekově",
                "P31": "Boží muka",
                "P131^label:cs": "Ústí nad Labem",
                "P6736": "19638"
            },
            "geometry": {
                "type": "Point",
                "coordinates": [
                    14.05993,
                    50.64964
                ]
            }
        },
        {
            "type": "Feature",
            "properties": {
                "label:cs": "Pamětní kámen budovatelů cesty k vodopádu ve Vaňově",
                "P31": "Památný kámen",
                "P131^label:cs": "Ústí nad Labem",
                "P6736": "17966"
            },
            "geometry": {
                "type": "Point",
                "coordinates": [
                    14.04246,
                    50.63029
                ]
            }
        },
        {
            "type": "Feature",
            "properties": {
                "label:cs": "Kamenná plastika na Šafaříkově náměstí na Střekově",
                "P31": "Plastika",
                "P131^label:cs": "Ústí nad Labem",
                "P6736": "16717"
            },
            "geometry": {
                "type": "Point",
                "coordinates": [
                    14.05192,
                    50.6483
                ]
            }
        },
        {
            "type": "Feature",
            "properties": {
                "label:cs": "Dřevěná zvonice v ulici Malířský Koutek na Střekově",
                "P31": "Zvonička",
                "P131^label:cs": "Ústí nad Labem",
                "P6736": "16716"
            },
            "geometry": {
                "type": "Point",
                "coordinates": [
                    14.05088,
                    50.63655
                ]
            }
        },
        {
            "type": "Feature",
            "properties": {
                "label:cs": "Kamenný sloup - milník v ulici Malířský Koutek na Střekově",
                "P31": "Sloup",
                "P131^label:cs": "Ústí nad Labem",
                "P6736": "16715"
            },
            "geometry": {
                "type": "Point",
                "coordinates": [
                    14.05096,
                    50.63669
                ]
            }
        },
        {
            "type": "Feature",
            "properties": {
                "label:cs": "Kříž na rozcestí nad Hostovicemi",
                "P31": "Pamětní kříž",
                "P131^label:cs": "Ústí nad Labem",
                "P6736": "13695"
            },
            "geometry": {
                "type": "Point",
                "coordinates": [
                    14.02456,
                    50.64236
                ]
            }
        }
    ]
}