{
    "type": "FeatureCollection",
    "features": [
        {
            "type": "Feature",
            "properties": {
                "label:cs": "Kříž západně od Mirotic u rozcestí",
                "P31": "Pamětní kříž",
                "P131^label:cs": "Mirotice",
                "P6736": "7697"
            },
            "geometry": {
                "type": "Point",
                "coordinates": [
                    14.03023,
                    49.42858
                ]
            }
        },
        {
            "type": "Feature",
            "properties": {
                "label:cs": "Kříž u kostela v Miroticích",
                "P31": "Pamětní kříž",
                "P131^label:cs": "Mirotice",
                "P6736": "7696"
            },
            "geometry": {
                "type": "Point",
                "coordinates": [
                    14.03502,
                    49.42975
                ]
            }
        },
        {
            "type": "Feature",
            "properties": {
                "label:cs": "Socha Mikoláše Alše v Miroticích",
                "P31": "Socha",
                "P131^label:cs": "Mirotice",
                "P6736": "7695"
            },
            "geometry": {
                "type": "Point",
                "coordinates": [
                    14.03645,
                    49.43038
                ]
            }
        },
        {
            "type": "Feature",
            "properties": {
                "label:cs": "Kaple v Miroticích u řeky Lomnice",
                "P31": "Kaple",
                "P131^label:cs": "Mirotice",
                "P6736": "7694"
            },
            "geometry": {
                "type": "Point",
                "coordinates": [
                    14.04113,
                    49.43219
                ]
            }
        },
        {
            "type": "Feature",
            "properties": {
                "label:cs": "Kříž u Rakovických Chalup u kapličky",
                "P31": "Pamětní kříž",
                "P131^label:cs": "Mirotice",
                "P6736": "7693"
            },
            "geometry": {
                "type": "Point",
                "coordinates": [
                    14.05601,
                    49.43914
                ]
            }
        },
        {
            "type": "Feature",
            "properties": {
                "label:cs": "Kaplička u Rakovických Chalup",
                "P31": "Kaplička",
                "P131^label:cs": "Mirotice",
                "P6736": "7692"
            },
            "geometry": {
                "type": "Point",
                "coordinates": [
                    14.05598,
                    49.43919
                ]
            }
        },
        {
            "type": "Feature",
            "properties": {
                "label:cs": "Kříž západně od Cerhonic",
                "P31": "Pamětní kříž",
                "P131^label:cs": "Cerhonice",
                "P6736": "7661"
            },
            "geometry": {
                "type": "Point",
                "coordinates": [
                    14.05137,
                    49.41899
                ]
            }
        },
        {
            "type": "Feature",
            "properties": {
                "label:cs": "Kříž v Miroticích v Cerhonické ulici",
                "P31": "Pamětní kříž",
                "P131^label:cs": "Mirotice",
                "P6736": "7660"
            },
            "geometry": {
                "type": "Point",
                "coordinates": [
                    14.03827,
                    49.42431
                ]
            }
        },
        {
            "type": "Feature",
            "properties": {
                "label:cs": "Kaple severně od Strážovic",
                "P31": "Kaple",
                "P131^label:cs": "Mirotice",
                "P6736": "7626"
            },
            "geometry": {
                "type": "Point",
                "coordinates": [
                    14.02161,
                    49.42062
                ]
            }
        },
        {
            "type": "Feature",
            "properties": {
                "label:cs": "Boží muka jižně od Mirotic",
                "P31": "Boží muka",
                "P131^label:cs": "Mirotice",
                "P6736": "7625"
            },
            "geometry": {
                "type": "Point",
                "coordinates": [
                    14.03505,
                    49.41967
                ]
            }
        },
        {
            "type": "Feature",
            "properties": {
                "label:cs": "Kaplička severozápadně od Cerhonic",
                "P31": "Kaplička",
                "P131^label:cs": "Cerhonice",
                "P6736": "7624"
            },
            "geometry": {
                "type": "Point",
                "coordinates": [
                    14.04862,
                    49.42096
                ]
            }
        },
        {
            "type": "Feature",
            "properties": {
                "label:cs": "Pomník padlým v Cerhonicích",
                "P31": "Pomník padlým",
                "P131^label:cs": "Cerhonice",
                "P6736": "7623"
            },
            "geometry": {
                "type": "Point",
                "coordinates": [
                    14.05606,
                    49.41855
                ]
            }
        },
        {
            "type": "Feature",
            "properties": {
                "label:cs": "Kříž v Miroticích u rozcestí",
                "P31": "Pamětní kříž",
                "P131^label:cs": "Mirotice",
                "P6736": "6814"
            },
            "geometry": {
                "type": "Point",
                "coordinates": [
                    14.03376,
                    49.42963
                ]
            }
        },
        {
            "type": "Feature",
            "properties": {
                "label:cs": "Kaplička severovýchodně od Mirotic",
                "P31": "Kaplička",
                "P131^label:cs": "Mirotice",
                "P6736": "2058"
            },
            "geometry": {
                "type": "Point",
                "coordinates": [
                    14.04746,
                    49.43497
                ]
            }
        },
        {
            "type": "Feature",
            "properties": {
                "label:cs": "Boží muka východně od Mirotic",
                "P31": "Boží muka",
                "P131^label:cs": "Mirotice",
                "P6736": "2059"
            },
            "geometry": {
                "type": "Point",
                "coordinates": [
                    14.04446,
                    49.43383
                ]
            }
        }
    ]
}