{
    "type": "FeatureCollection",
    "features": [
        {
            "type": "Feature",
            "properties": {
                "label:cs": "Boží muka u jižní strany kostela sv. Markéty v Horní Plané",
                "P31": "Boží muka",
                "P131^label:cs": "Horní Planá",
                "P6736": "25681"
            },
            "geometry": {
                "type": "Point",
                "coordinates": [
                    14.03274,
                    48.76835
                ]
            }
        },
        {
            "type": "Feature",
            "properties": {
                "label:cs": "Sloup (pranýř?) v horní části náměstí v Horní Plané",
                "P31": "Něco jiného",
                "P131^label:cs": "Horní Planá",
                "P6736": "25680"
            },
            "geometry": {
                "type": "Point",
                "coordinates": [
                    14.03217,
                    48.76825
                ]
            }
        },
        {
            "type": "Feature",
            "properties": {
                "label:cs": "Pomník padlým v I. sv. válce v horní části náměstí v Horní Plané",
                "P31": "Pomník padlým",
                "P131^label:cs": "Horní Planá",
                "P6736": "25679"
            },
            "geometry": {
                "type": "Point",
                "coordinates": [
                    14.03224,
                    48.76768
                ]
            }
        },
        {
            "type": "Feature",
            "properties": {
                "label:cs": "Socha sv. Jana Nepomuckého ve střední části náměstí v Horní Plané",
                "P31": "Socha",
                "P131^label:cs": "Horní Planá",
                "P6736": "25678"
            },
            "geometry": {
                "type": "Point",
                "coordinates": [
                    14.0322,
                    48.76724
                ]
            }
        },
        {
            "type": "Feature",
            "properties": {
                "label:cs": "Kašna ve středu náměstí v Horní Plané",
                "P31": "Kašna",
                "P131^label:cs": "Horní Planá",
                "P6736": "25677"
            },
            "geometry": {
                "type": "Point",
                "coordinates": [
                    14.03216,
                    48.76707
                ]
            }
        },
        {
            "type": "Feature",
            "properties": {
                "label:cs": "Kašna v dolní části náměstí v Horní Plané",
                "P31": "Kašna",
                "P131^label:cs": "Horní Planá",
                "P6736": "25676"
            },
            "geometry": {
                "type": "Point",
                "coordinates": [
                    14.03195,
                    48.7664
                ]
            }
        },
        {
            "type": "Feature",
            "properties": {
                "label:cs": "Pomník obětem pochodu smrti v dolní části náměstí v Horní Plané",
                "P31": "Pomník",
                "P131^label:cs": "Horní Planá",
                "P6736": "25675"
            },
            "geometry": {
                "type": "Point",
                "coordinates": [
                    14.03212,
                    48.76634
                ]
            }
        },
        {
            "type": "Feature",
            "properties": {
                "label:cs": "Boží muka u Jenišova",
                "P31": "Boží muka",
                "P131^label:cs": "Horní Planá",
                "P6736": "13309"
            },
            "geometry": {
                "type": "Point",
                "coordinates": [
                    14.04178,
                    48.75312
                ]
            }
        }
    ]
}