{
    "type": "FeatureCollection",
    "features": [
        {
            "type": "Feature",
            "properties": {
                "label:cs": "Pomník padlým v Čížkovicích",
                "P31": "Pomník padlým",
                "P131^label:cs": "Čížkovice",
                "P6736": "18294"
            },
            "geometry": {
                "type": "Point",
                "coordinates": [
                    14.02811,
                    50.48461
                ]
            }
        },
        {
            "type": "Feature",
            "properties": {
                "label:cs": "Sloup Nejsvětější Trojice v hospodářské části zámku Čížkovice",
                "P31": "Sloup",
                "P131^label:cs": "Čížkovice",
                "P6736": "18100"
            },
            "geometry": {
                "type": "Point",
                "coordinates": [
                    14.02662,
                    50.48453
                ]
            }
        },
        {
            "type": "Feature",
            "properties": {
                "label:cs": "Gloriet (altán) u zámku v Čížkovicích",
                "P31": "Něco jiného",
                "P131^label:cs": "Čížkovice",
                "P6736": "18099"
            },
            "geometry": {
                "type": "Point",
                "coordinates": [
                    14.02711,
                    50.48493
                ]
            }
        },
        {
            "type": "Feature",
            "properties": {
                "label:cs": "Podstavec s vylomeným křížem za kostelem v Čížkovicích",
                "P31": "Pamětní kříž",
                "P131^label:cs": "Čížkovice",
                "P6736": "18098"
            },
            "geometry": {
                "type": "Point",
                "coordinates": [
                    14.02749,
                    50.48451
                ]
            }
        },
        {
            "type": "Feature",
            "properties": {
                "label:cs": "Socha svatého Tadeáše za kostelem v Čížkovicích",
                "P31": "Socha",
                "P131^label:cs": "Čížkovice",
                "P6736": "18097"
            },
            "geometry": {
                "type": "Point",
                "coordinates": [
                    14.02758,
                    50.48442
                ]
            }
        },
        {
            "type": "Feature",
            "properties": {
                "label:cs": "Zvonice u kostela v Čížkovicích",
                "P31": "Zvonička",
                "P131^label:cs": "Čížkovice",
                "P6736": "18096"
            },
            "geometry": {
                "type": "Point",
                "coordinates": [
                    14.02763,
                    50.4843
                ]
            }
        },
        {
            "type": "Feature",
            "properties": {
                "label:cs": "Socha svatého Antonína Paduánského u kostela v Čížkovicích",
                "P31": "Socha",
                "P131^label:cs": "Čížkovice",
                "P6736": "18095"
            },
            "geometry": {
                "type": "Point",
                "coordinates": [
                    14.02828,
                    50.4845
                ]
            }
        },
        {
            "type": "Feature",
            "properties": {
                "label:cs": "Socha svatého Václava u kostela v Čížkovicích",
                "P31": "Socha",
                "P131^label:cs": "Čížkovice",
                "P6736": "18094"
            },
            "geometry": {
                "type": "Point",
                "coordinates": [
                    14.02831,
                    50.48433
                ]
            }
        },
        {
            "type": "Feature",
            "properties": {
                "label:cs": "Rozvalený podstavec kříže u polní cesty jihozápadně od Čížkovic",
                "P31": "Pamětní kříž",
                "P131^label:cs": "Čížkovice",
                "P6736": "18093"
            },
            "geometry": {
                "type": "Point",
                "coordinates": [
                    14.02528,
                    50.47877
                ]
            }
        },
        {
            "type": "Feature",
            "properties": {
                "label:cs": "Kaplička na rozcestí v ulici U Trati v Čížkovicích",
                "P31": "Kaplička",
                "P131^label:cs": "Čížkovice",
                "P6736": "18092"
            },
            "geometry": {
                "type": "Point",
                "coordinates": [
                    14.03263,
                    50.47982
                ]
            }
        },
        {
            "type": "Feature",
            "properties": {
                "label:cs": "Kaple na návsi v Želechovicích",
                "P31": "Kaple",
                "P131^label:cs": "Čížkovice",
                "P6736": "18091"
            },
            "geometry": {
                "type": "Point",
                "coordinates": [
                    14.04097,
                    50.47589
                ]
            }
        },
        {
            "type": "Feature",
            "properties": {
                "label:cs": "Pomník padlým v 1.světové válce v Želechovicích",
                "P31": "Pomník padlým",
                "P131^label:cs": "Čížkovice",
                "P6736": "18090"
            },
            "geometry": {
                "type": "Point",
                "coordinates": [
                    14.04088,
                    50.47577
                ]
            }
        },
        {
            "type": "Feature",
            "properties": {
                "label:cs": "Kříž u silnice z Úpohlav do Třebenic",
                "P31": "Pamětní kříž",
                "P131^label:cs": "Úpohlavy",
                "P6736": "18089"
            },
            "geometry": {
                "type": "Point",
                "coordinates": [
                    14.02019,
                    50.46693
                ]
            }
        },
        {
            "type": "Feature",
            "properties": {
                "label:cs": "Pomník padlým v 1.světové válce v Úpohlavech",
                "P31": "Pomník padlým",
                "P131^label:cs": "Úpohlavy",
                "P6736": "18088"
            },
            "geometry": {
                "type": "Point",
                "coordinates": [
                    14.03483,
                    50.46349
                ]
            }
        },
        {
            "type": "Feature",
            "properties": {
                "label:cs": "Kaple na návsi v Úpohlavech",
                "P31": "Kaple",
                "P131^label:cs": "Úpohlavy",
                "P6736": "18087"
            },
            "geometry": {
                "type": "Point",
                "coordinates": [
                    14.03547,
                    50.46377
                ]
            }
        }
    ]
}