{
    "type": "FeatureCollection",
    "features": [
        {
            "type": "Feature",
            "properties": {
                "label:cs": "Kaple svatého Františka Serafinského v Prosmykách",
                "P31": "Kaple",
                "P131^label:cs": "Lovosice",
                "P6736": "17236"
            },
            "geometry": {
                "type": "Point",
                "coordinates": [
                    14.09802,
                    50.51822
                ]
            }
        },
        {
            "type": "Feature",
            "properties": {
                "label:cs": "Kříž na návsi v Píšťanech",
                "P31": "Pamětní kříž",
                "P131^label:cs": "Píšťany",
                "P6736": "15677"
            },
            "geometry": {
                "type": "Point",
                "coordinates": [
                    14.07077,
                    50.51952
                ]
            }
        },
        {
            "type": "Feature",
            "properties": {
                "label:cs": "Kříž na návsi v Michalovicích",
                "P31": "Pamětní kříž",
                "P131^label:cs": "Michalovice",
                "P6736": "14612"
            },
            "geometry": {
                "type": "Point",
                "coordinates": [
                    14.08209,
                    50.53682
                ]
            }
        },
        {
            "type": "Feature",
            "properties": {
                "label:cs": "Kaplička v Michalovicích",
                "P31": "Kaplička",
                "P131^label:cs": "Michalovice",
                "P6736": "14611"
            },
            "geometry": {
                "type": "Point",
                "coordinates": [
                    14.08524,
                    50.53656
                ]
            }
        },
        {
            "type": "Feature",
            "properties": {
                "label:cs": "Hřbitovní kaplička ve Velkých Žernosekách",
                "P31": "Kaplička",
                "P131^label:cs": "Velké Žernoseky",
                "P6736": "9119"
            },
            "geometry": {
                "type": "Point",
                "coordinates": [
                    14.06393,
                    50.53982
                ]
            }
        },
        {
            "type": "Feature",
            "properties": {
                "label:cs": "Pomník padlým v Prosmykách",
                "P31": "Pomník padlým",
                "P131^label:cs": "Lovosice",
                "P6736": "9093"
            },
            "geometry": {
                "type": "Point",
                "coordinates": [
                    14.0952,
                    50.51714
                ]
            }
        }
    ]
}