{
    "type": "FeatureCollection",
    "features": [
        {
            "type": "Feature",
            "properties": {
                "label:cs": "Socha sv. Jana Nepomuckého v Osově",
                "P31": "Socha",
                "P131^label:cs": "Lážovice",
                "P6736": "18955"
            },
            "geometry": {
                "type": "Point",
                "coordinates": [
                    14.08216,
                    49.84792
                ]
            }
        },
        {
            "type": "Feature",
            "properties": {
                "label:cs": "Socha sv. Donáta v Osově",
                "P31": "Socha",
                "P131^label:cs": "Skřipel",
                "P6736": "18954"
            },
            "geometry": {
                "type": "Point",
                "coordinates": [
                    14.08184,
                    49.84795
                ]
            }
        },
        {
            "type": "Feature",
            "properties": {
                "label:cs": "Pomník padlým v Osově",
                "P31": "Pomník padlým",
                "P131^label:cs": "Skřipel",
                "P6736": "18953"
            },
            "geometry": {
                "type": "Point",
                "coordinates": [
                    14.08184,
                    49.84789
                ]
            }
        },
        {
            "type": "Feature",
            "properties": {
                "label:cs": "Kaplička ve Vižině",
                "P31": "Kaplička",
                "P131^label:cs": "Vižina",
                "P6736": "18878"
            },
            "geometry": {
                "type": "Point",
                "coordinates": [
                    14.10332,
                    49.85658
                ]
            }
        },
        {
            "type": "Feature",
            "properties": {
                "label:cs": "Kaplička v Nových Dvorech",
                "P31": "Kaplička",
                "P131^label:cs": "Lážovice",
                "P6736": "18836"
            },
            "geometry": {
                "type": "Point",
                "coordinates": [
                    14.08658,
                    49.85751
                ]
            }
        },
        {
            "type": "Feature",
            "properties": {
                "label:cs": "Kříž u Nových Dvorů",
                "P31": "Pamětní kříž",
                "P131^label:cs": "Lážovice",
                "P6736": "18835"
            },
            "geometry": {
                "type": "Point",
                "coordinates": [
                    14.08249,
                    49.85639
                ]
            }
        },
        {
            "type": "Feature",
            "properties": {
                "label:cs": "Pamětní kříž u Lážovic",
                "P31": "Pamětní kříž",
                "P131^label:cs": "Lážovice",
                "P6736": "18834"
            },
            "geometry": {
                "type": "Point",
                "coordinates": [
                    14.07562,
                    49.85545
                ]
            }
        },
        {
            "type": "Feature",
            "properties": {
                "label:cs": "Pomník padlým v Lážovicích",
                "P31": "Pomník padlým",
                "P131^label:cs": "Lážovice",
                "P6736": "18832"
            },
            "geometry": {
                "type": "Point",
                "coordinates": [
                    14.07097,
                    49.85855
                ]
            }
        },
        {
            "type": "Feature",
            "properties": {
                "label:cs": "Kaplička v Lážovicích",
                "P31": "Kaplička",
                "P131^label:cs": "Lážovice",
                "P6736": "18829"
            },
            "geometry": {
                "type": "Point",
                "coordinates": [
                    14.07142,
                    49.85851
                ]
            }
        }
    ]
}