{
    "type": "FeatureCollection",
    "features": [
        {
            "type": "Feature",
            "properties": {
                "label:cs": "Kříž ve dvoře domu v Převozní ulici v Neštědicích",
                "P31": "Pamětní kříž",
                "P131^label:cs": "Povrly",
                "P6736": "18887"
            },
            "geometry": {
                "type": "Point",
                "coordinates": [
                    14.14515,
                    50.66896
                ]
            }
        },
        {
            "type": "Feature",
            "properties": {
                "label:cs": "Pomník osvobození v Neštědicích",
                "P31": "Pomník",
                "P131^label:cs": "Povrly",
                "P6736": "18886"
            },
            "geometry": {
                "type": "Point",
                "coordinates": [
                    14.14299,
                    50.66949
                ]
            }
        },
        {
            "type": "Feature",
            "properties": {
                "label:cs": "Socha ve výklenku zdi zámku ve Velkém Březně",
                "P31": "Socha",
                "P131^label:cs": "Velké Březno",
                "P6736": "17390"
            },
            "geometry": {
                "type": "Point",
                "coordinates": [
                    14.13882,
                    50.66244
                ]
            }
        },
        {
            "type": "Feature",
            "properties": {
                "label:cs": "Kašna u zámku ve Velkém Březně",
                "P31": "Kašna",
                "P131^label:cs": "Velké Březno",
                "P6736": "17344"
            },
            "geometry": {
                "type": "Point",
                "coordinates": [
                    14.13857,
                    50.66262
                ]
            }
        },
        {
            "type": "Feature",
            "properties": {
                "label:cs": "Podstavec ulomeného kříže v ulici Pod Vartou v osadě Vítov",
                "P31": "Pamětní kříž",
                "P131^label:cs": "Velké Březno",
                "P6736": "17343"
            },
            "geometry": {
                "type": "Point",
                "coordinates": [
                    14.13665,
                    50.65453
                ]
            }
        },
        {
            "type": "Feature",
            "properties": {
                "label:cs": "Socha sportovkyně před školou v Mojžíři",
                "P31": "Socha",
                "P131^label:cs": "Ústí nad Labem",
                "P6736": "16919"
            },
            "geometry": {
                "type": "Point",
                "coordinates": [
                    14.11297,
                    50.67985
                ]
            }
        },
        {
            "type": "Feature",
            "properties": {
                "label:cs": "Kříž u kostela ve Svádově",
                "P31": "Pamětní kříž",
                "P131^label:cs": "Ústí nad Labem",
                "P6736": "14741"
            },
            "geometry": {
                "type": "Point",
                "coordinates": [
                    14.10777,
                    50.66221
                ]
            }
        },
        {
            "type": "Feature",
            "properties": {
                "label:cs": "Kříž v Olešnici",
                "P31": "Pamětní kříž",
                "P131^label:cs": "Ústí nad Labem",
                "P6736": "14740"
            },
            "geometry": {
                "type": "Point",
                "coordinates": [
                    14.11607,
                    50.66133
                ]
            }
        },
        {
            "type": "Feature",
            "properties": {
                "label:cs": "Pomník osvobození v Olešnici",
                "P31": "Pomník",
                "P131^label:cs": "Ústí nad Labem",
                "P6736": "14739"
            },
            "geometry": {
                "type": "Point",
                "coordinates": [
                    14.11675,
                    50.66153
                ]
            }
        },
        {
            "type": "Feature",
            "properties": {
                "label:cs": "Masarykův pomník ve Valtířově",
                "P31": "Pomník",
                "P131^label:cs": "Velké Březno",
                "P6736": "14738"
            },
            "geometry": {
                "type": "Point",
                "coordinates": [
                    14.1203,
                    50.67361
                ]
            }
        },
        {
            "type": "Feature",
            "properties": {
                "label:cs": "Sloup Čtrnácti svatých Pomocníků ve Valtířově",
                "P31": "Sloup",
                "P131^label:cs": "Velké Březno",
                "P6736": "14737"
            },
            "geometry": {
                "type": "Point",
                "coordinates": [
                    14.12061,
                    50.67333
                ]
            }
        },
        {
            "type": "Feature",
            "properties": {
                "label:cs": "Kříž v Neštědicích u trati",
                "P31": "Pamětní kříž",
                "P131^label:cs": "Povrly",
                "P6736": "14495"
            },
            "geometry": {
                "type": "Point",
                "coordinates": [
                    14.14427,
                    50.66928
                ]
            }
        },
        {
            "type": "Feature",
            "properties": {
                "label:cs": "Pomník osvobození v Mojžíři",
                "P31": "Pomník",
                "P131^label:cs": "Ústí nad Labem",
                "P6736": "13343"
            },
            "geometry": {
                "type": "Point",
                "coordinates": [
                    14.11422,
                    50.67971
                ]
            }
        },
        {
            "type": "Feature",
            "properties": {
                "label:cs": "Pohřební kaple Chotků ve Valtířově",
                "P31": "Kaple",
                "P131^label:cs": "Velké Březno",
                "P6736": "9514"
            },
            "geometry": {
                "type": "Point",
                "coordinates": [
                    14.12026,
                    50.67343
                ]
            }
        },
        {
            "type": "Feature",
            "properties": {
                "label:cs": "Kaplička s pamětní deskou padlých z 1. světové války ve Svádově",
                "P31": "Kaplička",
                "P131^label:cs": "Ústí nad Labem",
                "P6736": "9087"
            },
            "geometry": {
                "type": "Point",
                "coordinates": [
                    14.10773,
                    50.66201
                ]
            }
        }
    ]
}