{
    "type": "FeatureCollection",
    "features": [
        {
            "type": "Feature",
            "properties": {
                "label:cs": "Kaple v osadě Lysá",
                "P31": "Kaple",
                "P131^label:cs": "Povrly",
                "P6736": "17789"
            },
            "geometry": {
                "type": "Point",
                "coordinates": [
                    14.12516,
                    50.70346
                ]
            }
        },
        {
            "type": "Feature",
            "properties": {
                "label:cs": "Kříž na návsi v Českém Bukově",
                "P31": "Pamětní kříž",
                "P131^label:cs": "Povrly",
                "P6736": "14227"
            },
            "geometry": {
                "type": "Point",
                "coordinates": [
                    14.15026,
                    50.70052
                ]
            }
        },
        {
            "type": "Feature",
            "properties": {
                "label:cs": "Kříž na severním okraji Českého Bukova",
                "P31": "Pamětní kříž",
                "P131^label:cs": "Povrly",
                "P6736": "14226"
            },
            "geometry": {
                "type": "Point",
                "coordinates": [
                    14.14935,
                    50.70126
                ]
            }
        },
        {
            "type": "Feature",
            "properties": {
                "label:cs": "Ruina skalní kaple u silnice z Mírkova do Neštěmic",
                "P31": "Kaple",
                "P131^label:cs": "Povrly",
                "P6736": "14084"
            },
            "geometry": {
                "type": "Point",
                "coordinates": [
                    14.11234,
                    50.68993
                ]
            }
        },
        {
            "type": "Feature",
            "properties": {
                "label:cs": "Kaple na návsi v Mírkově",
                "P31": "Kaple",
                "P131^label:cs": "Povrly",
                "P6736": "13609"
            },
            "geometry": {
                "type": "Point",
                "coordinates": [
                    14.11443,
                    50.69518
                ]
            }
        },
        {
            "type": "Feature",
            "properties": {
                "label:cs": "Kříž za kostelem v Mojžíři",
                "P31": "Pamětní kříž",
                "P131^label:cs": "Ústí nad Labem",
                "P6736": "13346"
            },
            "geometry": {
                "type": "Point",
                "coordinates": [
                    14.11507,
                    50.68175
                ]
            }
        },
        {
            "type": "Feature",
            "properties": {
                "label:cs": "Socha svatého Donáta u kostela v Mojžíři",
                "P31": "Socha",
                "P131^label:cs": "Ústí nad Labem",
                "P6736": "13345"
            },
            "geometry": {
                "type": "Point",
                "coordinates": [
                    14.11485,
                    50.68174
                ]
            }
        },
        {
            "type": "Feature",
            "properties": {
                "label:cs": "Socha svatého Floriána v Horní ulici v Mojžíři",
                "P31": "Socha",
                "P131^label:cs": "Ústí nad Labem",
                "P6736": "13344"
            },
            "geometry": {
                "type": "Point",
                "coordinates": [
                    14.11326,
                    50.68114
                ]
            }
        },
        {
            "type": "Feature",
            "properties": {
                "label:cs": "Pomník padlým v Mojžíři",
                "P31": "Pomník padlým",
                "P131^label:cs": "Ústí nad Labem",
                "P6736": "9243"
            },
            "geometry": {
                "type": "Point",
                "coordinates": [
                    14.11459,
                    50.68151
                ]
            }
        }
    ]
}