{
    "type": "FeatureCollection",
    "features": [
        {
            "type": "Feature",
            "properties": {
                "label:cs": "Kaplička západně od Horních Chrášťan u rozcestí",
                "P31": "Kaplička",
                "P131^label:cs": "Lhenice",
                "P6736": "2779"
            },
            "geometry": {
                "type": "Point",
                "coordinates": [
                    14.18279,
                    49.00063
                ]
            }
        },
        {
            "type": "Feature",
            "properties": {
                "label:cs": "Kříž západně od Horních Chrášťan na kopci",
                "P31": "Pamětní kříž",
                "P131^label:cs": "Lhenice",
                "P6736": "2778"
            },
            "geometry": {
                "type": "Point",
                "coordinates": [
                    14.17815,
                    49.00029
                ]
            }
        },
        {
            "type": "Feature",
            "properties": {
                "label:cs": "Kaplička severně od městysu Lhenice",
                "P31": "Kaplička",
                "P131^label:cs": "Lhenice",
                "P6736": "1909"
            },
            "geometry": {
                "type": "Point",
                "coordinates": [
                    14.1509,
                    48.99813
                ]
            }
        },
        {
            "type": "Feature",
            "properties": {
                "label:cs": "Kaple severně od městysu Lhenice u cesty do Netolic",
                "P31": "Kaple",
                "P131^label:cs": "Lhenice",
                "P6736": "1893"
            },
            "geometry": {
                "type": "Point",
                "coordinates": [
                    14.15504,
                    48.99963
                ]
            }
        },
        {
            "type": "Feature",
            "properties": {
                "label:cs": "Kříž východně od městysu Lhenice v polích",
                "P31": "Pamětní kříž",
                "P131^label:cs": "Lhenice",
                "P6736": "1895"
            },
            "geometry": {
                "type": "Point",
                "coordinates": [
                    14.15942,
                    48.9971
                ]
            }
        },
        {
            "type": "Feature",
            "properties": {
                "label:cs": "Kříž severně od městysu Lhenice u zahrady",
                "P31": "Pamětní kříž",
                "P131^label:cs": "Lhenice",
                "P6736": "1892"
            },
            "geometry": {
                "type": "Point",
                "coordinates": [
                    14.15379,
                    48.99976
                ]
            }
        },
        {
            "type": "Feature",
            "properties": {
                "label:cs": "Kříž východně od městysu Lhenice",
                "P31": "Pamětní kříž",
                "P131^label:cs": "Lhenice",
                "P6736": "1894"
            },
            "geometry": {
                "type": "Point",
                "coordinates": [
                    14.15683,
                    48.9995
                ]
            }
        },
        {
            "type": "Feature",
            "properties": {
                "label:cs": "Kříž západně od Horních Chrášťan v křoví",
                "P31": "Pamětní kříž",
                "P131^label:cs": "Lhenice",
                "P6736": "1556"
            },
            "geometry": {
                "type": "Point",
                "coordinates": [
                    14.18797,
                    49.00164
                ]
            }
        },
        {
            "type": "Feature",
            "properties": {
                "label:cs": "Kříž severně od Horních Chrášťan",
                "P31": "Pamětní kříž",
                "P131^label:cs": "Lhenice",
                "P6736": "1557"
            },
            "geometry": {
                "type": "Point",
                "coordinates": [
                    14.19258,
                    49.00188
                ]
            }
        }
    ]
}