{
    "type": "FeatureCollection",
    "features": [
        {
            "type": "Feature",
            "properties": {
                "label:cs": "Kříž u kaple ve Skalách",
                "P31": "Pamětní kříž",
                "P131^label:cs": "Skály",
                "P6736": "6225"
            },
            "geometry": {
                "type": "Point",
                "coordinates": [
                    14.16371,
                    49.22018
                ]
            }
        },
        {
            "type": "Feature",
            "properties": {
                "label:cs": "Kaple ve Skalách",
                "P31": "Kaple",
                "P131^label:cs": "Skály",
                "P6736": "6224"
            },
            "geometry": {
                "type": "Point",
                "coordinates": [
                    14.16366,
                    49.22023
                ]
            }
        },
        {
            "type": "Feature",
            "properties": {
                "label:cs": "Pomník padlým ve Skalách",
                "P31": "Pomník padlým",
                "P131^label:cs": "Skály",
                "P6736": "6223"
            },
            "geometry": {
                "type": "Point",
                "coordinates": [
                    14.1596,
                    49.21976
                ]
            }
        },
        {
            "type": "Feature",
            "properties": {
                "label:cs": "Památník ve Skalách",
                "P31": "Památník",
                "P131^label:cs": "Skály",
                "P6736": "6222"
            },
            "geometry": {
                "type": "Point",
                "coordinates": [
                    14.16442,
                    49.22015
                ]
            }
        },
        {
            "type": "Feature",
            "properties": {
                "label:cs": "Kříž severozápadně od Skal",
                "P31": "Pamětní kříž",
                "P131^label:cs": "Skály",
                "P6736": "6221"
            },
            "geometry": {
                "type": "Point",
                "coordinates": [
                    14.15807,
                    49.22171
                ]
            }
        },
        {
            "type": "Feature",
            "properties": {
                "label:cs": "Kříž u Skal",
                "P31": "Pamětní kříž",
                "P131^label:cs": "Skály",
                "P6736": "2497"
            },
            "geometry": {
                "type": "Point",
                "coordinates": [
                    14.16882,
                    49.22156
                ]
            }
        }
    ]
}