{
    "type": "FeatureCollection",
    "features": [
        {
            "type": "Feature",
            "properties": {
                "label:cs": "Kaple svatého Jana Nepomuckého v Hrdlech",
                "P31": "Kaple",
                "P131^label:cs": "Bohušovice nad Ohří",
                "P6736": "16821"
            },
            "geometry": {
                "type": "Point",
                "coordinates": [
                    14.16866,
                    50.48409
                ]
            }
        },
        {
            "type": "Feature",
            "properties": {
                "label:cs": "Socha svatého Benedikta v Hrdlech",
                "P31": "Socha",
                "P131^label:cs": "Bohušovice nad Ohří",
                "P6736": "16820"
            },
            "geometry": {
                "type": "Point",
                "coordinates": [
                    14.16974,
                    50.48426
                ]
            }
        },
        {
            "type": "Feature",
            "properties": {
                "label:cs": "Pomník padlým v 1.světové válce v Hrdlech",
                "P31": "Pomník padlým",
                "P131^label:cs": "Bohušovice nad Ohří",
                "P6736": "16819"
            },
            "geometry": {
                "type": "Point",
                "coordinates": [
                    14.16993,
                    50.48411
                ]
            }
        },
        {
            "type": "Feature",
            "properties": {
                "label:cs": "Kříž na rozcestí v Hrdlech",
                "P31": "Pamětní kříž",
                "P131^label:cs": "Bohušovice nad Ohří",
                "P6736": "16818"
            },
            "geometry": {
                "type": "Point",
                "coordinates": [
                    14.17328,
                    50.48271
                ]
            }
        },
        {
            "type": "Feature",
            "properties": {
                "label:cs": "Podstavec s ulomeným kovovým křížem na severním okraji Dolánek",
                "P31": "Pamětní kříž",
                "P131^label:cs": "Dolánky nad Ohří",
                "P6736": "16817"
            },
            "geometry": {
                "type": "Point",
                "coordinates": [
                    14.16739,
                    50.47627
                ]
            }
        },
        {
            "type": "Feature",
            "properties": {
                "label:cs": "Pomník padlým v 1. a 2.světové válce v Dolánkách nad Ohří",
                "P31": "Pomník padlým",
                "P131^label:cs": "Dolánky nad Ohří",
                "P6736": "16816"
            },
            "geometry": {
                "type": "Point",
                "coordinates": [
                    14.16272,
                    50.4725
                ]
            }
        },
        {
            "type": "Feature",
            "properties": {
                "label:cs": "Kříž pod kostelem v Dolánkách nad Ohří",
                "P31": "Pamětní kříž",
                "P131^label:cs": "Dolánky nad Ohří",
                "P6736": "16815"
            },
            "geometry": {
                "type": "Point",
                "coordinates": [
                    14.1629,
                    50.47237
                ]
            }
        },
        {
            "type": "Feature",
            "properties": {
                "label:cs": "Kaple Panny Marie u pramene v Dolánkách nad Ohří",
                "P31": "Kaple",
                "P131^label:cs": "Dolánky nad Ohří",
                "P6736": "16814"
            },
            "geometry": {
                "type": "Point",
                "coordinates": [
                    14.16148,
                    50.47181
                ]
            }
        },
        {
            "type": "Feature",
            "properties": {
                "label:cs": "Výklenková kaplička u silnice z Doksan do Dolánek",
                "P31": "Kaplička",
                "P131^label:cs": "Doksany",
                "P6736": "16813"
            },
            "geometry": {
                "type": "Point",
                "coordinates": [
                    14.16292,
                    50.46774
                ]
            }
        },
        {
            "type": "Feature",
            "properties": {
                "label:cs": "Výklenková kaplička poblíž silnice z Doksan do Dolánek",
                "P31": "Kaplička",
                "P131^label:cs": "Doksany",
                "P6736": "16812"
            },
            "geometry": {
                "type": "Point",
                "coordinates": [
                    14.16403,
                    50.46481
                ]
            }
        },
        {
            "type": "Feature",
            "properties": {
                "label:cs": "Pomník rakouských vojínů na hřbitově v Doksanech",
                "P31": "Pomník",
                "P131^label:cs": "Doksany",
                "P6736": "16811"
            },
            "geometry": {
                "type": "Point",
                "coordinates": [
                    14.16196,
                    50.46056
                ]
            }
        },
        {
            "type": "Feature",
            "properties": {
                "label:cs": "Kaple na hřbitově v Doksanech",
                "P31": "Kaple",
                "P131^label:cs": "Doksany",
                "P6736": "16810"
            },
            "geometry": {
                "type": "Point",
                "coordinates": [
                    14.16145,
                    50.46017
                ]
            }
        }
    ]
}