{
    "type": "FeatureCollection",
    "features": [
        {
            "type": "Feature",
            "properties": {
                "label:cs": "Kamenné ozdobné vázy v Růžové zahradě zámku v Děčíně",
                "P31": "Něco jiného",
                "P131^label:cs": "Děčín",
                "P6736": "22276"
            },
            "geometry": {
                "type": "Point",
                "coordinates": [
                    14.2117,
                    50.77929
                ]
            }
        },
        {
            "type": "Feature",
            "properties": {
                "label:cs": "Sochy lvů na schodišti ke glorietu v Růžové zahradě zámku v Děčíně",
                "P31": "Socha",
                "P131^label:cs": "Děčín",
                "P6736": "22275"
            },
            "geometry": {
                "type": "Point",
                "coordinates": [
                    14.21233,
                    50.77927
                ]
            }
        },
        {
            "type": "Feature",
            "properties": {
                "label:cs": "Sochy svaté Heleny a čtyř andělů na atice kostela Povýšení Svatého Kříže v Děčíně",
                "P31": "Socha",
                "P131^label:cs": "Děčín",
                "P6736": "22274"
            },
            "geometry": {
                "type": "Point",
                "coordinates": [
                    14.21384,
                    50.77933
                ]
            }
        },
        {
            "type": "Feature",
            "properties": {
                "label:cs": "Socha Pomony na horní balustrádě glorietu v Růžové zahradě zámku v Děčíně",
                "P31": "Socha",
                "P131^label:cs": "Děčín",
                "P6736": "22273"
            },
            "geometry": {
                "type": "Point",
                "coordinates": [
                    14.21251,
                    50.7792
                ]
            }
        },
        {
            "type": "Feature",
            "properties": {
                "label:cs": "Socha Venuše s Amorem na horní balustrádě glorietu v Růžové zahradě v Děčíně",
                "P31": "Socha",
                "P131^label:cs": "Děčín",
                "P6736": "22272"
            },
            "geometry": {
                "type": "Point",
                "coordinates": [
                    14.21251,
                    50.77923
                ]
            }
        },
        {
            "type": "Feature",
            "properties": {
                "label:cs": "Socha Ceres na horní balustrádě glorietu v Růžové zahradě zámku v Děčíně",
                "P31": "Socha",
                "P131^label:cs": "Děčín",
                "P6736": "22271"
            },
            "geometry": {
                "type": "Point",
                "coordinates": [
                    14.21251,
                    50.77926
                ]
            }
        },
        {
            "type": "Feature",
            "properties": {
                "label:cs": "Socha Flory na horní balustrádě glorietu v Růžové zahradě zámku v Děčíně",
                "P31": "Socha",
                "P131^label:cs": "Děčín",
                "P6736": "22270"
            },
            "geometry": {
                "type": "Point",
                "coordinates": [
                    14.21249,
                    50.77929
                ]
            }
        },
        {
            "type": "Feature",
            "properties": {
                "label:cs": "Socha Hefaista na balustrádě Růžové zahrady zámku v Děčíně",
                "P31": "Socha",
                "P131^label:cs": "Děčín",
                "P6736": "22269"
            },
            "geometry": {
                "type": "Point",
                "coordinates": [
                    14.21227,
                    50.77932
                ]
            }
        },
        {
            "type": "Feature",
            "properties": {
                "label:cs": "Socha Pallas Athény na balustrádě Růžové zahrady zámku v Děčíně",
                "P31": "Socha",
                "P131^label:cs": "Děčín",
                "P6736": "22268"
            },
            "geometry": {
                "type": "Point",
                "coordinates": [
                    14.21221,
                    50.77932
                ]
            }
        },
        {
            "type": "Feature",
            "properties": {
                "label:cs": "Socha Chrónose na balustrádě Růžové zahrady zámku v Děčíně",
                "P31": "Socha",
                "P131^label:cs": "Děčín",
                "P6736": "22267"
            },
            "geometry": {
                "type": "Point",
                "coordinates": [
                    14.21215,
                    50.77932
                ]
            }
        },
        {
            "type": "Feature",
            "properties": {
                "label:cs": "Kamenná nádrž na vodu v koutě u horního pavilonu jižních zahrad zámku v Děčíně",
                "P31": "Kašna",
                "P131^label:cs": "Děčín",
                "P6736": "22266"
            },
            "geometry": {
                "type": "Point",
                "coordinates": [
                    14.21187,
                    50.77901
                ]
            }
        },
        {
            "type": "Feature",
            "properties": {
                "label:cs": "Malá kašna ve výklenku boční zdi horní terasy jižních zahrad zámku v Děčíně",
                "P31": "Kašna",
                "P131^label:cs": "Děčín",
                "P6736": "22265"
            },
            "geometry": {
                "type": "Point",
                "coordinates": [
                    14.21139,
                    50.77893
                ]
            }
        },
        {
            "type": "Feature",
            "properties": {
                "label:cs": "Sochy alegorií Poledne a Večera na štítě Čajového pavilonu v jižní zahradě zámku v Děčíně",
                "P31": "Socha",
                "P131^label:cs": "Děčín",
                "P6736": "22264"
            },
            "geometry": {
                "type": "Point",
                "coordinates": [
                    14.21206,
                    50.77836
                ]
            }
        },
        {
            "type": "Feature",
            "properties": {
                "label:cs": "Socha alegorie Noci na střeše Čajového pavilonu v jižní zahradě zámku v Děčíně",
                "P31": "Socha",
                "P131^label:cs": "Děčín",
                "P6736": "22263"
            },
            "geometry": {
                "type": "Point",
                "coordinates": [
                    14.21195,
                    50.77836
                ]
            }
        },
        {
            "type": "Feature",
            "properties": {
                "label:cs": "Socha alegorie Rána na střeše Čajového pavilonu v jižní zahradě zámku v Děčíně",
                "P31": "Socha",
                "P131^label:cs": "Děčín",
                "P6736": "22262"
            },
            "geometry": {
                "type": "Point",
                "coordinates": [
                    14.21215,
                    50.77836
                ]
            }
        },
        {
            "type": "Feature",
            "properties": {
                "label:cs": "Malá kašna ve výklenku zdi spodní terasy jižních zahrad zámku v Děčíně",
                "P31": "Kašna",
                "P131^label:cs": "Děčín",
                "P6736": "22261"
            },
            "geometry": {
                "type": "Point",
                "coordinates": [
                    14.21194,
                    50.77866
                ]
            }
        },
        {
            "type": "Feature",
            "properties": {
                "label:cs": "Velká kašna na spodní terase jižních zahrad zámku v Děčíně",
                "P31": "Kašna",
                "P131^label:cs": "Děčín",
                "P6736": "22260"
            },
            "geometry": {
                "type": "Point",
                "coordinates": [
                    14.21194,
                    50.77855
                ]
            }
        },
        {
            "type": "Feature",
            "properties": {
                "label:cs": "Kaple Panny Marie Pomocné v ulici 28.října v Děčíně",
                "P31": "Kaple",
                "P131^label:cs": "Děčín",
                "P6736": "22259"
            },
            "geometry": {
                "type": "Point",
                "coordinates": [
                    14.21518,
                    50.78244
                ]
            }
        },
        {
            "type": "Feature",
            "properties": {
                "label:cs": "Socha svatého Václava v nice na kostele svatých Václava a Blažeje v Děčíně",
                "P31": "Socha",
                "P131^label:cs": "Děčín",
                "P6736": "22258"
            },
            "geometry": {
                "type": "Point",
                "coordinates": [
                    14.2149,
                    50.78222
                ]
            }
        },
        {
            "type": "Feature",
            "properties": {
                "label:cs": "Socha svatého Blažeje v nice na kostele svatých Václava a Blažeje v Děčíně",
                "P31": "Socha",
                "P131^label:cs": "Děčín",
                "P6736": "22257"
            },
            "geometry": {
                "type": "Point",
                "coordinates": [
                    14.21486,
                    50.7821
                ]
            }
        },
        {
            "type": "Feature",
            "properties": {
                "label:cs": "Kašna v Tyršově ulici v Děčíně",
                "P31": "Kašna",
                "P131^label:cs": "Děčín",
                "P6736": "22256"
            },
            "geometry": {
                "type": "Point",
                "coordinates": [
                    14.21095,
                    50.78069
                ]
            }
        },
        {
            "type": "Feature",
            "properties": {
                "label:cs": "Socha Panny Marie v zahradě Oblastního muzea v Děčíně",
                "P31": "Socha",
                "P131^label:cs": "Děčín",
                "P6736": "22156"
            },
            "geometry": {
                "type": "Point",
                "coordinates": [
                    14.20085,
                    50.77484
                ]
            }
        },
        {
            "type": "Feature",
            "properties": {
                "label:cs": "Socha svaté Heleny v zahradě Oblastního muzea v Děčíně",
                "P31": "Socha",
                "P131^label:cs": "Děčín",
                "P6736": "22155"
            },
            "geometry": {
                "type": "Point",
                "coordinates": [
                    14.20087,
                    50.77489
                ]
            }
        },
        {
            "type": "Feature",
            "properties": {
                "label:cs": "Kříž u kaple Panny Marie Sněžné v Děčíně",
                "P31": "Pamětní kříž",
                "P131^label:cs": "Děčín",
                "P6736": "19047"
            },
            "geometry": {
                "type": "Point",
                "coordinates": [
                    14.21393,
                    50.7792
                ]
            }
        },
        {
            "type": "Feature",
            "properties": {
                "label:cs": "Výklenková kaplička na Zámeckém náměstí v Děčíně",
                "P31": "Kaplička",
                "P131^label:cs": "Děčín",
                "P6736": "19046"
            },
            "geometry": {
                "type": "Point",
                "coordinates": [
                    14.215,
                    50.77897
                ]
            }
        },
        {
            "type": "Feature",
            "properties": {
                "label:cs": "Socha Holubice u budovy ČVUT v Myslbekově ulici v Děčíně",
                "P31": "Socha",
                "P131^label:cs": "Děčín",
                "P6736": "19045"
            },
            "geometry": {
                "type": "Point",
                "coordinates": [
                    14.21618,
                    50.77923
                ]
            }
        },
        {
            "type": "Feature",
            "properties": {
                "label:cs": "Socha svatého Františka Xaverského v zahradě školy ve Vrchlického ulici v Děčíně",
                "P31": "Socha",
                "P131^label:cs": "Děčín",
                "P6736": "19044"
            },
            "geometry": {
                "type": "Point",
                "coordinates": [
                    14.22155,
                    50.78136
                ]
            }
        },
        {
            "type": "Feature",
            "properties": {
                "label:cs": "Poškozený obrázek u cesty na jižním úbočí Stoličné hory v Děčíně",
                "P31": "Obrázek",
                "P131^label:cs": "Děčín",
                "P6736": "19043"
            },
            "geometry": {
                "type": "Point",
                "coordinates": [
                    14.23269,
                    50.7837
                ]
            }
        },
        {
            "type": "Feature",
            "properties": {
                "label:cs": "Pomníček u cesty k vyhlídce Labská stráž na Stoličné hoře v Děčíně",
                "P31": "Pomník",
                "P131^label:cs": "Děčín",
                "P6736": "19042"
            },
            "geometry": {
                "type": "Point",
                "coordinates": [
                    14.23534,
                    50.78929
                ]
            }
        },
        {
            "type": "Feature",
            "properties": {
                "label:cs": "Gloriet (altán) na vyhlídce Labská stráž na Stoličné hoře v Děčíně",
                "P31": "Něco jiného",
                "P131^label:cs": "Děčín",
                "P6736": "19041"
            },
            "geometry": {
                "type": "Point",
                "coordinates": [
                    14.23559,
                    50.78954
                ]
            }
        },
        {
            "type": "Feature",
            "properties": {
                "label:cs": "Sloup-obelisk na Císařské vyhlídce na Stoličné hoře v Děčíně",
                "P31": "Sloup",
                "P131^label:cs": "Děčín",
                "P6736": "19040"
            },
            "geometry": {
                "type": "Point",
                "coordinates": [
                    14.2274,
                    50.7851
                ]
            }
        },
        {
            "type": "Feature",
            "properties": {
                "label:cs": "Sloupy na Loretánském zátiší pod Stoličnou horou v Děčíně",
                "P31": "Sloup",
                "P131^label:cs": "Děčín",
                "P6736": "19039"
            },
            "geometry": {
                "type": "Point",
                "coordinates": [
                    14.22789,
                    50.78436
                ]
            }
        },
        {
            "type": "Feature",
            "properties": {
                "label:cs": "Povalený sloup na Loretánské vyhlídce pod Stoličnou horou v Děčíně",
                "P31": "Sloup",
                "P131^label:cs": "Děčín",
                "P6736": "19038"
            },
            "geometry": {
                "type": "Point",
                "coordinates": [
                    14.22872,
                    50.78367
                ]
            }
        },
        {
            "type": "Feature",
            "properties": {
                "label:cs": "Pomník padlým v 1.světové válce v ulici Červený Vrch v Podmoklech",
                "P31": "Pomník padlým",
                "P131^label:cs": "Děčín",
                "P6736": "18576"
            },
            "geometry": {
                "type": "Point",
                "coordinates": [
                    14.20073,
                    50.78229
                ]
            }
        },
        {
            "type": "Feature",
            "properties": {
                "label:cs": "Sousoší Zemských patronů na mostě přes Ploučnici v Děčíně",
                "P31": "Socha",
                "P131^label:cs": "Děčín",
                "P6736": "17418"
            },
            "geometry": {
                "type": "Point",
                "coordinates": [
                    14.21227,
                    50.77449
                ]
            }
        },
        {
            "type": "Feature",
            "properties": {
                "label:cs": "Pomník padlým v 1.světové válce na náměstí 5.května v Děčíně",
                "P31": "Pomník padlým",
                "P131^label:cs": "Děčín",
                "P6736": "17282"
            },
            "geometry": {
                "type": "Point",
                "coordinates": [
                    14.21288,
                    50.77283
                ]
            }
        },
        {
            "type": "Feature",
            "properties": {
                "label:cs": "Socha svatého Floriána u zahradnické školy v Libverdě",
                "P31": "Socha",
                "P131^label:cs": "Děčín",
                "P6736": "17281"
            },
            "geometry": {
                "type": "Point",
                "coordinates": [
                    14.23638,
                    50.76847
                ]
            }
        },
        {
            "type": "Feature",
            "properties": {
                "label:cs": "Socha dětí u nákupního centra v Děčíně-Podmoklech",
                "P31": "Socha",
                "P131^label:cs": "Děčín",
                "P6736": "17120"
            },
            "geometry": {
                "type": "Point",
                "coordinates": [
                    14.19937,
                    50.77326
                ]
            }
        },
        {
            "type": "Feature",
            "properties": {
                "label:cs": "Podstavec s ulomeným křížem pod nádražím Prostřední Žleb",
                "P31": "Pamětní kříž",
                "P131^label:cs": "Děčín",
                "P6736": "16974"
            },
            "geometry": {
                "type": "Point",
                "coordinates": [
                    14.23045,
                    50.79201
                ]
            }
        },
        {
            "type": "Feature",
            "properties": {
                "label:cs": "Socha dětí u školy v Tylově ulici v Děčíně",
                "P31": "Socha",
                "P131^label:cs": "Děčín",
                "P6736": "16192"
            },
            "geometry": {
                "type": "Point",
                "coordinates": [
                    14.2207,
                    50.7816
                ]
            }
        },
        {
            "type": "Feature",
            "properties": {
                "label:cs": "Socha Máchovská variace v parku před restaurací Střelnice v Labské ulici v Děčíně",
                "P31": "Socha",
                "P131^label:cs": "Děčín",
                "P6736": "16191"
            },
            "geometry": {
                "type": "Point",
                "coordinates": [
                    14.21919,
                    50.78499
                ]
            }
        },
        {
            "type": "Feature",
            "properties": {
                "label:cs": "Gloriet (altán) se sochou Bohemie u ruiny kostela v Loubské ulici v Děčíně",
                "P31": "Něco jiného",
                "P131^label:cs": "Děčín",
                "P6736": "16190"
            },
            "geometry": {
                "type": "Point",
                "coordinates": [
                    14.22172,
                    50.78582
                ]
            }
        },
        {
            "type": "Feature",
            "properties": {
                "label:cs": "Morový sloup s poškozeným křížkem v parku pod Stoličnou horou v Děčíně",
                "P31": "Sloup",
                "P131^label:cs": "Děčín",
                "P6736": "16189"
            },
            "geometry": {
                "type": "Point",
                "coordinates": [
                    14.22673,
                    50.7842
                ]
            }
        },
        {
            "type": "Feature",
            "properties": {
                "label:cs": "Pomník Franze Schuberta v parku pod Stoličnou horou v Děčíně",
                "P31": "Pomník",
                "P131^label:cs": "Děčín",
                "P6736": "16188"
            },
            "geometry": {
                "type": "Point",
                "coordinates": [
                    14.22827,
                    50.78345
                ]
            }
        },
        {
            "type": "Feature",
            "properties": {
                "label:cs": "Pamětní kámen spolku válečných veteránů v parku pod Stoličnou horou v Děčíně",
                "P31": "Památný kámen",
                "P131^label:cs": "Děčín",
                "P6736": "16187"
            },
            "geometry": {
                "type": "Point",
                "coordinates": [
                    14.22818,
                    50.78362
                ]
            }
        },
        {
            "type": "Feature",
            "properties": {
                "label:cs": "Pamětní kámen Schillerova dubu v parku pod Stoličnou horou v Děčíně",
                "P31": "Památný kámen",
                "P131^label:cs": "Děčín",
                "P6736": "16186"
            },
            "geometry": {
                "type": "Point",
                "coordinates": [
                    14.22902,
                    50.78349
                ]
            }
        },
        {
            "type": "Feature",
            "properties": {
                "label:cs": "Pamětní kámen sesuvu skal 1938 v parku pod Stoličnou horou v Děčíně",
                "P31": "Památný kámen",
                "P131^label:cs": "Děčín",
                "P6736": "16185"
            },
            "geometry": {
                "type": "Point",
                "coordinates": [
                    14.22683,
                    50.78442
                ]
            }
        },
        {
            "type": "Feature",
            "properties": {
                "label:cs": "Sloup s křížkem v Lužické ulici v Děčíně",
                "P31": "Sloup",
                "P131^label:cs": "Děčín",
                "P6736": "16179"
            },
            "geometry": {
                "type": "Point",
                "coordinates": [
                    14.23537,
                    50.7835
                ]
            }
        },
        {
            "type": "Feature",
            "properties": {
                "label:cs": "Hladový kámen na levém břehu Labe v Děčíně",
                "P31": "Památný kámen",
                "P131^label:cs": "Děčín",
                "P6736": "16178"
            },
            "geometry": {
                "type": "Point",
                "coordinates": [
                    14.2078,
                    50.78257
                ]
            }
        },
        {
            "type": "Feature",
            "properties": {
                "label:cs": "Socha Poutník v ulici Karla Čapka v Děčíně",
                "P31": "Socha",
                "P131^label:cs": "Děčín",
                "P6736": "16097"
            },
            "geometry": {
                "type": "Point",
                "coordinates": [
                    14.21091,
                    50.78156
                ]
            }
        },
        {
            "type": "Feature",
            "properties": {
                "label:cs": "Pomník Jana Amose Komenského na Komenského náměstí v Děčíně",
                "P31": "Pomník",
                "P131^label:cs": "Děčín",
                "P6736": "16096"
            },
            "geometry": {
                "type": "Point",
                "coordinates": [
                    14.21725,
                    50.78034
                ]
            }
        },
        {
            "type": "Feature",
            "properties": {
                "label:cs": "Kašna na rohu ulic Pohraniční a 28.října v Děčíně",
                "P31": "Kašna",
                "P131^label:cs": "Děčín",
                "P6736": "16095"
            },
            "geometry": {
                "type": "Point",
                "coordinates": [
                    14.21469,
                    50.78192
                ]
            }
        },
        {
            "type": "Feature",
            "properties": {
                "label:cs": "Kašna na Masarykově náměstí v Děčíně",
                "P31": "Kašna",
                "P131^label:cs": "Děčín",
                "P6736": "16094"
            },
            "geometry": {
                "type": "Point",
                "coordinates": [
                    14.21347,
                    50.78069
                ]
            }
        },
        {
            "type": "Feature",
            "properties": {
                "label:cs": "Socha svaté Veroniky ve výklenku kostela Povýšení svatého Kříže v Děčíně",
                "P31": "Socha",
                "P131^label:cs": "Děčín",
                "P6736": "16093"
            },
            "geometry": {
                "type": "Point",
                "coordinates": [
                    14.21384,
                    50.77941
                ]
            }
        },
        {
            "type": "Feature",
            "properties": {
                "label:cs": "Socha svaté Maří Magdaleny ve výklenku kostela Povýšení svatého Kříže v Děčíně",
                "P31": "Socha",
                "P131^label:cs": "Děčín",
                "P6736": "16092"
            },
            "geometry": {
                "type": "Point",
                "coordinates": [
                    14.21378,
                    50.77931
                ]
            }
        },
        {
            "type": "Feature",
            "properties": {
                "label:cs": "Kašna před kostelem v Křížové ulici v Děčíně",
                "P31": "Kašna",
                "P131^label:cs": "Děčín",
                "P6736": "16091"
            },
            "geometry": {
                "type": "Point",
                "coordinates": [
                    14.21356,
                    50.77935
                ]
            }
        },
        {
            "type": "Feature",
            "properties": {
                "label:cs": "Malá kašna u mostu do zámku v Děčíně",
                "P31": "Kašna",
                "P131^label:cs": "Děčín",
                "P6736": "16090"
            },
            "geometry": {
                "type": "Point",
                "coordinates": [
                    14.21038,
                    50.77924
                ]
            }
        },
        {
            "type": "Feature",
            "properties": {
                "label:cs": "Skleněná fontána na nádvoří v ulici U Plovárny v Děčíně",
                "P31": "Kašna",
                "P131^label:cs": "Děčín",
                "P6736": "16088"
            },
            "geometry": {
                "type": "Point",
                "coordinates": [
                    14.21224,
                    50.77761
                ]
            }
        },
        {
            "type": "Feature",
            "properties": {
                "label:cs": "Socha matky s dítětem v ulici U Plovárny v Děčíně",
                "P31": "Socha",
                "P131^label:cs": "Děčín",
                "P6736": "16086"
            },
            "geometry": {
                "type": "Point",
                "coordinates": [
                    14.21246,
                    50.77722
                ]
            }
        },
        {
            "type": "Feature",
            "properties": {
                "label:cs": "Socha Panny Marie v ulici U Plovárny v Děčíně",
                "P31": "Socha",
                "P131^label:cs": "Děčín",
                "P6736": "16085"
            },
            "geometry": {
                "type": "Point",
                "coordinates": [
                    14.21281,
                    50.77765
                ]
            }
        },
        {
            "type": "Feature",
            "properties": {
                "label:cs": "Kašna v parku naproti hlavnímu nádraží v Děčíně",
                "P31": "Kašna",
                "P131^label:cs": "Děčín",
                "P6736": "16084"
            },
            "geometry": {
                "type": "Point",
                "coordinates": [
                    14.20013,
                    50.77359
                ]
            }
        },
        {
            "type": "Feature",
            "properties": {
                "label:cs": "Kašna na Labském nábřeží v Děčíně",
                "P31": "Kašna",
                "P131^label:cs": "Děčín",
                "P6736": "13698"
            },
            "geometry": {
                "type": "Point",
                "coordinates": [
                    14.20366,
                    50.77762
                ]
            }
        },
        {
            "type": "Feature",
            "properties": {
                "label:cs": "Socha Návrat za knihovnou v ulici Karla Čapka v Děčíně",
                "P31": "Socha",
                "P131^label:cs": "Děčín",
                "P6736": "13661"
            },
            "geometry": {
                "type": "Point",
                "coordinates": [
                    14.21036,
                    50.78118
                ]
            }
        },
        {
            "type": "Feature",
            "properties": {
                "label:cs": "Kašna v Řetězové ulici v Děčíně",
                "P31": "Kašna",
                "P131^label:cs": "Děčín",
                "P6736": "13660"
            },
            "geometry": {
                "type": "Point",
                "coordinates": [
                    14.21151,
                    50.78118
                ]
            }
        },
        {
            "type": "Feature",
            "properties": {
                "label:cs": "Pomník u Východního nádraží v Děčíně",
                "P31": "Pomník",
                "P131^label:cs": "Děčín",
                "P6736": "13659"
            },
            "geometry": {
                "type": "Point",
                "coordinates": [
                    14.22054,
                    50.77735
                ]
            }
        },
        {
            "type": "Feature",
            "properties": {
                "label:cs": "Pomník padlým v Děčíně",
                "P31": "Pomník padlým",
                "P131^label:cs": "Děčín",
                "P6736": "10526"
            },
            "geometry": {
                "type": "Point",
                "coordinates": [
                    14.21509,
                    50.78233
                ]
            }
        },
        {
            "type": "Feature",
            "properties": {
                "label:cs": "Kaplička Panny Marie pomocné v Děčíně",
                "P31": "Kaplička",
                "P131^label:cs": "Děčín",
                "P6736": "10523"
            },
            "geometry": {
                "type": "Point",
                "coordinates": [
                    14.21515,
                    50.78242
                ]
            }
        },
        {
            "type": "Feature",
            "properties": {
                "label:cs": "Plastiky v Růžové zahradě v Děčíně",
                "P31": "Plastika",
                "P131^label:cs": "Děčín",
                "P6736": "9629"
            },
            "geometry": {
                "type": "Point",
                "coordinates": [
                    14.21198,
                    50.7793
                ]
            }
        },
        {
            "type": "Feature",
            "properties": {
                "label:cs": "Sochy na budově ČEZ v Děčíně",
                "P31": "Socha",
                "P131^label:cs": "Děčín",
                "P6736": "9628"
            },
            "geometry": {
                "type": "Point",
                "coordinates": [
                    14.20013,
                    50.77582
                ]
            }
        },
        {
            "type": "Feature",
            "properties": {
                "label:cs": "Socha svatého Jana Nepomuckého v Děčíně před muzeem",
                "P31": "Socha",
                "P131^label:cs": "Děčín",
                "P6736": "9626"
            },
            "geometry": {
                "type": "Point",
                "coordinates": [
                    14.2012,
                    50.77512
                ]
            }
        },
        {
            "type": "Feature",
            "properties": {
                "label:cs": "Socha svatého Floriána v Děčíně před muzeem",
                "P31": "Socha",
                "P131^label:cs": "Děčín",
                "P6736": "9625"
            },
            "geometry": {
                "type": "Point",
                "coordinates": [
                    14.20123,
                    50.77547
                ]
            }
        },
        {
            "type": "Feature",
            "properties": {
                "label:cs": "Busta Františka Josefa I. v Děčíně",
                "P31": "Socha",
                "P131^label:cs": "Děčín",
                "P6736": "9516"
            },
            "geometry": {
                "type": "Point",
                "coordinates": [
                    14.21489,
                    50.77893
                ]
            }
        },
        {
            "type": "Feature",
            "properties": {
                "label:cs": "Památník Miroslava Tyrše",
                "P31": "Památník",
                "P131^label:cs": "Děčín",
                "P6736": "9515"
            },
            "geometry": {
                "type": "Point",
                "coordinates": [
                    14.20853,
                    50.77962
                ]
            }
        },
        {
            "type": "Feature",
            "properties": {
                "label:cs": "Pomník padlým v Podmoklech v Děčíně",
                "P31": "Pomník padlým",
                "P131^label:cs": "Děčín",
                "P6736": "9511"
            },
            "geometry": {
                "type": "Point",
                "coordinates": [
                    14.19573,
                    50.77432
                ]
            }
        },
        {
            "type": "Feature",
            "properties": {
                "label:cs": "Pomník padlým v Děčíně na Starém městě",
                "P31": "Pomník padlým",
                "P131^label:cs": "Děčín",
                "P6736": "9419"
            },
            "geometry": {
                "type": "Point",
                "coordinates": [
                    14.21287,
                    50.77283
                ]
            }
        }
    ]
}