{
    "type": "FeatureCollection",
    "features": [
        {
            "type": "Feature",
            "properties": {
                "label:cs": "Kříž v Horních Chrášťanech u kaple",
                "P31": "Pamětní kříž",
                "P131^label:cs": "Lhenice",
                "P6736": "6751"
            },
            "geometry": {
                "type": "Point",
                "coordinates": [
                    14.19739,
                    48.99964
                ]
            }
        },
        {
            "type": "Feature",
            "properties": {
                "label:cs": "Kaple v Horních Chrášťanech",
                "P31": "Kaple",
                "P131^label:cs": "Lhenice",
                "P6736": "6432"
            },
            "geometry": {
                "type": "Point",
                "coordinates": [
                    14.19746,
                    48.99961
                ]
            }
        },
        {
            "type": "Feature",
            "properties": {
                "label:cs": "Kaplička východně od Dobčic",
                "P31": "Kaplička",
                "P131^label:cs": "Záboří",
                "P6736": "1928"
            },
            "geometry": {
                "type": "Point",
                "coordinates": [
                    14.23565,
                    48.99734
                ]
            }
        },
        {
            "type": "Feature",
            "properties": {
                "label:cs": "Kaplička severně od Dobčic",
                "P31": "Kaplička",
                "P131^label:cs": "Záboří",
                "P6736": "1926"
            },
            "geometry": {
                "type": "Point",
                "coordinates": [
                    14.23141,
                    48.99783
                ]
            }
        },
        {
            "type": "Feature",
            "properties": {
                "label:cs": "Kříž jižně od Dobčic",
                "P31": "Pamětní kříž",
                "P131^label:cs": "Záboří",
                "P6736": "1927"
            },
            "geometry": {
                "type": "Point",
                "coordinates": [
                    14.23204,
                    48.99384
                ]
            }
        },
        {
            "type": "Feature",
            "properties": {
                "label:cs": "Kříž východně od Horních Chrášťan na okraji lesa",
                "P31": "Pamětní kříž",
                "P131^label:cs": "Lhenice",
                "P6736": "1558"
            },
            "geometry": {
                "type": "Point",
                "coordinates": [
                    14.2065,
                    49.0002
                ]
            }
        }
    ]
}