{
    "type": "FeatureCollection",
    "features": [
        {
            "type": "Feature",
            "properties": {
                "label:cs": "Pomník padlým v Křešicích u Děčína",
                "P31": "Pomník padlým",
                "P131^label:cs": "Děčín",
                "P6736": "17417"
            },
            "geometry": {
                "type": "Point",
                "coordinates": [
                    14.19874,
                    50.75168
                ]
            }
        },
        {
            "type": "Feature",
            "properties": {
                "label:cs": "Kříž na bývalém hřbitově v Horním Chlumu",
                "P31": "Pamětní kříž",
                "P131^label:cs": "Děčín",
                "P6736": "17411"
            },
            "geometry": {
                "type": "Point",
                "coordinates": [
                    14.22966,
                    50.75077
                ]
            }
        },
        {
            "type": "Feature",
            "properties": {
                "label:cs": "Socha svatého Marka v Horním Chlumu",
                "P31": "Socha",
                "P131^label:cs": "Děčín",
                "P6736": "17410"
            },
            "geometry": {
                "type": "Point",
                "coordinates": [
                    14.22612,
                    50.75046
                ]
            }
        },
        {
            "type": "Feature",
            "properties": {
                "label:cs": "Rozcestník v Horním Chlumu",
                "P31": "Něco jiného",
                "P131^label:cs": "Děčín",
                "P6736": "17409"
            },
            "geometry": {
                "type": "Point",
                "coordinates": [
                    14.22537,
                    50.75166
                ]
            }
        },
        {
            "type": "Feature",
            "properties": {
                "label:cs": "Kaple v Horním Chlumu",
                "P31": "Kaple",
                "P131^label:cs": "Děčín",
                "P6736": "17408"
            },
            "geometry": {
                "type": "Point",
                "coordinates": [
                    14.22391,
                    50.75178
                ]
            }
        },
        {
            "type": "Feature",
            "properties": {
                "label:cs": "Socha svatého Jana Evangelisty u kaple v Křešicích u Děčína",
                "P31": "Socha",
                "P131^label:cs": "Děčín",
                "P6736": "15021"
            },
            "geometry": {
                "type": "Point",
                "coordinates": [
                    14.20084,
                    50.75047
                ]
            }
        },
        {
            "type": "Feature",
            "properties": {
                "label:cs": "Kaple v Křešicích u Děčína",
                "P31": "Kaple",
                "P131^label:cs": "Děčín",
                "P6736": "15020"
            },
            "geometry": {
                "type": "Point",
                "coordinates": [
                    14.20075,
                    50.75047
                ]
            }
        }
    ]
}