{
    "type": "FeatureCollection",
    "features": [
        {
            "type": "Feature",
            "properties": {
                "label:cs": "Kaplička na návsi Malé Hraštice",
                "P31": "Kaplička",
                "P131^label:cs": "Malá Hraštice",
                "P6736": "16264"
            },
            "geometry": {
                "type": "Point",
                "coordinates": [
                    14.27985,
                    49.80751
                ]
            }
        },
        {
            "type": "Feature",
            "properties": {
                "label:cs": "Památník konce druhé světové války v Mokrovratech",
                "P31": "Památník",
                "P131^label:cs": "Mokrovraty",
                "P6736": "11345"
            },
            "geometry": {
                "type": "Point",
                "coordinates": [
                    14.24873,
                    49.79643
                ]
            }
        },
        {
            "type": "Feature",
            "properties": {
                "label:cs": "Pomník T. G. Masaryka v Mokrovratech",
                "P31": "Památník",
                "P131^label:cs": "Mokrovraty",
                "P6736": "11344"
            },
            "geometry": {
                "type": "Point",
                "coordinates": [
                    14.25108,
                    49.79616
                ]
            }
        },
        {
            "type": "Feature",
            "properties": {
                "label:cs": "Kaple v Mokrovratech",
                "P31": "Kaple",
                "P131^label:cs": "Mokrovraty",
                "P6736": "11343"
            },
            "geometry": {
                "type": "Point",
                "coordinates": [
                    14.25544,
                    49.79724
                ]
            }
        },
        {
            "type": "Feature",
            "properties": {
                "label:cs": "Pomník padlým v Mokrovratech",
                "P31": "Pomník padlým",
                "P131^label:cs": "Mokrovraty",
                "P6736": "11342"
            },
            "geometry": {
                "type": "Point",
                "coordinates": [
                    14.25718,
                    49.79731
                ]
            }
        },
        {
            "type": "Feature",
            "properties": {
                "label:cs": "Kaple u Ovčína západně od Starého Knínu",
                "P31": "Kaple",
                "P131^label:cs": "Nový Knín",
                "P6736": "11341"
            },
            "geometry": {
                "type": "Point",
                "coordinates": [
                    14.27546,
                    49.78924
                ]
            }
        },
        {
            "type": "Feature",
            "properties": {
                "label:cs": "Kříž západně od Starého Knína",
                "P31": "Pamětní kříž",
                "P131^label:cs": "Nový Knín",
                "P6736": "2535"
            },
            "geometry": {
                "type": "Point",
                "coordinates": [
                    14.27183,
                    49.79024
                ]
            }
        }
    ]
}