{
    "type": "FeatureCollection",
    "features": [
        {
            "type": "Feature",
            "properties": {
                "label:cs": "Kříž v zahradě domu v Dolním Šebířově",
                "P31": "Pamětní kříž",
                "P131^label:cs": "Lovečkovice",
                "P6736": "22976"
            },
            "geometry": {
                "type": "Point",
                "coordinates": [
                    14.25574,
                    50.63551
                ]
            }
        },
        {
            "type": "Feature",
            "properties": {
                "label:cs": "Kaple v Dolním Šebířově",
                "P31": "Kaple",
                "P131^label:cs": "Lovečkovice",
                "P6736": "22975"
            },
            "geometry": {
                "type": "Point",
                "coordinates": [
                    14.25832,
                    50.636
                ]
            }
        },
        {
            "type": "Feature",
            "properties": {
                "label:cs": "Kříž v zahradě domu na západním okraji Náčkovic",
                "P31": "Pamětní kříž",
                "P131^label:cs": "Lovečkovice",
                "P6736": "22974"
            },
            "geometry": {
                "type": "Point",
                "coordinates": [
                    14.2729,
                    50.64252
                ]
            }
        },
        {
            "type": "Feature",
            "properties": {
                "label:cs": "Kaple Panny Marie Pomocné v Náčkovicích",
                "P31": "Kaple",
                "P131^label:cs": "Lovečkovice",
                "P6736": "22973"
            },
            "geometry": {
                "type": "Point",
                "coordinates": [
                    14.27438,
                    50.6446
                ]
            }
        },
        {
            "type": "Feature",
            "properties": {
                "label:cs": "Pamětní kříž v Hradišti u Lovečkovic",
                "P31": "Pamětní kříž",
                "P131^label:cs": "Lovečkovice",
                "P6736": "15129"
            },
            "geometry": {
                "type": "Point",
                "coordinates": [
                    14.27475,
                    50.63343
                ]
            }
        }
    ]
}