{
    "type": "FeatureCollection",
    "features": [
        {
            "type": "Feature",
            "properties": {
                "label:cs": "Pomník padlým na návsi V Malešově",
                "P31": "Pomník padlým",
                "P131^label:cs": "Hoštka",
                "P6736": "23508"
            },
            "geometry": {
                "type": "Point",
                "coordinates": [
                    14.32289,
                    50.5099
                ]
            }
        },
        {
            "type": "Feature",
            "properties": {
                "label:cs": "Kříž na návsi v Malešově",
                "P31": "Pamětní kříž",
                "P131^label:cs": "Hoštka",
                "P6736": "23507"
            },
            "geometry": {
                "type": "Point",
                "coordinates": [
                    14.32232,
                    50.51003
                ]
            }
        },
        {
            "type": "Feature",
            "properties": {
                "label:cs": "Kříž u silnice na západním okraji Vrutice",
                "P31": "Pamětní kříž",
                "P131^label:cs": "Vrutice",
                "P6736": "16055"
            },
            "geometry": {
                "type": "Point",
                "coordinates": [
                    14.28637,
                    50.50312
                ]
            }
        },
        {
            "type": "Feature",
            "properties": {
                "label:cs": "Pomník osvobození na návsi ve Vrutici",
                "P31": "Pomník",
                "P131^label:cs": "Vrutice",
                "P6736": "16054"
            },
            "geometry": {
                "type": "Point",
                "coordinates": [
                    14.28949,
                    50.502
                ]
            }
        },
        {
            "type": "Feature",
            "properties": {
                "label:cs": "Kaple svatého Antonína ve Vrutici",
                "P31": "Kaple",
                "P131^label:cs": "Vrutice",
                "P6736": "16053"
            },
            "geometry": {
                "type": "Point",
                "coordinates": [
                    14.2904,
                    50.50185
                ]
            }
        },
        {
            "type": "Feature",
            "properties": {
                "label:cs": "Podstavec s ulomeným křížem na rozcestí u východního okraje Vrutice",
                "P31": "Pamětní kříž",
                "P131^label:cs": "Vrutice",
                "P6736": "16052"
            },
            "geometry": {
                "type": "Point",
                "coordinates": [
                    14.2952,
                    50.50241
                ]
            }
        },
        {
            "type": "Feature",
            "properties": {
                "label:cs": "Kaple svatého Václava a svatého Martina ve Svařenicích",
                "P31": "Kaple",
                "P131^label:cs": "Vrutice",
                "P6736": "16051"
            },
            "geometry": {
                "type": "Point",
                "coordinates": [
                    14.29997,
                    50.50021
                ]
            }
        }
    ]
}