{
    "type": "FeatureCollection",
    "features": [
        {
            "type": "Feature",
            "properties": {
                "label:cs": "Plastika před školou v Liběšicích",
                "P31": "Plastika",
                "P131^label:cs": "Liběšice",
                "P6736": "17431"
            },
            "geometry": {
                "type": "Point",
                "coordinates": [
                    14.29071,
                    50.57019
                ]
            }
        },
        {
            "type": "Feature",
            "properties": {
                "label:cs": "Kaple na návsi v Trnobranech",
                "P31": "Kaple",
                "P131^label:cs": "Liběšice",
                "P6736": "17330"
            },
            "geometry": {
                "type": "Point",
                "coordinates": [
                    14.28924,
                    50.58004
                ]
            }
        },
        {
            "type": "Feature",
            "properties": {
                "label:cs": "Sloup svatého Prokopa na jižním okraji Trnobran",
                "P31": "Sloup",
                "P131^label:cs": "Liběšice",
                "P6736": "17329"
            },
            "geometry": {
                "type": "Point",
                "coordinates": [
                    14.28932,
                    50.57831
                ]
            }
        },
        {
            "type": "Feature",
            "properties": {
                "label:cs": "Kaplička u silnice ze Zimoře do Liběšic",
                "P31": "Kaplička",
                "P131^label:cs": "Liběšice",
                "P6736": "17304"
            },
            "geometry": {
                "type": "Point",
                "coordinates": [
                    14.30559,
                    50.57358
                ]
            }
        },
        {
            "type": "Feature",
            "properties": {
                "label:cs": "Pomník padlým na návsi v Zimoři",
                "P31": "Pomník padlým",
                "P131^label:cs": "Liběšice",
                "P6736": "17303"
            },
            "geometry": {
                "type": "Point",
                "coordinates": [
                    14.31657,
                    50.57917
                ]
            }
        },
        {
            "type": "Feature",
            "properties": {
                "label:cs": "Kříž u silnice na východním okraji Zimoře",
                "P31": "Pamětní kříž",
                "P131^label:cs": "Liběšice",
                "P6736": "17302"
            },
            "geometry": {
                "type": "Point",
                "coordinates": [
                    14.31799,
                    50.57939
                ]
            }
        }
    ]
}