{
    "type": "FeatureCollection",
    "features": [
        {
            "type": "Feature",
            "properties": {
                "label:cs": "Kříž u silnice naproti domu 136 v Loučkách",
                "P31": "Pamětní kříž",
                "P131^label:cs": "Verneřice",
                "P6736": "23016"
            },
            "geometry": {
                "type": "Point",
                "coordinates": [
                    14.32384,
                    50.65981
                ]
            }
        },
        {
            "type": "Feature",
            "properties": {
                "label:cs": "Kříž naproti domu 159 v Loučkách",
                "P31": "Pamětní kříž",
                "P131^label:cs": "Verneřice",
                "P6736": "23015"
            },
            "geometry": {
                "type": "Point",
                "coordinates": [
                    14.31829,
                    50.66051
                ]
            }
        },
        {
            "type": "Feature",
            "properties": {
                "label:cs": "Pomník padlým v 1.světové válce u Střelnice ve Verneřicích",
                "P31": "Pomník padlým",
                "P131^label:cs": "Verneřice",
                "P6736": "22966"
            },
            "geometry": {
                "type": "Point",
                "coordinates": [
                    14.31068,
                    50.65788
                ]
            }
        },
        {
            "type": "Feature",
            "properties": {
                "label:cs": "Socha svatého Josefa ve výklenku kostela ve Verneřicích",
                "P31": "Socha",
                "P131^label:cs": "Verneřice",
                "P6736": "22965"
            },
            "geometry": {
                "type": "Point",
                "coordinates": [
                    14.30286,
                    50.66114
                ]
            }
        },
        {
            "type": "Feature",
            "properties": {
                "label:cs": "Podstavec ulomeného centrálního kříže na hřbitově ve Verneřicích",
                "P31": "Pamětní kříž",
                "P131^label:cs": "Verneřice",
                "P6736": "22964"
            },
            "geometry": {
                "type": "Point",
                "coordinates": [
                    14.29999,
                    50.66476
                ]
            }
        },
        {
            "type": "Feature",
            "properties": {
                "label:cs": "Podstavec s ulomeným křížem v Hřbitovní ulici ve Verneřicích",
                "P31": "Pamětní kříž",
                "P131^label:cs": "Verneřice",
                "P6736": "22963"
            },
            "geometry": {
                "type": "Point",
                "coordinates": [
                    14.30129,
                    50.6638
                ]
            }
        },
        {
            "type": "Feature",
            "properties": {
                "label:cs": "Kašna se sochou sv. Floriána na náměstí ve Verneřicích",
                "P31": "Kašna",
                "P131^label:cs": "Verneřice",
                "P6736": "22962"
            },
            "geometry": {
                "type": "Point",
                "coordinates": [
                    14.30204,
                    50.66143
                ]
            }
        }
    ]
}