{
    "type": "FeatureCollection",
    "features": [
        {
            "type": "Feature",
            "properties": {
                "label:cs": "Pomník obětem okupace 1939-1945 na návsi ve Spomyšli",
                "P31": "Pomník",
                "P131^label:cs": "Spomyšl",
                "P6736": "24469"
            },
            "geometry": {
                "type": "Point",
                "coordinates": [
                    14.36008,
                    50.33512
                ]
            }
        },
        {
            "type": "Feature",
            "properties": {
                "label:cs": "Pomník padlým v květnu 1945 na návsi ve Spomyšli",
                "P31": "Pomník padlým",
                "P131^label:cs": "Spomyšl",
                "P6736": "24468"
            },
            "geometry": {
                "type": "Point",
                "coordinates": [
                    14.36051,
                    50.3344
                ]
            }
        },
        {
            "type": "Feature",
            "properties": {
                "label:cs": "Kříž u polní cesty jižně od Jeviněvsi",
                "P31": "Pamětní kříž",
                "P131^label:cs": "Jeviněves",
                "P6736": "24467"
            },
            "geometry": {
                "type": "Point",
                "coordinates": [
                    14.33785,
                    50.33948
                ]
            }
        },
        {
            "type": "Feature",
            "properties": {
                "label:cs": "Pomník obětem okupace 1939-1945 v Jeviněvsi",
                "P31": "Pomník",
                "P131^label:cs": "Jeviněves",
                "P6736": "24466"
            },
            "geometry": {
                "type": "Point",
                "coordinates": [
                    14.33788,
                    50.34431
                ]
            }
        },
        {
            "type": "Feature",
            "properties": {
                "label:cs": "Pomník padlým na návsi v Jeviněvsi",
                "P31": "Pomník padlým",
                "P131^label:cs": "Jeviněves",
                "P6736": "24465"
            },
            "geometry": {
                "type": "Point",
                "coordinates": [
                    14.33792,
                    50.34459
                ]
            }
        },
        {
            "type": "Feature",
            "properties": {
                "label:cs": "Pomník padlým v květnu 1945 v Mlčechvostech",
                "P31": "Pomník padlým",
                "P131^label:cs": "Vraňany",
                "P6736": "24433"
            },
            "geometry": {
                "type": "Point",
                "coordinates": [
                    14.33908,
                    50.31849
                ]
            }
        },
        {
            "type": "Feature",
            "properties": {
                "label:cs": "Pomník padlým v Mlčechvostech",
                "P31": "Pomník padlým",
                "P131^label:cs": "Vraňany",
                "P6736": "24432"
            },
            "geometry": {
                "type": "Point",
                "coordinates": [
                    14.33969,
                    50.31872
                ]
            }
        },
        {
            "type": "Feature",
            "properties": {
                "label:cs": "Pomník padlým v květnu 1945 v Mlčechvostech",
                "P31": "Pomník padlým",
                "P131^label:cs": "Vraňany",
                "P6736": "24431"
            },
            "geometry": {
                "type": "Point",
                "coordinates": [
                    14.3404,
                    50.31852
                ]
            }
        },
        {
            "type": "Feature",
            "properties": {
                "label:cs": "Kříž v centru Vraňan",
                "P31": "Pamětní kříž",
                "P131^label:cs": "Vraňany",
                "P6736": "24429"
            },
            "geometry": {
                "type": "Point",
                "coordinates": [
                    14.36362,
                    50.31885
                ]
            }
        },
        {
            "type": "Feature",
            "properties": {
                "label:cs": "Kříž u silnice z nádraží Vraňany do obce",
                "P31": "Pamětní kříž",
                "P131^label:cs": "Vraňany",
                "P6736": "24428"
            },
            "geometry": {
                "type": "Point",
                "coordinates": [
                    14.36456,
                    50.32546
                ]
            }
        }
    ]
}