{
    "type": "FeatureCollection",
    "features": [
        {
            "type": "Feature",
            "properties": {
                "label:cs": "Kříž na rozcestí na severním okraji Jeviněvsi",
                "P31": "Pamětní kříž",
                "P131^label:cs": "Jeviněves",
                "P6736": "24464"
            },
            "geometry": {
                "type": "Point",
                "coordinates": [
                    14.33741,
                    50.34702
                ]
            }
        },
        {
            "type": "Feature",
            "properties": {
                "label:cs": "Kříž u lesní cesty severozápadně od Jeviněvsi",
                "P31": "Pamětní kříž",
                "P131^label:cs": "Jeviněves",
                "P6736": "24463"
            },
            "geometry": {
                "type": "Point",
                "coordinates": [
                    14.32863,
                    50.35131
                ]
            }
        },
        {
            "type": "Feature",
            "properties": {
                "label:cs": "Pomník Klementiny Kalašové na návsi v Horních Beřkovicích",
                "P31": "Pomník",
                "P131^label:cs": "Horní Beřkovice",
                "P6736": "22709"
            },
            "geometry": {
                "type": "Point",
                "coordinates": [
                    14.34647,
                    50.35916
                ]
            }
        },
        {
            "type": "Feature",
            "properties": {
                "label:cs": "Kašna před zámkem v Horních Beřkovicích",
                "P31": "Kašna",
                "P131^label:cs": "Horní Beřkovice",
                "P6736": "22708"
            },
            "geometry": {
                "type": "Point",
                "coordinates": [
                    14.34729,
                    50.35863
                ]
            }
        },
        {
            "type": "Feature",
            "properties": {
                "label:cs": "Pomník padlým rudoarmějcům v Podřipské ulici v Horních Beřkovicích",
                "P31": "Pomník padlým",
                "P131^label:cs": "Horní Beřkovice",
                "P6736": "22707"
            },
            "geometry": {
                "type": "Point",
                "coordinates": [
                    14.35382,
                    50.35661
                ]
            }
        },
        {
            "type": "Feature",
            "properties": {
                "label:cs": "Pomník padlým 1939-1945 v Podřipské ulici v Horních Beřkovicích",
                "P31": "Pomník padlým",
                "P131^label:cs": "Horní Beřkovice",
                "P6736": "22706"
            },
            "geometry": {
                "type": "Point",
                "coordinates": [
                    14.35397,
                    50.3566
                ]
            }
        },
        {
            "type": "Feature",
            "properties": {
                "label:cs": "Pomník padlým v 1.světové válce v Podřipské ulici v Horních Beřkovicích",
                "P31": "Pomník padlým",
                "P131^label:cs": "Horní Beřkovice",
                "P6736": "22705"
            },
            "geometry": {
                "type": "Point",
                "coordinates": [
                    14.35388,
                    50.35659
                ]
            }
        },
        {
            "type": "Feature",
            "properties": {
                "label:cs": "Kříž na rozcestí k nádraží v Horních Beřkovicích",
                "P31": "Pamětní kříž",
                "P131^label:cs": "Horní Beřkovice",
                "P6736": "22704"
            },
            "geometry": {
                "type": "Point",
                "coordinates": [
                    14.35462,
                    50.35676
                ]
            }
        },
        {
            "type": "Feature",
            "properties": {
                "label:cs": "Kříž ve východní části Horních Beřkovic",
                "P31": "Pamětní kříž",
                "P131^label:cs": "Horní Beřkovice",
                "P6736": "22703"
            },
            "geometry": {
                "type": "Point",
                "coordinates": [
                    14.36195,
                    50.3555
                ]
            }
        }
    ]
}