{
    "type": "FeatureCollection",
    "features": [
        {
            "type": "Feature",
            "properties": {
                "label:cs": "Kaple v Týnu nad Vltavou v Budějovické ulici",
                "P31": "Kaple",
                "P131^label:cs": "Týn nad Vltavou",
                "P6736": "6381"
            },
            "geometry": {
                "type": "Point",
                "coordinates": [
                    14.41385,
                    49.21797
                ]
            }
        },
        {
            "type": "Feature",
            "properties": {
                "label:cs": "Kaple severovýchodně od Neznašova",
                "P31": "Kaple",
                "P131^label:cs": "Všemyslice",
                "P6736": "6380"
            },
            "geometry": {
                "type": "Point",
                "coordinates": [
                    14.3839,
                    49.23459
                ]
            }
        },
        {
            "type": "Feature",
            "properties": {
                "label:cs": "Pomník padlým v Neznašově",
                "P31": "Pomník padlým",
                "P131^label:cs": "Všemyslice",
                "P6736": "6379"
            },
            "geometry": {
                "type": "Point",
                "coordinates": [
                    14.37911,
                    49.23217
                ]
            }
        },
        {
            "type": "Feature",
            "properties": {
                "label:cs": "Kaple v Neznašově",
                "P31": "Kaple",
                "P131^label:cs": "Všemyslice",
                "P6736": "6378"
            },
            "geometry": {
                "type": "Point",
                "coordinates": [
                    14.37875,
                    49.23206
                ]
            }
        },
        {
            "type": "Feature",
            "properties": {
                "label:cs": "Kříž u polní cesty severně od Neznašova",
                "P31": "Pamětní kříž",
                "P131^label:cs": "Všemyslice",
                "P6736": "2800"
            },
            "geometry": {
                "type": "Point",
                "coordinates": [
                    14.38108,
                    49.23599
                ]
            }
        }
    ]
}