{
    "type": "FeatureCollection",
    "features": [
        {
            "type": "Feature",
            "properties": {
                "label:cs": "Kříž západně od Kvěchova u mostu přes Smutnou",
                "P31": "Pamětní kříž",
                "P131^label:cs": "Božetice",
                "P6736": "10488"
            },
            "geometry": {
                "type": "Point",
                "coordinates": [
                    14.44014,
                    49.44048
                ]
            }
        },
        {
            "type": "Feature",
            "properties": {
                "label:cs": "Pomník padlým v Božeticích",
                "P31": "Pomník padlým",
                "P131^label:cs": "Božetice",
                "P6736": "6840"
            },
            "geometry": {
                "type": "Point",
                "coordinates": [
                    14.44412,
                    49.45087
                ]
            }
        },
        {
            "type": "Feature",
            "properties": {
                "label:cs": "Kříž u kaple v Božeticích",
                "P31": "Pamětní kříž",
                "P131^label:cs": "Božetice",
                "P6736": "6841"
            },
            "geometry": {
                "type": "Point",
                "coordinates": [
                    14.44405,
                    49.45088
                ]
            }
        },
        {
            "type": "Feature",
            "properties": {
                "label:cs": "Kaple v Božeticích",
                "P31": "Kaple",
                "P131^label:cs": "Božetice",
                "P6736": "6839"
            },
            "geometry": {
                "type": "Point",
                "coordinates": [
                    14.44401,
                    49.45091
                ]
            }
        },
        {
            "type": "Feature",
            "properties": {
                "label:cs": "Kříž západně od Božetic",
                "P31": "Pamětní kříž",
                "P131^label:cs": "Božetice",
                "P6736": "1267"
            },
            "geometry": {
                "type": "Point",
                "coordinates": [
                    14.43873,
                    49.44832
                ]
            }
        },
        {
            "type": "Feature",
            "properties": {
                "label:cs": "Kříž u Sepekova",
                "P31": "Pamětní kříž",
                "P131^label:cs": "Božetice",
                "P6736": "1268"
            },
            "geometry": {
                "type": "Point",
                "coordinates": [
                    14.42958,
                    49.44388
                ]
            }
        }
    ]
}