{
    "type": "FeatureCollection",
    "features": [
        {
            "type": "Feature",
            "properties": {
                "label:cs": "Kříž u cesty k nádraží v Stružnici",
                "P31": "Pamětní kříž",
                "P131^label:cs": "Stružnice",
                "P6736": "20412"
            },
            "geometry": {
                "type": "Point",
                "coordinates": [
                    14.44971,
                    50.69686
                ]
            }
        },
        {
            "type": "Feature",
            "properties": {
                "label:cs": "Zvonička u obecního úřadu v Stružnici",
                "P31": "Zvonička",
                "P131^label:cs": "Stružnice",
                "P6736": "20411"
            },
            "geometry": {
                "type": "Point",
                "coordinates": [
                    14.4561,
                    50.69376
                ]
            }
        },
        {
            "type": "Feature",
            "properties": {
                "label:cs": "Smírčí kříž u obecního úřadu v Stružnici",
                "P31": "Smírčí kříž",
                "P131^label:cs": "Stružnice",
                "P6736": "20410"
            },
            "geometry": {
                "type": "Point",
                "coordinates": [
                    14.45563,
                    50.69382
                ]
            }
        },
        {
            "type": "Feature",
            "properties": {
                "label:cs": "Kamenná plastika v centru Stružnice",
                "P31": "Plastika",
                "P131^label:cs": "Stružnice",
                "P6736": "20409"
            },
            "geometry": {
                "type": "Point",
                "coordinates": [
                    14.45471,
                    50.69403
                ]
            }
        },
        {
            "type": "Feature",
            "properties": {
                "label:cs": "Kříž na západním okraji Stružnice",
                "P31": "Pamětní kříž",
                "P131^label:cs": "Stružnice",
                "P6736": "20408"
            },
            "geometry": {
                "type": "Point",
                "coordinates": [
                    14.4434,
                    50.69492
                ]
            }
        },
        {
            "type": "Feature",
            "properties": {
                "label:cs": "Kříž u silnice z Jezvé do Stružnice",
                "P31": "Pamětní kříž",
                "P131^label:cs": "Stružnice",
                "P6736": "20407"
            },
            "geometry": {
                "type": "Point",
                "coordinates": [
                    14.43916,
                    50.6959
                ]
            }
        },
        {
            "type": "Feature",
            "properties": {
                "label:cs": "Kaple na hřbitově v Jezvé",
                "P31": "Kaple",
                "P131^label:cs": "Stružnice",
                "P6736": "20406"
            },
            "geometry": {
                "type": "Point",
                "coordinates": [
                    14.43709,
                    50.6958
                ]
            }
        },
        {
            "type": "Feature",
            "properties": {
                "label:cs": "Kaplička na východním okraji Jezvé",
                "P31": "Kaplička",
                "P131^label:cs": "Stružnice",
                "P6736": "20405"
            },
            "geometry": {
                "type": "Point",
                "coordinates": [
                    14.43634,
                    50.69649
                ]
            }
        },
        {
            "type": "Feature",
            "properties": {
                "label:cs": "Mariánské sousoší na návsi v Jezvé",
                "P31": "Socha",
                "P131^label:cs": "Stružnice",
                "P6736": "20404"
            },
            "geometry": {
                "type": "Point",
                "coordinates": [
                    14.43241,
                    50.6981
                ]
            }
        },
        {
            "type": "Feature",
            "properties": {
                "label:cs": "Socha svatého Adolfa ve výklenku kostela v Jezvé",
                "P31": "Socha",
                "P131^label:cs": "Stružnice",
                "P6736": "20403"
            },
            "geometry": {
                "type": "Point",
                "coordinates": [
                    14.43107,
                    50.69859
                ]
            }
        },
        {
            "type": "Feature",
            "properties": {
                "label:cs": "Socha svatého Václava ve výklenku kostela v Jezvé",
                "P31": "Socha",
                "P131^label:cs": "Stružnice",
                "P6736": "20402"
            },
            "geometry": {
                "type": "Point",
                "coordinates": [
                    14.43122,
                    50.69854
                ]
            }
        },
        {
            "type": "Feature",
            "properties": {
                "label:cs": "Socha svatého Jana Nepomuckého na mostě přes potok v Jezvé",
                "P31": "Socha",
                "P131^label:cs": "Stružnice",
                "P6736": "20401"
            },
            "geometry": {
                "type": "Point",
                "coordinates": [
                    14.42785,
                    50.69962
                ]
            }
        },
        {
            "type": "Feature",
            "properties": {
                "label:cs": "Kříž u cesty za tratí ve Stoupně v Horní Polici",
                "P31": "Pamětní kříž",
                "P131^label:cs": "Horní Police",
                "P6736": "20400"
            },
            "geometry": {
                "type": "Point",
                "coordinates": [
                    14.41498,
                    50.70538
                ]
            }
        },
        {
            "type": "Feature",
            "properties": {
                "label:cs": "Pomník padlých z 1. světové války ve Stružnici",
                "P31": "Pomník padlým",
                "P131^label:cs": "Stružnice",
                "P6736": "9041"
            },
            "geometry": {
                "type": "Point",
                "coordinates": [
                    14.45554,
                    50.6939
                ]
            }
        }
    ]
}