{
    "type": "FeatureCollection",
    "features": [
        {
            "type": "Feature",
            "properties": {
                "label:cs": "Zeckertův kříž u Kunratic",
                "P31": "Pamětní kříž",
                "P131^label:cs": "Kunratice",
                "P6736": "19052"
            },
            "geometry": {
                "type": "Point",
                "coordinates": [
                    14.41613,
                    50.81964
                ]
            }
        },
        {
            "type": "Feature",
            "properties": {
                "label:cs": "Pamětní kříž v Nerudově ulici v České Kamenici",
                "P31": "Pamětní kříž",
                "P131^label:cs": "Česká Kamenice",
                "P6736": "17372"
            },
            "geometry": {
                "type": "Point",
                "coordinates": [
                    14.41667,
                    50.79968
                ]
            }
        },
        {
            "type": "Feature",
            "properties": {
                "label:cs": "Erb na domě v Husově ulici v České Kamenici",
                "P31": "Něco jiného",
                "P131^label:cs": "Česká Kamenice",
                "P6736": "17371"
            },
            "geometry": {
                "type": "Point",
                "coordinates": [
                    14.41607,
                    50.80261
                ]
            }
        },
        {
            "type": "Feature",
            "properties": {
                "label:cs": "kříž nad Mariánskou kaplí v Č. Kamenici",
                "P31": "Pamětní kříž",
                "P131^label:cs": "Česká Kamenice",
                "P6736": "11946"
            },
            "geometry": {
                "type": "Point",
                "coordinates": [
                    14.41443,
                    50.80268
                ]
            }
        },
        {
            "type": "Feature",
            "properties": {
                "label:cs": "kříž v České Kamenici, Lipová ul.",
                "P31": "Pamětní kříž",
                "P131^label:cs": "Česká Kamenice",
                "P6736": "11857"
            },
            "geometry": {
                "type": "Point",
                "coordinates": [
                    14.41774,
                    50.79771
                ]
            }
        },
        {
            "type": "Feature",
            "properties": {
                "label:cs": "Pomník padlým v České Kamenici",
                "P31": "Pomník padlým",
                "P131^label:cs": "Česká Kamenice",
                "P6736": "9513"
            },
            "geometry": {
                "type": "Point",
                "coordinates": [
                    14.41595,
                    50.80187
                ]
            }
        }
    ]
}