{
    "type": "FeatureCollection",
    "features": [
        {
            "type": "Feature",
            "properties": {
                "label:cs": "Pomník padlým na Roztylském náměstí",
                "P31": "Pomník padlým",
                "P131^label:cs": "Praha",
                "P6736": "24112"
            },
            "geometry": {
                "type": "Point",
                "coordinates": [
                    14.47831,
                    50.0448
                ]
            }
        },
        {
            "type": "Feature",
            "properties": {
                "label:cs": "Socha ženy s hroznem vína v Roztylských sadech",
                "P31": "Socha",
                "P131^label:cs": "Praha",
                "P6736": "24111"
            },
            "geometry": {
                "type": "Point",
                "coordinates": [
                    14.48032,
                    50.04281
                ]
            }
        },
        {
            "type": "Feature",
            "properties": {
                "label:cs": "Kamenná plastika Ležící žena u penzionu v Choratické ulici",
                "P31": "Plastika",
                "P131^label:cs": "Praha",
                "P6736": "24106"
            },
            "geometry": {
                "type": "Point",
                "coordinates": [
                    14.48931,
                    50.04745
                ]
            }
        },
        {
            "type": "Feature",
            "properties": {
                "label:cs": "Socha Sedící dívka u parkoviště v Choratické ulici",
                "P31": "Socha",
                "P131^label:cs": "Praha",
                "P6736": "24105"
            },
            "geometry": {
                "type": "Point",
                "coordinates": [
                    14.48894,
                    50.04719
                ]
            }
        },
        {
            "type": "Feature",
            "properties": {
                "label:cs": "Kovová plastika Korouhev u obchodního centra v Hlavní ulici",
                "P31": "Plastika",
                "P131^label:cs": "Praha",
                "P6736": "24104"
            },
            "geometry": {
                "type": "Point",
                "coordinates": [
                    14.48694,
                    50.04676
                ]
            }
        },
        {
            "type": "Feature",
            "properties": {
                "label:cs": "Kamenná plastika Polibek před poliklinikou v Lešanské ulici",
                "P31": "Plastika",
                "P131^label:cs": "Praha",
                "P6736": "24103"
            },
            "geometry": {
                "type": "Point",
                "coordinates": [
                    14.48667,
                    50.04467
                ]
            }
        },
        {
            "type": "Feature",
            "properties": {
                "label:cs": "Kříž v ulici U Plynárny v Michli",
                "P31": "Pamětní kříž",
                "P131^label:cs": "Praha",
                "P6736": "24102"
            },
            "geometry": {
                "type": "Point",
                "coordinates": [
                    14.46607,
                    50.05676
                ]
            }
        },
        {
            "type": "Feature",
            "properties": {
                "label:cs": "Sloup se sousoším v ulici U Plynárny v Michli",
                "P31": "Sloup",
                "P131^label:cs": "Praha",
                "P6736": "24101"
            },
            "geometry": {
                "type": "Point",
                "coordinates": [
                    14.46428,
                    50.05635
                ]
            }
        },
        {
            "type": "Feature",
            "properties": {
                "label:cs": "Kovová plastika v ulici Pod Dálnicí v Michli",
                "P31": "Plastika",
                "P131^label:cs": "Praha",
                "P6736": "24093"
            },
            "geometry": {
                "type": "Point",
                "coordinates": [
                    14.46057,
                    50.04468
                ]
            }
        }
    ]
}