{
    "type": "FeatureCollection",
    "features": [
        {
            "type": "Feature",
            "properties": {
                "label:cs": "Novodobý menhir v parku Parukářka",
                "P31": "Menhir",
                "P131^label:cs": "Praha",
                "P6736": "25159"
            },
            "geometry": {
                "type": "Point",
                "coordinates": [
                    14.46054,
                    50.08529
                ]
            }
        },
        {
            "type": "Feature",
            "properties": {
                "label:cs": "Socha Anna Proletářka v parku v ulici Jana Želivského",
                "P31": "Socha",
                "P131^label:cs": "Praha",
                "P6736": "25158"
            },
            "geometry": {
                "type": "Point",
                "coordinates": [
                    14.4695,
                    50.08823
                ]
            }
        },
        {
            "type": "Feature",
            "properties": {
                "label:cs": "Pomník Julia Fučíka na Olšanských hřbitovech",
                "P31": "Pomník",
                "P131^label:cs": "Praha",
                "P6736": "25157"
            },
            "geometry": {
                "type": "Point",
                "coordinates": [
                    14.47422,
                    50.08247
                ]
            }
        },
        {
            "type": "Feature",
            "properties": {
                "label:cs": "Pomník Jožky Jabůrkové na Olšanských hřbitovech",
                "P31": "Pomník",
                "P131^label:cs": "Praha",
                "P6736": "25156"
            },
            "geometry": {
                "type": "Point",
                "coordinates": [
                    14.47441,
                    50.08251
                ]
            }
        },
        {
            "type": "Feature",
            "properties": {
                "label:cs": "Pomník obětem okupace 1938-1945 z řad policie a četnictva na Olšanských hřbitovech",
                "P31": "Pomník",
                "P131^label:cs": "Praha",
                "P6736": "25155"
            },
            "geometry": {
                "type": "Point",
                "coordinates": [
                    14.4747,
                    50.08247
                ]
            }
        },
        {
            "type": "Feature",
            "properties": {
                "label:cs": "Pomník padlým letcům RAF za 2.světové války na Olšanských hřbitovech",
                "P31": "Pomník padlým",
                "P131^label:cs": "Praha",
                "P6736": "25154"
            },
            "geometry": {
                "type": "Point",
                "coordinates": [
                    14.47505,
                    50.08263
                ]
            }
        },
        {
            "type": "Feature",
            "properties": {
                "label:cs": "Pomník padlým rudoarmějcům na Olšanských hřbitovech",
                "P31": "Pomník padlým",
                "P131^label:cs": "Praha",
                "P6736": "25153"
            },
            "geometry": {
                "type": "Point",
                "coordinates": [
                    14.47381,
                    50.08259
                ]
            }
        },
        {
            "type": "Feature",
            "properties": {
                "label:cs": "Pomník ruským důstojníkům zemřelým na zranění z bitev 1813 na Olšanských hřbitovech",
                "P31": "Pomník padlým",
                "P131^label:cs": "Praha",
                "P6736": "25152"
            },
            "geometry": {
                "type": "Point",
                "coordinates": [
                    14.47449,
                    50.0827
                ]
            }
        },
        {
            "type": "Feature",
            "properties": {
                "label:cs": "Pomník padlým bulharským vojákům na Olšanských hřbitovech",
                "P31": "Pomník padlým",
                "P131^label:cs": "Praha",
                "P6736": "25151"
            },
            "geometry": {
                "type": "Point",
                "coordinates": [
                    14.47493,
                    50.0829
                ]
            }
        },
        {
            "type": "Feature",
            "properties": {
                "label:cs": "Pomník českým a slovenským rudoarmějcům na Olšanských hřbitovech",
                "P31": "Pomník",
                "P131^label:cs": "Praha",
                "P6736": "25150"
            },
            "geometry": {
                "type": "Point",
                "coordinates": [
                    14.47546,
                    50.08296
                ]
            }
        },
        {
            "type": "Feature",
            "properties": {
                "label:cs": "Pomník Jana Švermy na Olšanských hřbitovech",
                "P31": "Pomník",
                "P131^label:cs": "Praha",
                "P6736": "25149"
            },
            "geometry": {
                "type": "Point",
                "coordinates": [
                    14.47538,
                    50.08297
                ]
            }
        },
        {
            "type": "Feature",
            "properties": {
                "label:cs": "Pomník Strašnického vysílače v ulici Na Třebešíně",
                "P31": "Pomník",
                "P131^label:cs": "Praha",
                "P6736": "25148"
            },
            "geometry": {
                "type": "Point",
                "coordinates": [
                    14.48148,
                    50.08208
                ]
            }
        },
        {
            "type": "Feature",
            "properties": {
                "label:cs": "Socha Jaro na rohu ulic V Zahrádkách a Koněvova",
                "P31": "Socha",
                "P131^label:cs": "Praha",
                "P6736": "24241"
            },
            "geometry": {
                "type": "Point",
                "coordinates": [
                    14.48662,
                    50.09227
                ]
            }
        },
        {
            "type": "Feature",
            "properties": {
                "label:cs": "Socha Sedící žena u veterinární kliniky v Koněvově ulici",
                "P31": "Socha",
                "P131^label:cs": "Praha",
                "P6736": "24240"
            },
            "geometry": {
                "type": "Point",
                "coordinates": [
                    14.48773,
                    50.09219
                ]
            }
        },
        {
            "type": "Feature",
            "properties": {
                "label:cs": "Kovová plastika Křídla mezi ubytovnami Koněvova a Chmelnice",
                "P31": "Plastika",
                "P131^label:cs": "Praha",
                "P6736": "24239"
            },
            "geometry": {
                "type": "Point",
                "coordinates": [
                    14.48874,
                    50.09209
                ]
            }
        },
        {
            "type": "Feature",
            "properties": {
                "label:cs": "Plastika Torzo ženy u prodejny Albert v Koněvově ulici",
                "P31": "Plastika",
                "P131^label:cs": "Praha",
                "P6736": "24238"
            },
            "geometry": {
                "type": "Point",
                "coordinates": [
                    14.49747,
                    50.09143
                ]
            }
        },
        {
            "type": "Feature",
            "properties": {
                "label:cs": "Socha matky s dítětem u Waldorfské školky v Koněvově ulici",
                "P31": "Socha",
                "P131^label:cs": "Praha",
                "P6736": "24237"
            },
            "geometry": {
                "type": "Point",
                "coordinates": [
                    14.4949,
                    50.09111
                ]
            }
        },
        {
            "type": "Feature",
            "properties": {
                "label:cs": "Kamenná plastika v ulici Na Rovnosti",
                "P31": "Plastika",
                "P131^label:cs": "Praha",
                "P6736": "24236"
            },
            "geometry": {
                "type": "Point",
                "coordinates": [
                    14.4895,
                    50.08788
                ]
            }
        },
        {
            "type": "Feature",
            "properties": {
                "label:cs": "Socha ženy před Business centrem v Malešické ulici",
                "P31": "Socha",
                "P131^label:cs": "Praha",
                "P6736": "24235"
            },
            "geometry": {
                "type": "Point",
                "coordinates": [
                    14.48489,
                    50.0871
                ]
            }
        },
        {
            "type": "Feature",
            "properties": {
                "label:cs": "Socha matky s dítětem před Ošetřovatelským domem v Habrové ulici",
                "P31": "Socha",
                "P131^label:cs": "Praha",
                "P6736": "24234"
            },
            "geometry": {
                "type": "Point",
                "coordinates": [
                    14.49421,
                    50.08846
                ]
            }
        },
        {
            "type": "Feature",
            "properties": {
                "label:cs": "Pomník padlým v Habrové ulici",
                "P31": "Pomník padlým",
                "P131^label:cs": "Praha",
                "P6736": "24233"
            },
            "geometry": {
                "type": "Point",
                "coordinates": [
                    14.49121,
                    50.0876
                ]
            }
        },
        {
            "type": "Feature",
            "properties": {
                "label:cs": "Moderní fontána s mnoha kaskádami v Malešickém parku",
                "P31": "Kašna",
                "P131^label:cs": "Praha",
                "P6736": "24232"
            },
            "geometry": {
                "type": "Point",
                "coordinates": [
                    14.49834,
                    50.0851
                ]
            }
        },
        {
            "type": "Feature",
            "properties": {
                "label:cs": "Kovová plastika Koule v Malešickém parku",
                "P31": "Plastika",
                "P131^label:cs": "Praha",
                "P6736": "24230"
            },
            "geometry": {
                "type": "Point",
                "coordinates": [
                    14.49876,
                    50.08435
                ]
            }
        },
        {
            "type": "Feature",
            "properties": {
                "label:cs": "Socha dívky s knihou u školy Nad Vodovodem",
                "P31": "Socha",
                "P131^label:cs": "Praha",
                "P6736": "24219"
            },
            "geometry": {
                "type": "Point",
                "coordinates": [
                    14.49852,
                    50.08235
                ]
            }
        },
        {
            "type": "Feature",
            "properties": {
                "label:cs": "Socha před poliklinikou v Plaňanské ulici",
                "P31": "Socha",
                "P131^label:cs": "Praha",
                "P6736": "24218"
            },
            "geometry": {
                "type": "Point",
                "coordinates": [
                    14.50146,
                    50.08029
                ]
            }
        },
        {
            "type": "Feature",
            "properties": {
                "label:cs": "Socha svatého Václava na průčelí kostela na náměstí Svatopluka Čecha",
                "P31": "Socha",
                "P131^label:cs": "Praha",
                "P6736": "23812"
            },
            "geometry": {
                "type": "Point",
                "coordinates": [
                    14.45929,
                    50.06899
                ]
            }
        },
        {
            "type": "Feature",
            "properties": {
                "label:cs": "Sousoší Matka s dětmi v Taškentské ulici",
                "P31": "Socha",
                "P131^label:cs": "Praha",
                "P6736": "23811"
            },
            "geometry": {
                "type": "Point",
                "coordinates": [
                    14.46347,
                    50.0671
                ]
            }
        },
        {
            "type": "Feature",
            "properties": {
                "label:cs": "Socha Akrobatka v Turkmenské ulici",
                "P31": "Socha",
                "P131^label:cs": "Praha",
                "P6736": "23810"
            },
            "geometry": {
                "type": "Point",
                "coordinates": [
                    14.46439,
                    50.06731
                ]
            }
        },
        {
            "type": "Feature",
            "properties": {
                "label:cs": "Socha Chlapec s modelem letadla v Tádžické ulici",
                "P31": "Socha",
                "P131^label:cs": "Praha",
                "P6736": "23809"
            },
            "geometry": {
                "type": "Point",
                "coordinates": [
                    14.46524,
                    50.06747
                ]
            }
        },
        {
            "type": "Feature",
            "properties": {
                "label:cs": "Socha Mladí milenci v Kazašské ulici",
                "P31": "Socha",
                "P131^label:cs": "Praha",
                "P6736": "23808"
            },
            "geometry": {
                "type": "Point",
                "coordinates": [
                    14.46607,
                    50.06765
                ]
            }
        },
        {
            "type": "Feature",
            "properties": {
                "label:cs": "Kamenná plastika u budovy bývalého Chemapolu v Kodaňské ulici",
                "P31": "Plastika",
                "P131^label:cs": "Praha",
                "P6736": "23807"
            },
            "geometry": {
                "type": "Point",
                "coordinates": [
                    14.46347,
                    50.06976
                ]
            }
        },
        {
            "type": "Feature",
            "properties": {
                "label:cs": "Kašna na Kubánském náměstí",
                "P31": "Kašna",
                "P131^label:cs": "Praha",
                "P6736": "23806"
            },
            "geometry": {
                "type": "Point",
                "coordinates": [
                    14.47851,
                    50.07124
                ]
            }
        },
        {
            "type": "Feature",
            "properties": {
                "label:cs": "Kříž v ulici V Zátočce",
                "P31": "Pamětní kříž",
                "P131^label:cs": "Praha",
                "P6736": "23805"
            },
            "geometry": {
                "type": "Point",
                "coordinates": [
                    14.4937,
                    50.07077
                ]
            }
        },
        {
            "type": "Feature",
            "properties": {
                "label:cs": "Kaple Panny Marie v ulici Ke Strašnické",
                "P31": "Kaple",
                "P131^label:cs": "Praha",
                "P6736": "23804"
            },
            "geometry": {
                "type": "Point",
                "coordinates": [
                    14.49475,
                    50.06868
                ]
            }
        },
        {
            "type": "Feature",
            "properties": {
                "label:cs": "Kašna u křižovatky Vinohradské a Izraelské v Praze",
                "P31": "Kašna",
                "P131^label:cs": "Praha",
                "P6736": "11440"
            },
            "geometry": {
                "type": "Point",
                "coordinates": [
                    14.47346,
                    50.07868
                ]
            }
        },
        {
            "type": "Feature",
            "properties": {
                "label:cs": "Velký kříž na Vinohradském hřbitově v Praze",
                "P31": "Pamětní kříž",
                "P131^label:cs": "Praha",
                "P6736": "11439"
            },
            "geometry": {
                "type": "Point",
                "coordinates": [
                    14.47993,
                    50.07699
                ]
            }
        },
        {
            "type": "Feature",
            "properties": {
                "label:cs": "Socha u Vinohradského hřbitova v Praze",
                "P31": "Socha",
                "P131^label:cs": "Praha",
                "P6736": "11438"
            },
            "geometry": {
                "type": "Point",
                "coordinates": [
                    14.48031,
                    50.07738
                ]
            }
        },
        {
            "type": "Feature",
            "properties": {
                "label:cs": "Památník Sokolu u Vinohradského hřbitova v Praze",
                "P31": "Památník",
                "P131^label:cs": "Praha",
                "P6736": "11437"
            },
            "geometry": {
                "type": "Point",
                "coordinates": [
                    14.48511,
                    50.0768
                ]
            }
        },
        {
            "type": "Feature",
            "properties": {
                "label:cs": "Památník vlastenců u Vinohradského hřbitova v Praze",
                "P31": "Památník",
                "P131^label:cs": "Praha",
                "P6736": "11436"
            },
            "geometry": {
                "type": "Point",
                "coordinates": [
                    14.48469,
                    50.07665
                ]
            }
        },
        {
            "type": "Feature",
            "properties": {
                "label:cs": "Památník skautů a skautek u Vinohradského hřbitova",
                "P31": "Památník",
                "P131^label:cs": "Praha",
                "P6736": "11435"
            },
            "geometry": {
                "type": "Point",
                "coordinates": [
                    14.48475,
                    50.07667
                ]
            }
        },
        {
            "type": "Feature",
            "properties": {
                "label:cs": "Kašna u Vinohradského hřbitova v Praze",
                "P31": "Kašna",
                "P131^label:cs": "Praha",
                "P6736": "11434"
            },
            "geometry": {
                "type": "Point",
                "coordinates": [
                    14.48487,
                    50.07648
                ]
            }
        },
        {
            "type": "Feature",
            "properties": {
                "label:cs": "Plastika v parku Ivana Jilemnického v Praze",
                "P31": "Plastika",
                "P131^label:cs": "Praha",
                "P6736": "11433"
            },
            "geometry": {
                "type": "Point",
                "coordinates": [
                    14.49029,
                    50.07731
                ]
            }
        },
        {
            "type": "Feature",
            "properties": {
                "label:cs": "Plastika v parku Ivana Jilemnického v Praze",
                "P31": "Plastika",
                "P131^label:cs": "Praha",
                "P6736": "11432"
            },
            "geometry": {
                "type": "Point",
                "coordinates": [
                    14.49022,
                    50.07747
                ]
            }
        },
        {
            "type": "Feature",
            "properties": {
                "label:cs": "Památník obětem druhé světové války ve Strašnicicích",
                "P31": "Památník",
                "P131^label:cs": "Praha",
                "P6736": "11431"
            },
            "geometry": {
                "type": "Point",
                "coordinates": [
                    14.48977,
                    50.07719
                ]
            }
        },
        {
            "type": "Feature",
            "properties": {
                "label:cs": "Pítko v parku Ivana Jilemnického v Praze",
                "P31": "Kašna",
                "P131^label:cs": "Praha",
                "P6736": "11430"
            },
            "geometry": {
                "type": "Point",
                "coordinates": [
                    14.48983,
                    50.0771
                ]
            }
        },
        {
            "type": "Feature",
            "properties": {
                "label:cs": "Plastika u ulice Na Palouku v Praze",
                "P31": "Plastika",
                "P131^label:cs": "Praha",
                "P6736": "11429"
            },
            "geometry": {
                "type": "Point",
                "coordinates": [
                    14.489,
                    50.07714
                ]
            }
        },
        {
            "type": "Feature",
            "properties": {
                "label:cs": "Památník horolezecké výpravy z Peru v Praze",
                "P31": "Památník",
                "P131^label:cs": "Praha",
                "P6736": "11428"
            },
            "geometry": {
                "type": "Point",
                "coordinates": [
                    14.49872,
                    50.07944
                ]
            }
        },
        {
            "type": "Feature",
            "properties": {
                "label:cs": "Plastika v Parku Na Solidaritě v Praze",
                "P31": "Plastika",
                "P131^label:cs": "Praha",
                "P6736": "11427"
            },
            "geometry": {
                "type": "Point",
                "coordinates": [
                    14.49968,
                    50.077
                ]
            }
        },
        {
            "type": "Feature",
            "properties": {
                "label:cs": "Plastika na panelovém domě v Přemyslovské ulici Žižkově",
                "P31": "Plastika",
                "P131^label:cs": "Praha",
                "P6736": "9454"
            },
            "geometry": {
                "type": "Point",
                "coordinates": [
                    14.46037,
                    50.07865
                ]
            }
        }
    ]
}