{
    "type": "FeatureCollection",
    "features": [
        {
            "type": "Feature",
            "properties": {
                "label:cs": "Plastika na náměstí Jana Heřmana v Neveklově",
                "P31": "Plastika",
                "P131^label:cs": "Neveklov",
                "P6736": "11330"
            },
            "geometry": {
                "type": "Point",
                "coordinates": [
                    14.53335,
                    49.75346
                ]
            }
        },
        {
            "type": "Feature",
            "properties": {
                "label:cs": "Kaplička v Neveklově na křižovatce",
                "P31": "Kaplička",
                "P131^label:cs": "Neveklov",
                "P6736": "6961"
            },
            "geometry": {
                "type": "Point",
                "coordinates": [
                    14.53037,
                    49.75307
                ]
            }
        },
        {
            "type": "Feature",
            "properties": {
                "label:cs": "Kříž před vchodem do kostela v Neveklově",
                "P31": "Pamětní kříž",
                "P131^label:cs": "Neveklov",
                "P6736": "6960"
            },
            "geometry": {
                "type": "Point",
                "coordinates": [
                    14.53183,
                    49.75299
                ]
            }
        },
        {
            "type": "Feature",
            "properties": {
                "label:cs": "Kříž u kostela na zdi v Neveklově",
                "P31": "Pamětní kříž",
                "P131^label:cs": "Neveklov",
                "P6736": "6959"
            },
            "geometry": {
                "type": "Point",
                "coordinates": [
                    14.53228,
                    49.75289
                ]
            }
        },
        {
            "type": "Feature",
            "properties": {
                "label:cs": "Kříž na náměstí v Neveklově",
                "P31": "Pamětní kříž",
                "P131^label:cs": "Neveklov",
                "P6736": "6958"
            },
            "geometry": {
                "type": "Point",
                "coordinates": [
                    14.53335,
                    49.75323
                ]
            }
        },
        {
            "type": "Feature",
            "properties": {
                "label:cs": "Boží muka v Neveklově na náměstí",
                "P31": "Boží muka",
                "P131^label:cs": "Neveklov",
                "P6736": "6955"
            },
            "geometry": {
                "type": "Point",
                "coordinates": [
                    14.53318,
                    49.7538
                ]
            }
        },
        {
            "type": "Feature",
            "properties": {
                "label:cs": "Pomník padlým v Neveklově",
                "P31": "Pomník padlým",
                "P131^label:cs": "Neveklov",
                "P6736": "6954"
            },
            "geometry": {
                "type": "Point",
                "coordinates": [
                    14.53339,
                    49.7531
                ]
            }
        }
    ]
}