{
    "type": "FeatureCollection",
    "features": [
        {
            "type": "Feature",
            "properties": {
                "label:cs": "Kříž v Hlavní ulici v Mlékojedech u Neratovic",
                "P31": "Pamětní kříž",
                "P131^label:cs": "Neratovice",
                "P6736": "24210"
            },
            "geometry": {
                "type": "Point",
                "coordinates": [
                    14.53387,
                    50.25983
                ]
            }
        },
        {
            "type": "Feature",
            "properties": {
                "label:cs": "Pomník padlým v 1.světové válce v Mlékojedech u Neratovic",
                "P31": "Pomník padlým",
                "P131^label:cs": "Neratovice",
                "P6736": "24209"
            },
            "geometry": {
                "type": "Point",
                "coordinates": [
                    14.53249,
                    50.25884
                ]
            }
        },
        {
            "type": "Feature",
            "properties": {
                "label:cs": "Pomník Štefana Uhra v Mlékojedech u Neratovic",
                "P31": "Pomník",
                "P131^label:cs": "Neratovice",
                "P6736": "24208"
            },
            "geometry": {
                "type": "Point",
                "coordinates": [
                    14.53244,
                    50.25876
                ]
            }
        },
        {
            "type": "Feature",
            "properties": {
                "label:cs": "Kaple v Mlékojedech u Neratovic",
                "P31": "Kaple",
                "P131^label:cs": "Neratovice",
                "P6736": "24207"
            },
            "geometry": {
                "type": "Point",
                "coordinates": [
                    14.53202,
                    50.25832
                ]
            }
        },
        {
            "type": "Feature",
            "properties": {
                "label:cs": "Plastika Kamenná kniha na břehu Labe v Lobkovicích",
                "P31": "Plastika",
                "P131^label:cs": "Neratovice",
                "P6736": "24202"
            },
            "geometry": {
                "type": "Point",
                "coordinates": [
                    14.53527,
                    50.25326
                ]
            }
        },
        {
            "type": "Feature",
            "properties": {
                "label:cs": "Pomník padlým v parku u kostela v Lobkovicích",
                "P31": "Pomník padlým",
                "P131^label:cs": "Neratovice",
                "P6736": "24201"
            },
            "geometry": {
                "type": "Point",
                "coordinates": [
                    14.53265,
                    50.25274
                ]
            }
        },
        {
            "type": "Feature",
            "properties": {
                "label:cs": "Zvonice u kostela v Lobkovicích",
                "P31": "Zvonička",
                "P131^label:cs": "Neratovice",
                "P6736": "24200"
            },
            "geometry": {
                "type": "Point",
                "coordinates": [
                    14.53295,
                    50.25237
                ]
            }
        },
        {
            "type": "Feature",
            "properties": {
                "label:cs": "Kříž u železniční zastávky Lobkovice",
                "P31": "Pamětní kříž",
                "P131^label:cs": "Neratovice",
                "P6736": "24199"
            },
            "geometry": {
                "type": "Point",
                "coordinates": [
                    14.53089,
                    50.25071
                ]
            }
        },
        {
            "type": "Feature",
            "properties": {
                "label:cs": "Socha matky s dcerou u školky v ulici OSN v Neratovicích",
                "P31": "Socha",
                "P131^label:cs": "Neratovice",
                "P6736": "24198"
            },
            "geometry": {
                "type": "Point",
                "coordinates": [
                    14.51598,
                    50.25241
                ]
            }
        },
        {
            "type": "Feature",
            "properties": {
                "label:cs": "Kamenná plastika Plavkyně u plavecké haly v Neratovicích",
                "P31": "Plastika",
                "P131^label:cs": "Neratovice",
                "P6736": "24197"
            },
            "geometry": {
                "type": "Point",
                "coordinates": [
                    14.51816,
                    50.25864
                ]
            }
        },
        {
            "type": "Feature",
            "properties": {
                "label:cs": "Masarykův pomník u gymnázia v Neratovicích",
                "P31": "Pomník",
                "P131^label:cs": "Neratovice",
                "P6736": "24196"
            },
            "geometry": {
                "type": "Point",
                "coordinates": [
                    14.51883,
                    50.26014
                ]
            }
        },
        {
            "type": "Feature",
            "properties": {
                "label:cs": "Pomník Bedřicha Smetany v parku v Smetanově ulici v Neratovicích",
                "P31": "Pomník",
                "P131^label:cs": "Neratovice",
                "P6736": "24195"
            },
            "geometry": {
                "type": "Point",
                "coordinates": [
                    14.51577,
                    50.26035
                ]
            }
        }
    ]
}