{
    "type": "FeatureCollection",
    "features": [
        {
            "type": "Feature",
            "properties": {
                "label:cs": "Kříž v Komárově u křižovatky",
                "P31": "Pamětní kříž",
                "P131^label:cs": "Komárov",
                "P6736": "6397"
            },
            "geometry": {
                "type": "Point",
                "coordinates": [
                    14.59424,
                    49.25061
                ]
            }
        },
        {
            "type": "Feature",
            "properties": {
                "label:cs": "Pomník padlým v Komárově",
                "P31": "Pomník padlým",
                "P131^label:cs": "Komárov",
                "P6736": "6395"
            },
            "geometry": {
                "type": "Point",
                "coordinates": [
                    14.59279,
                    49.25078
                ]
            }
        },
        {
            "type": "Feature",
            "properties": {
                "label:cs": "Kaple v Komárově",
                "P31": "Kaple",
                "P131^label:cs": "Komárov",
                "P6736": "6396"
            },
            "geometry": {
                "type": "Point",
                "coordinates": [
                    14.59336,
                    49.2504
                ]
            }
        },
        {
            "type": "Feature",
            "properties": {
                "label:cs": "Kříž u lesa mezi Komárovem a Svinkami",
                "P31": "Pamětní kříž",
                "P131^label:cs": "Vlastiboř",
                "P6736": "2592"
            },
            "geometry": {
                "type": "Point",
                "coordinates": [
                    14.61283,
                    49.26749
                ]
            }
        },
        {
            "type": "Feature",
            "properties": {
                "label:cs": "Kříž západně od Komárova",
                "P31": "Pamětní kříž",
                "P131^label:cs": "Komárov",
                "P6736": "1755"
            },
            "geometry": {
                "type": "Point",
                "coordinates": [
                    14.58995,
                    49.25114
                ]
            }
        }
    ]
}