{
    "type": "FeatureCollection",
    "features": [
        {
            "type": "Feature",
            "properties": {
                "label:cs": "Kříž u Černého Lesa",
                "P31": "Pamětní kříž",
                "P131^label:cs": "Balkova Lhota",
                "P6736": "10712"
            },
            "geometry": {
                "type": "Point",
                "coordinates": [
                    14.59171,
                    49.45345
                ]
            }
        },
        {
            "type": "Feature",
            "properties": {
                "label:cs": "Kříž v Radkově za plotem",
                "P31": "Pamětní kříž",
                "P131^label:cs": "Radkov",
                "P6736": "7064"
            },
            "geometry": {
                "type": "Point",
                "coordinates": [
                    14.61303,
                    49.46432
                ]
            }
        },
        {
            "type": "Feature",
            "properties": {
                "label:cs": "Pomník padlým v Radkově",
                "P31": "Pomník padlým",
                "P131^label:cs": "Radkov",
                "P6736": "7063"
            },
            "geometry": {
                "type": "Point",
                "coordinates": [
                    14.61207,
                    49.46576
                ]
            }
        },
        {
            "type": "Feature",
            "properties": {
                "label:cs": "Kaple v Radkově",
                "P31": "Kaple",
                "P131^label:cs": "Radkov",
                "P6736": "7062"
            },
            "geometry": {
                "type": "Point",
                "coordinates": [
                    14.61202,
                    49.46566
                ]
            }
        },
        {
            "type": "Feature",
            "properties": {
                "label:cs": "Pomník padlým u Balkovy Lhoty",
                "P31": "Pomník padlým",
                "P131^label:cs": "Balkova Lhota",
                "P6736": "7061"
            },
            "geometry": {
                "type": "Point",
                "coordinates": [
                    14.60898,
                    49.45428
                ]
            }
        },
        {
            "type": "Feature",
            "properties": {
                "label:cs": "Kaple v Balkově Lhotě",
                "P31": "Kaple",
                "P131^label:cs": "Balkova Lhota",
                "P6736": "7060"
            },
            "geometry": {
                "type": "Point",
                "coordinates": [
                    14.60792,
                    49.45201
                ]
            }
        }
    ]
}