{
    "type": "FeatureCollection",
    "features": [
        {
            "type": "Feature",
            "properties": {
                "label:cs": "Kaplička u Horusic",
                "P31": "Kaplička",
                "P131^label:cs": "Veselí nad Lužnicí",
                "P6736": "6292"
            },
            "geometry": {
                "type": "Point",
                "coordinates": [
                    14.67339,
                    49.16579
                ]
            }
        },
        {
            "type": "Feature",
            "properties": {
                "label:cs": "Kříž u kaple v Horusicích",
                "P31": "Pamětní kříž",
                "P131^label:cs": "Veselí nad Lužnicí",
                "P6736": "6291"
            },
            "geometry": {
                "type": "Point",
                "coordinates": [
                    14.67138,
                    49.16438
                ]
            }
        },
        {
            "type": "Feature",
            "properties": {
                "label:cs": "Kaple v Horusicích",
                "P31": "Kaple",
                "P131^label:cs": "Veselí nad Lužnicí",
                "P6736": "6290"
            },
            "geometry": {
                "type": "Point",
                "coordinates": [
                    14.67143,
                    49.16431
                ]
            }
        },
        {
            "type": "Feature",
            "properties": {
                "label:cs": "Pomník padlým v Horusicích",
                "P31": "Pomník padlým",
                "P131^label:cs": "Veselí nad Lužnicí",
                "P6736": "6289"
            },
            "geometry": {
                "type": "Point",
                "coordinates": [
                    14.67056,
                    49.16434
                ]
            }
        },
        {
            "type": "Feature",
            "properties": {
                "label:cs": "Kaple v Kundraticích",
                "P31": "Kaple",
                "P131^label:cs": "Sviny",
                "P6736": "6288"
            },
            "geometry": {
                "type": "Point",
                "coordinates": [
                    14.64415,
                    49.17788
                ]
            }
        },
        {
            "type": "Feature",
            "properties": {
                "label:cs": "Kříž u kaple v Kundraticích",
                "P31": "Pamětní kříž",
                "P131^label:cs": "Sviny",
                "P6736": "6287"
            },
            "geometry": {
                "type": "Point",
                "coordinates": [
                    14.64361,
                    49.17795
                ]
            }
        },
        {
            "type": "Feature",
            "properties": {
                "label:cs": "Kříž u Kundratic",
                "P31": "Pamětní kříž",
                "P131^label:cs": "Sviny",
                "P6736": "1839"
            },
            "geometry": {
                "type": "Point",
                "coordinates": [
                    14.64884,
                    49.17972
                ]
            }
        }
    ]
}