{
    "type": "FeatureCollection",
    "features": [
        {
            "type": "Feature",
            "properties": {
                "label:cs": "Mohyla na Kočičím vršku u Mláky",
                "P31": "Památník",
                "P131^label:cs": "Novosedly nad Nežárkou",
                "P6736": "11829"
            },
            "geometry": {
                "type": "Point",
                "coordinates": [
                    14.82057,
                    49.06244
                ]
            }
        },
        {
            "type": "Feature",
            "properties": {
                "label:cs": "Boží muka u hájovny Hodějov",
                "P31": "Boží muka",
                "P131^label:cs": "Novosedly nad Nežárkou",
                "P6736": "11828"
            },
            "geometry": {
                "type": "Point",
                "coordinates": [
                    14.83663,
                    49.05416
                ]
            }
        },
        {
            "type": "Feature",
            "properties": {
                "label:cs": "Pomník padlým v Mláce",
                "P31": "Pomník padlým",
                "P131^label:cs": "Novosedly nad Nežárkou",
                "P6736": "11827"
            },
            "geometry": {
                "type": "Point",
                "coordinates": [
                    14.84185,
                    49.05999
                ]
            }
        },
        {
            "type": "Feature",
            "properties": {
                "label:cs": "Kříž v Mláce na křižovatce",
                "P31": "Pamětní kříž",
                "P131^label:cs": "Novosedly nad Nežárkou",
                "P6736": "11826"
            },
            "geometry": {
                "type": "Point",
                "coordinates": [
                    14.84494,
                    49.06192
                ]
            }
        },
        {
            "type": "Feature",
            "properties": {
                "label:cs": "Kříž v Mláce u čp. 36",
                "P31": "Pamětní kříž",
                "P131^label:cs": "Novosedly nad Nežárkou",
                "P6736": "11825"
            },
            "geometry": {
                "type": "Point",
                "coordinates": [
                    14.8457,
                    49.06267
                ]
            }
        },
        {
            "type": "Feature",
            "properties": {
                "label:cs": "Kříž v Mláce u kostela",
                "P31": "Pamětní kříž",
                "P131^label:cs": "Novosedly nad Nežárkou",
                "P6736": "11824"
            },
            "geometry": {
                "type": "Point",
                "coordinates": [
                    14.84975,
                    49.06514
                ]
            }
        }
    ]
}