{
    "type": "FeatureCollection",
    "features": [
        {
            "type": "Feature",
            "properties": {
                "label:cs": "Pomník padlým v Třebešicích u Divišova",
                "P31": "Pomník padlým",
                "P131^label:cs": "Třebešice",
                "P6736": "11256"
            },
            "geometry": {
                "type": "Point",
                "coordinates": [
                    14.83195,
                    49.77402
                ]
            }
        },
        {
            "type": "Feature",
            "properties": {
                "label:cs": "Kaple v Býkovicích",
                "P31": "Kaple",
                "P131^label:cs": "Struhařov",
                "P6736": "6780"
            },
            "geometry": {
                "type": "Point",
                "coordinates": [
                    14.82032,
                    49.76851
                ]
            }
        },
        {
            "type": "Feature",
            "properties": {
                "label:cs": "Kříž u kaple v Býkovicích",
                "P31": "Pamětní kříž",
                "P131^label:cs": "Struhařov",
                "P6736": "6779"
            },
            "geometry": {
                "type": "Point",
                "coordinates": [
                    14.82035,
                    49.76849
                ]
            }
        },
        {
            "type": "Feature",
            "properties": {
                "label:cs": "Kříž v Třebešicích v zahradě",
                "P31": "Pamětní kříž",
                "P131^label:cs": "Třebešice",
                "P6736": "6778"
            },
            "geometry": {
                "type": "Point",
                "coordinates": [
                    14.83139,
                    49.7771
                ]
            }
        },
        {
            "type": "Feature",
            "properties": {
                "label:cs": "Kaplička v Třebešicích",
                "P31": "Kaplička",
                "P131^label:cs": "Třebešice",
                "P6736": "6777"
            },
            "geometry": {
                "type": "Point",
                "coordinates": [
                    14.83061,
                    49.7776
                ]
            }
        },
        {
            "type": "Feature",
            "properties": {
                "label:cs": "Kříž u Třebešic",
                "P31": "Pamětní kříž",
                "P131^label:cs": "Třebešice",
                "P6736": "2672"
            },
            "geometry": {
                "type": "Point",
                "coordinates": [
                    14.8275,
                    49.77681
                ]
            }
        },
        {
            "type": "Feature",
            "properties": {
                "label:cs": "Kříž mezi Třebešicemi a Býkovicemi",
                "P31": "Pamětní kříž",
                "P131^label:cs": "Struhařov",
                "P6736": "1311"
            },
            "geometry": {
                "type": "Point",
                "coordinates": [
                    14.82397,
                    49.76995
                ]
            }
        },
        {
            "type": "Feature",
            "properties": {
                "label:cs": "Kříž v poli nad Býkovicemi",
                "P31": "Pamětní kříž",
                "P131^label:cs": "Struhařov",
                "P6736": "1310"
            },
            "geometry": {
                "type": "Point",
                "coordinates": [
                    14.82507,
                    49.76226
                ]
            }
        },
        {
            "type": "Feature",
            "properties": {
                "label:cs": "Kříž severně od Takonína",
                "P31": "Pamětní kříž",
                "P131^label:cs": "Bílkovice",
                "P6736": "1230"
            },
            "geometry": {
                "type": "Point",
                "coordinates": [
                    14.84007,
                    49.76412
                ]
            }
        },
        {
            "type": "Feature",
            "properties": {
                "label:cs": "Kříž u Takonína",
                "P31": "Pamětní kříž",
                "P131^label:cs": "Bílkovice",
                "P6736": "1229"
            },
            "geometry": {
                "type": "Point",
                "coordinates": [
                    14.83838,
                    49.75733
                ]
            }
        }
    ]
}