{
    "type": "FeatureCollection",
    "features": [
        {
            "type": "Feature",
            "properties": {
                "label:cs": "Kříž severně od Krtova u zatáčky",
                "P31": "Pamětní kříž",
                "P131^label:cs": "Krtov",
                "P6736": "13431"
            },
            "geometry": {
                "type": "Point",
                "coordinates": [
                    14.83018,
                    49.35677
                ]
            }
        },
        {
            "type": "Feature",
            "properties": {
                "label:cs": "Kaple v Bítově",
                "P31": "Kaple",
                "P131^label:cs": "Radenín",
                "P6736": "7922"
            },
            "geometry": {
                "type": "Point",
                "coordinates": [
                    14.81795,
                    49.37835
                ]
            }
        },
        {
            "type": "Feature",
            "properties": {
                "label:cs": "Boží muka v Radeníně",
                "P31": "Boží muka",
                "P131^label:cs": "Radenín",
                "P6736": "7921"
            },
            "geometry": {
                "type": "Point",
                "coordinates": [
                    14.84139,
                    49.36974
                ]
            }
        },
        {
            "type": "Feature",
            "properties": {
                "label:cs": "Kaple v Radeníně",
                "P31": "Kaple",
                "P131^label:cs": "Radenín",
                "P6736": "7920"
            },
            "geometry": {
                "type": "Point",
                "coordinates": [
                    14.84114,
                    49.36919
                ]
            }
        },
        {
            "type": "Feature",
            "properties": {
                "label:cs": "Kaplička v poli východně od Radenína",
                "P31": "Kaplička",
                "P131^label:cs": "Radenín",
                "P6736": "3152"
            },
            "geometry": {
                "type": "Point",
                "coordinates": [
                    14.85304,
                    49.36583
                ]
            }
        },
        {
            "type": "Feature",
            "properties": {
                "label:cs": "Kříž severně od Terezína v poli vlevo",
                "P31": "Pamětní kříž",
                "P131^label:cs": "Krtov",
                "P6736": "3150"
            },
            "geometry": {
                "type": "Point",
                "coordinates": [
                    14.84626,
                    49.35923
                ]
            }
        },
        {
            "type": "Feature",
            "properties": {
                "label:cs": "Kříž severně od Terezína v poli",
                "P31": "Pamětní kříž",
                "P131^label:cs": "Radenín",
                "P6736": "3149"
            },
            "geometry": {
                "type": "Point",
                "coordinates": [
                    14.84638,
                    49.35921
                ]
            }
        },
        {
            "type": "Feature",
            "properties": {
                "label:cs": "Kaple v Terezíně",
                "P31": "Kaple",
                "P131^label:cs": "Radenín",
                "P6736": "3148"
            },
            "geometry": {
                "type": "Point",
                "coordinates": [
                    14.84824,
                    49.35619
                ]
            }
        },
        {
            "type": "Feature",
            "properties": {
                "label:cs": "Kříž v Terezíně",
                "P31": "Pamětní kříž",
                "P131^label:cs": "Radenín",
                "P6736": "3147"
            },
            "geometry": {
                "type": "Point",
                "coordinates": [
                    14.84827,
                    49.35622
                ]
            }
        },
        {
            "type": "Feature",
            "properties": {
                "label:cs": "Kříž jižně od Terezína",
                "P31": "Pamětní kříž",
                "P131^label:cs": "Radenín",
                "P6736": "3146"
            },
            "geometry": {
                "type": "Point",
                "coordinates": [
                    14.84414,
                    49.35433
                ]
            }
        },
        {
            "type": "Feature",
            "properties": {
                "label:cs": "Kaple východně od Radenína",
                "P31": "Kaple",
                "P131^label:cs": "Radenín",
                "P6736": "2424"
            },
            "geometry": {
                "type": "Point",
                "coordinates": [
                    14.84725,
                    49.36866
                ]
            }
        },
        {
            "type": "Feature",
            "properties": {
                "label:cs": "Kříž východně od Bítova",
                "P31": "Pamětní kříž",
                "P131^label:cs": "Radenín",
                "P6736": "1243"
            },
            "geometry": {
                "type": "Point",
                "coordinates": [
                    14.82279,
                    49.37901
                ]
            }
        }
    ]
}