{
    "type": "FeatureCollection",
    "features": [
        {
            "type": "Feature",
            "properties": {
                "label:cs": "Kříž východně od Těchobuzi",
                "P31": "Pamětní kříž",
                "P131^label:cs": "Těchobuz",
                "P6736": "16474"
            },
            "geometry": {
                "type": "Point",
                "coordinates": [
                    14.93591,
                    49.51085
                ]
            }
        },
        {
            "type": "Feature",
            "properties": {
                "label:cs": "Kaple severně od Těchobuzi",
                "P31": "Kaple",
                "P131^label:cs": "Těchobuz",
                "P6736": "16470"
            },
            "geometry": {
                "type": "Point",
                "coordinates": [
                    14.92802,
                    49.51283
                ]
            }
        },
        {
            "type": "Feature",
            "properties": {
                "label:cs": "Kříž na návsi v Těchobuzi",
                "P31": "Pamětní kříž",
                "P131^label:cs": "Těchobuz",
                "P6736": "16469"
            },
            "geometry": {
                "type": "Point",
                "coordinates": [
                    14.93003,
                    49.51009
                ]
            }
        },
        {
            "type": "Feature",
            "properties": {
                "label:cs": "Pomník padlým v Těchobuzi",
                "P31": "Pomník padlým",
                "P131^label:cs": "Těchobuz",
                "P6736": "16468"
            },
            "geometry": {
                "type": "Point",
                "coordinates": [
                    14.93012,
                    49.5101
                ]
            }
        },
        {
            "type": "Feature",
            "properties": {
                "label:cs": "Kříž jižně od Těchobuzi",
                "P31": "Pamětní kříž",
                "P131^label:cs": "Těchobuz",
                "P6736": "16467"
            },
            "geometry": {
                "type": "Point",
                "coordinates": [
                    14.93401,
                    49.50708
                ]
            }
        },
        {
            "type": "Feature",
            "properties": {
                "label:cs": "Kříž severně od Zhoře u okraje lesa",
                "P31": "Pamětní kříž",
                "P131^label:cs": "Pacov",
                "P6736": "16466"
            },
            "geometry": {
                "type": "Point",
                "coordinates": [
                    14.93945,
                    49.50191
                ]
            }
        },
        {
            "type": "Feature",
            "properties": {
                "label:cs": "Kříž severně od Zhoře",
                "P31": "Pamětní kříž",
                "P131^label:cs": "Pacov",
                "P6736": "16465"
            },
            "geometry": {
                "type": "Point",
                "coordinates": [
                    14.94109,
                    49.49932
                ]
            }
        },
        {
            "type": "Feature",
            "properties": {
                "label:cs": "Kříž na rozcestí u Těchobuzi",
                "P31": "Pamětní kříž",
                "P131^label:cs": "Těchobuz",
                "P6736": "2626"
            },
            "geometry": {
                "type": "Point",
                "coordinates": [
                    14.93591,
                    49.51084
                ]
            }
        },
        {
            "type": "Feature",
            "properties": {
                "label:cs": "Kaplička severně od Pojbuk",
                "P31": "Kaplička",
                "P131^label:cs": "Pojbuky",
                "P6736": "2344"
            },
            "geometry": {
                "type": "Point",
                "coordinates": [
                    14.89764,
                    49.50019
                ]
            }
        }
    ]
}