{
    "type": "FeatureCollection",
    "features": [
        {
            "type": "Feature",
            "properties": {
                "label:cs": "Pomník jižně od Rytova u trati",
                "P31": "Pomník",
                "P131^label:cs": "Černovice",
                "P6736": "9889"
            },
            "geometry": {
                "type": "Point",
                "coordinates": [
                    14.97983,
                    49.34653
                ]
            }
        },
        {
            "type": "Feature",
            "properties": {
                "label:cs": "Kaplička ve Chválkově na návsi",
                "P31": "Kaplička",
                "P131^label:cs": "Mnich",
                "P6736": "7587"
            },
            "geometry": {
                "type": "Point",
                "coordinates": [
                    14.96701,
                    49.32726
                ]
            }
        },
        {
            "type": "Feature",
            "properties": {
                "label:cs": "Kaple ve Vlkosovicích",
                "P31": "Kaple",
                "P131^label:cs": "Černovice",
                "P6736": "7583"
            },
            "geometry": {
                "type": "Point",
                "coordinates": [
                    14.95715,
                    49.34087
                ]
            }
        },
        {
            "type": "Feature",
            "properties": {
                "label:cs": "Památník ve Chválkově",
                "P31": "Památník",
                "P131^label:cs": "Mnich",
                "P6736": "7024"
            },
            "geometry": {
                "type": "Point",
                "coordinates": [
                    14.96655,
                    49.32689
                ]
            }
        },
        {
            "type": "Feature",
            "properties": {
                "label:cs": "Pomník padlým ve Chválkově",
                "P31": "Pomník padlým",
                "P131^label:cs": "Mnich",
                "P6736": "7023"
            },
            "geometry": {
                "type": "Point",
                "coordinates": [
                    14.96652,
                    49.32687
                ]
            }
        },
        {
            "type": "Feature",
            "properties": {
                "label:cs": "Kříž ve Chválkově u plotu",
                "P31": "Pamětní kříž",
                "P131^label:cs": "Mnich",
                "P6736": "6982"
            },
            "geometry": {
                "type": "Point",
                "coordinates": [
                    14.97001,
                    49.32618
                ]
            }
        },
        {
            "type": "Feature",
            "properties": {
                "label:cs": "Památník ve Chválkově u křižovatky",
                "P31": "Památník",
                "P131^label:cs": "Mnich",
                "P6736": "6981"
            },
            "geometry": {
                "type": "Point",
                "coordinates": [
                    14.96862,
                    49.32667
                ]
            }
        },
        {
            "type": "Feature",
            "properties": {
                "label:cs": "Kříž ve Vlkosovicích u křižovatky",
                "P31": "Pamětní kříž",
                "P131^label:cs": "Černovice",
                "P6736": "6980"
            },
            "geometry": {
                "type": "Point",
                "coordinates": [
                    14.95918,
                    49.34089
                ]
            }
        },
        {
            "type": "Feature",
            "properties": {
                "label:cs": "Kříž jižně od Vlkosovic",
                "P31": "Pamětní kříž",
                "P131^label:cs": "Černovice",
                "P6736": "6835"
            },
            "geometry": {
                "type": "Point",
                "coordinates": [
                    14.95911,
                    49.33734
                ]
            }
        },
        {
            "type": "Feature",
            "properties": {
                "label:cs": "Kříž severně od Vlkosovic",
                "P31": "Pamětní kříž",
                "P131^label:cs": "Černovice",
                "P6736": "2771"
            },
            "geometry": {
                "type": "Point",
                "coordinates": [
                    14.95971,
                    49.34311
                ]
            }
        },
        {
            "type": "Feature",
            "properties": {
                "label:cs": "Kaplička nad Chválkovem",
                "P31": "Kaplička",
                "P131^label:cs": "Mnich",
                "P6736": "1640"
            },
            "geometry": {
                "type": "Point",
                "coordinates": [
                    14.96989,
                    49.33118
                ]
            }
        },
        {
            "type": "Feature",
            "properties": {
                "label:cs": "Kříž u Chválkova",
                "P31": "Pamětní kříž",
                "P131^label:cs": "Mnich",
                "P6736": "1639"
            },
            "geometry": {
                "type": "Point",
                "coordinates": [
                    14.96652,
                    49.32852
                ]
            }
        },
        {
            "type": "Feature",
            "properties": {
                "label:cs": "Kaplička nad Dobešovem",
                "P31": "Kaplička",
                "P131^label:cs": "Černovice",
                "P6736": "1383"
            },
            "geometry": {
                "type": "Point",
                "coordinates": [
                    14.96236,
                    49.34814
                ]
            }
        }
    ]
}