{
    "type": "FeatureCollection",
    "features": [
        {
            "type": "Feature",
            "properties": {
                "label:cs": "Reliéf na budově obecního úřadu v Mnichu",
                "P31": "Plastika",
                "P131^label:cs": "Mnich",
                "P6736": "22623"
            },
            "geometry": {
                "type": "Point",
                "coordinates": [
                    14.96294,
                    49.30126
                ]
            }
        },
        {
            "type": "Feature",
            "properties": {
                "label:cs": "Kříž v jižní části Bořetína",
                "P31": "Pamětní kříž",
                "P131^label:cs": "Bořetín",
                "P6736": "21602"
            },
            "geometry": {
                "type": "Point",
                "coordinates": [
                    14.94956,
                    49.30793
                ]
            }
        },
        {
            "type": "Feature",
            "properties": {
                "label:cs": "Kříž východně od Mnichu u silnice",
                "P31": "Pamětní kříž",
                "P131^label:cs": "Mnich",
                "P6736": "7584"
            },
            "geometry": {
                "type": "Point",
                "coordinates": [
                    14.9697,
                    49.30108
                ]
            }
        },
        {
            "type": "Feature",
            "properties": {
                "label:cs": "Kříž u kostela v Mnichu",
                "P31": "Pamětní kříž",
                "P131^label:cs": "Mnich",
                "P6736": "7021"
            },
            "geometry": {
                "type": "Point",
                "coordinates": [
                    14.96664,
                    49.29818
                ]
            }
        },
        {
            "type": "Feature",
            "properties": {
                "label:cs": "Kříž východně od Drunčí v lese",
                "P31": "Pamětní kříž",
                "P131^label:cs": "Drunče",
                "P6736": "6991"
            },
            "geometry": {
                "type": "Point",
                "coordinates": [
                    14.94871,
                    49.29691
                ]
            }
        },
        {
            "type": "Feature",
            "properties": {
                "label:cs": "Kříž západně od Mnichu",
                "P31": "Pamětní kříž",
                "P131^label:cs": "Mnich",
                "P6736": "6990"
            },
            "geometry": {
                "type": "Point",
                "coordinates": [
                    14.95775,
                    49.29726
                ]
            }
        },
        {
            "type": "Feature",
            "properties": {
                "label:cs": "Socha svatého Jana Nepomuckého v Mnichu",
                "P31": "Socha",
                "P131^label:cs": "Mnich",
                "P6736": "6989"
            },
            "geometry": {
                "type": "Point",
                "coordinates": [
                    14.96527,
                    49.30014
                ]
            }
        },
        {
            "type": "Feature",
            "properties": {
                "label:cs": "Pomník padlým v Mnichu",
                "P31": "Pomník padlým",
                "P131^label:cs": "Mnich",
                "P6736": "6988"
            },
            "geometry": {
                "type": "Point",
                "coordinates": [
                    14.96537,
                    49.29971
                ]
            }
        },
        {
            "type": "Feature",
            "properties": {
                "label:cs": "Pomníky partyzánů v Mnichu",
                "P31": "Pomník",
                "P131^label:cs": "Mnich",
                "P6736": "6987"
            },
            "geometry": {
                "type": "Point",
                "coordinates": [
                    14.96523,
                    49.30038
                ]
            }
        },
        {
            "type": "Feature",
            "properties": {
                "label:cs": "Památník slovanského bratrství u Mnichu",
                "P31": "Památník",
                "P131^label:cs": "Mnich",
                "P6736": "6986"
            },
            "geometry": {
                "type": "Point",
                "coordinates": [
                    14.96063,
                    49.30281
                ]
            }
        },
        {
            "type": "Feature",
            "properties": {
                "label:cs": "Kříž jižně od Rutova",
                "P31": "Pamětní kříž",
                "P131^label:cs": "Mnich",
                "P6736": "6985"
            },
            "geometry": {
                "type": "Point",
                "coordinates": [
                    14.97584,
                    49.32209
                ]
            }
        },
        {
            "type": "Feature",
            "properties": {
                "label:cs": "Kříž jižně od Dvořiště",
                "P31": "Pamětní kříž",
                "P131^label:cs": "Mnich",
                "P6736": "6984"
            },
            "geometry": {
                "type": "Point",
                "coordinates": [
                    14.98209,
                    49.31901
                ]
            }
        },
        {
            "type": "Feature",
            "properties": {
                "label:cs": "Kříž v Rutově",
                "P31": "Pamětní kříž",
                "P131^label:cs": "Mnich",
                "P6736": "6983"
            },
            "geometry": {
                "type": "Point",
                "coordinates": [
                    14.97728,
                    49.32278
                ]
            }
        },
        {
            "type": "Feature",
            "properties": {
                "label:cs": "Pomník padlým v Bořetíně",
                "P31": "Pomník padlým",
                "P131^label:cs": "Bořetín",
                "P6736": "6796"
            },
            "geometry": {
                "type": "Point",
                "coordinates": [
                    14.94942,
                    49.30857
                ]
            }
        },
        {
            "type": "Feature",
            "properties": {
                "label:cs": "Kříž v Mirotíně u kaple",
                "P31": "Pamětní kříž",
                "P131^label:cs": "Mnich",
                "P6736": "6124"
            },
            "geometry": {
                "type": "Point",
                "coordinates": [
                    14.98526,
                    49.30948
                ]
            }
        },
        {
            "type": "Feature",
            "properties": {
                "label:cs": "Kříž v Mirotíně u rybníka",
                "P31": "Pamětní kříž",
                "P131^label:cs": "Mnich",
                "P6736": "6122"
            },
            "geometry": {
                "type": "Point",
                "coordinates": [
                    14.98312,
                    49.30842
                ]
            }
        },
        {
            "type": "Feature",
            "properties": {
                "label:cs": "Kříž jihozápadně od Mirotína",
                "P31": "Pamětní kříž",
                "P131^label:cs": "Mnich",
                "P6736": "6121"
            },
            "geometry": {
                "type": "Point",
                "coordinates": [
                    14.9782,
                    49.30518
                ]
            }
        },
        {
            "type": "Feature",
            "properties": {
                "label:cs": "Kříž východně od Mnichu na rozcestí",
                "P31": "Pamětní kříž",
                "P131^label:cs": "Mnich",
                "P6736": "6120"
            },
            "geometry": {
                "type": "Point",
                "coordinates": [
                    14.96698,
                    49.30174
                ]
            }
        },
        {
            "type": "Feature",
            "properties": {
                "label:cs": "Památník na osvobození 1945 u Mnichu",
                "P31": "Památník",
                "P131^label:cs": "Mnich",
                "P6736": "6119"
            },
            "geometry": {
                "type": "Point",
                "coordinates": [
                    14.96122,
                    49.30212
                ]
            }
        },
        {
            "type": "Feature",
            "properties": {
                "label:cs": "Pomník letce RAF v Bořetíně",
                "P31": "Pomník",
                "P131^label:cs": "Bořetín",
                "P6736": "6118"
            },
            "geometry": {
                "type": "Point",
                "coordinates": [
                    14.94802,
                    49.30866
                ]
            }
        },
        {
            "type": "Feature",
            "properties": {
                "label:cs": "Kříž jižně od Bořetína",
                "P31": "Pamětní kříž",
                "P131^label:cs": "Bořetín",
                "P6736": "6117"
            },
            "geometry": {
                "type": "Point",
                "coordinates": [
                    14.94492,
                    49.3083
                ]
            }
        },
        {
            "type": "Feature",
            "properties": {
                "label:cs": "Kříž u kaple v Bořetíně",
                "P31": "Pamětní kříž",
                "P131^label:cs": "Bořetín",
                "P6736": "6116"
            },
            "geometry": {
                "type": "Point",
                "coordinates": [
                    14.94731,
                    49.31034
                ]
            }
        },
        {
            "type": "Feature",
            "properties": {
                "label:cs": "Kaple v Bořetíně",
                "P31": "Kaple",
                "P131^label:cs": "Bořetín",
                "P6736": "6115"
            },
            "geometry": {
                "type": "Point",
                "coordinates": [
                    14.94738,
                    49.3103
                ]
            }
        },
        {
            "type": "Feature",
            "properties": {
                "label:cs": "Kříž u Mnichu u cesty na Betlém nedaleko rozcestí",
                "P31": "Pamětní kříž",
                "P131^label:cs": "Mnich",
                "P6736": "2074"
            },
            "geometry": {
                "type": "Point",
                "coordinates": [
                    14.97053,
                    49.29671
                ]
            }
        },
        {
            "type": "Feature",
            "properties": {
                "label:cs": "Kříž u Mnichu u silnice na Chválkov",
                "P31": "Pamětní kříž",
                "P131^label:cs": "Mnich",
                "P6736": "2072"
            },
            "geometry": {
                "type": "Point",
                "coordinates": [
                    14.96234,
                    49.30872
                ]
            }
        },
        {
            "type": "Feature",
            "properties": {
                "label:cs": "Kříž u Mnichu u cesty na Betlém",
                "P31": "Pamětní kříž",
                "P131^label:cs": "Mnich",
                "P6736": "2075"
            },
            "geometry": {
                "type": "Point",
                "coordinates": [
                    14.97259,
                    49.29716
                ]
            }
        },
        {
            "type": "Feature",
            "properties": {
                "label:cs": "Kříž u Mnichu nad rozcestím",
                "P31": "Pamětní kříž",
                "P131^label:cs": "Mnich",
                "P6736": "2073"
            },
            "geometry": {
                "type": "Point",
                "coordinates": [
                    14.96954,
                    49.29655
                ]
            }
        },
        {
            "type": "Feature",
            "properties": {
                "label:cs": "Kříž u Krapadlí",
                "P31": "Pamětní kříž",
                "P131^label:cs": "Mnich",
                "P6736": "1642"
            },
            "geometry": {
                "type": "Point",
                "coordinates": [
                    14.97295,
                    49.31619
                ]
            }
        },
        {
            "type": "Feature",
            "properties": {
                "label:cs": "Kříž severně od Bořetína u lesa",
                "P31": "Pamětní kříž",
                "P131^label:cs": "Bořetín",
                "P6736": "1259"
            },
            "geometry": {
                "type": "Point",
                "coordinates": [
                    14.95367,
                    49.31706
                ]
            }
        },
        {
            "type": "Feature",
            "properties": {
                "label:cs": "Boží muka severně od Bořetína",
                "P31": "Boží muka",
                "P131^label:cs": "Bořetín",
                "P6736": "1258"
            },
            "geometry": {
                "type": "Point",
                "coordinates": [
                    14.95216,
                    49.31524
                ]
            }
        },
        {
            "type": "Feature",
            "properties": {
                "label:cs": "Kříž jihovýchodně od Bořetína",
                "P31": "Pamětní kříž",
                "P131^label:cs": "Bořetín",
                "P6736": "1257"
            },
            "geometry": {
                "type": "Point",
                "coordinates": [
                    14.95201,
                    49.30687
                ]
            }
        }
    ]
}