{
    "type": "FeatureCollection",
    "features": [
        {
            "type": "Feature",
            "properties": {
                "label:cs": "Kříž u kaple ve Zhořci",
                "P31": "Pamětní kříž",
                "P131^label:cs": "Zhořec",
                "P6736": "18375"
            },
            "geometry": {
                "type": "Point",
                "coordinates": [
                    14.96252,
                    49.48986
                ]
            }
        },
        {
            "type": "Feature",
            "properties": {
                "label:cs": "Kříž ve Zhoři u kostela",
                "P31": "Pamětní kříž",
                "P131^label:cs": "Pacov",
                "P6736": "16464"
            },
            "geometry": {
                "type": "Point",
                "coordinates": [
                    14.94175,
                    49.49545
                ]
            }
        },
        {
            "type": "Feature",
            "properties": {
                "label:cs": "Kříž ve Zhoři u věže",
                "P31": "Pamětní kříž",
                "P131^label:cs": "Pacov",
                "P6736": "16461"
            },
            "geometry": {
                "type": "Point",
                "coordinates": [
                    14.94201,
                    49.49523
                ]
            }
        },
        {
            "type": "Feature",
            "properties": {
                "label:cs": "Kříž u Staňkova Mlýna východně od Zhoře",
                "P31": "Pamětní kříž",
                "P131^label:cs": "Zhořec",
                "P6736": "16460"
            },
            "geometry": {
                "type": "Point",
                "coordinates": [
                    14.9521,
                    49.49059
                ]
            }
        },
        {
            "type": "Feature",
            "properties": {
                "label:cs": "Kříž východně od Zhoře u rozcestí",
                "P31": "Pamětní kříž",
                "P131^label:cs": "Pacov",
                "P6736": "16459"
            },
            "geometry": {
                "type": "Point",
                "coordinates": [
                    14.94806,
                    49.4925
                ]
            }
        },
        {
            "type": "Feature",
            "properties": {
                "label:cs": "Kříž jihovýchodně od Velké Rovné",
                "P31": "Pamětní kříž",
                "P131^label:cs": "Pacov",
                "P6736": "16451"
            },
            "geometry": {
                "type": "Point",
                "coordinates": [
                    14.94237,
                    49.47208
                ]
            }
        },
        {
            "type": "Feature",
            "properties": {
                "label:cs": "Kříž jižně od Bedřichova",
                "P31": "Pamětní kříž",
                "P131^label:cs": "Pacov",
                "P6736": "16450"
            },
            "geometry": {
                "type": "Point",
                "coordinates": [
                    14.9611,
                    49.47158
                ]
            }
        },
        {
            "type": "Feature",
            "properties": {
                "label:cs": "Kaplička jihovýchodně od Zhořce",
                "P31": "Kaplička",
                "P131^label:cs": "Zhořec",
                "P6736": "16415"
            },
            "geometry": {
                "type": "Point",
                "coordinates": [
                    14.97691,
                    49.48462
                ]
            }
        },
        {
            "type": "Feature",
            "properties": {
                "label:cs": "Kříž východně od Zhořce u rozcestí",
                "P31": "Pamětní kříž",
                "P131^label:cs": "Zhořec",
                "P6736": "16413"
            },
            "geometry": {
                "type": "Point",
                "coordinates": [
                    14.97415,
                    49.48608
                ]
            }
        },
        {
            "type": "Feature",
            "properties": {
                "label:cs": "Kaplička východně od Zhořce",
                "P31": "Kaplička",
                "P131^label:cs": "Zhořec",
                "P6736": "16411"
            },
            "geometry": {
                "type": "Point",
                "coordinates": [
                    14.96878,
                    49.48763
                ]
            }
        },
        {
            "type": "Feature",
            "properties": {
                "label:cs": "Kříž ve Zhořci u rozcestí",
                "P31": "Pamětní kříž",
                "P131^label:cs": "Zhořec",
                "P6736": "16409"
            },
            "geometry": {
                "type": "Point",
                "coordinates": [
                    14.96399,
                    49.48914
                ]
            }
        },
        {
            "type": "Feature",
            "properties": {
                "label:cs": "Kříž jižně od Zhořce",
                "P31": "Pamětní kříž",
                "P131^label:cs": "Zhořec",
                "P6736": "16408"
            },
            "geometry": {
                "type": "Point",
                "coordinates": [
                    14.96515,
                    49.48713
                ]
            }
        },
        {
            "type": "Feature",
            "properties": {
                "label:cs": "Kříž u Bedřichova",
                "P31": "Pamětní kříž",
                "P131^label:cs": "Pacov",
                "P6736": "16407"
            },
            "geometry": {
                "type": "Point",
                "coordinates": [
                    14.96402,
                    49.47463
                ]
            }
        },
        {
            "type": "Feature",
            "properties": {
                "label:cs": "Kaplička východně od Bedřichova",
                "P31": "Kaplička",
                "P131^label:cs": "Pacov",
                "P6736": "16406"
            },
            "geometry": {
                "type": "Point",
                "coordinates": [
                    14.97571,
                    49.4731
                ]
            }
        },
        {
            "type": "Feature",
            "properties": {
                "label:cs": "Památník ve Zhořci",
                "P31": "Památník",
                "P131^label:cs": "Zhořec",
                "P6736": "7810"
            },
            "geometry": {
                "type": "Point",
                "coordinates": [
                    14.96261,
                    49.49013
                ]
            }
        },
        {
            "type": "Feature",
            "properties": {
                "label:cs": "Kaple ve Zhořci",
                "P31": "Kaple",
                "P131^label:cs": "Zhořec",
                "P6736": "7809"
            },
            "geometry": {
                "type": "Point",
                "coordinates": [
                    14.96258,
                    49.48986
                ]
            }
        },
        {
            "type": "Feature",
            "properties": {
                "label:cs": "Kaple v Bedřichově",
                "P31": "Kaple",
                "P131^label:cs": "Pacov",
                "P6736": "7808"
            },
            "geometry": {
                "type": "Point",
                "coordinates": [
                    14.96024,
                    49.47512
                ]
            }
        }
    ]
}