{
    "type": "FeatureCollection",
    "features": [
        {
            "type": "Feature",
            "properties": {
                "label:cs": "Pomník T. G. Masaryka u Pražské brány v Kouřimi",
                "P31": "Pomník",
                "P131^label:cs": "Kouřim",
                "P6736": "18141"
            },
            "geometry": {
                "type": "Point",
                "coordinates": [
                    14.97583,
                    50.00549
                ]
            }
        },
        {
            "type": "Feature",
            "properties": {
                "label:cs": "Pomník padlým v obou světových válkách na Mírovém náměstí v Kouřimi",
                "P31": "Pomník padlým",
                "P131^label:cs": "Kouřim",
                "P6736": "18140"
            },
            "geometry": {
                "type": "Point",
                "coordinates": [
                    14.97667,
                    50.00389
                ]
            }
        },
        {
            "type": "Feature",
            "properties": {
                "label:cs": "Socha svatého Donáta ve skanzenu v Kouřimi",
                "P31": "Socha",
                "P131^label:cs": "Kouřim",
                "P6736": "13921"
            },
            "geometry": {
                "type": "Point",
                "coordinates": [
                    14.97208,
                    49.99428
                ]
            }
        },
        {
            "type": "Feature",
            "properties": {
                "label:cs": "Boží muka ve skanzenu v Kouřimi",
                "P31": "Boží muka",
                "P131^label:cs": "Kouřim",
                "P6736": "13920"
            },
            "geometry": {
                "type": "Point",
                "coordinates": [
                    14.97193,
                    49.99538
                ]
            }
        },
        {
            "type": "Feature",
            "properties": {
                "label:cs": "Socha svatého Jana Nepomuckého před zvonicí v Kouřimi",
                "P31": "Socha",
                "P131^label:cs": "Kouřim",
                "P6736": "13917"
            },
            "geometry": {
                "type": "Point",
                "coordinates": [
                    14.97765,
                    50.00236
                ]
            }
        },
        {
            "type": "Feature",
            "properties": {
                "label:cs": "Kašna na Mírovém náměstí v Kouřimi",
                "P31": "Kašna",
                "P131^label:cs": "Kouřim",
                "P6736": "13916"
            },
            "geometry": {
                "type": "Point",
                "coordinates": [
                    14.97683,
                    50.00346
                ]
            }
        },
        {
            "type": "Feature",
            "properties": {
                "label:cs": "Pomník Prokopa Velikého na Mírovém náměstí v Kouřimi",
                "P31": "Pomník",
                "P131^label:cs": "Kouřim",
                "P6736": "13915"
            },
            "geometry": {
                "type": "Point",
                "coordinates": [
                    14.97714,
                    50.00359
                ]
            }
        },
        {
            "type": "Feature",
            "properties": {
                "label:cs": "Kaple Panny Marie Pomocné v Kouřimi",
                "P31": "Kaple",
                "P131^label:cs": "Kouřim",
                "P6736": "13914"
            },
            "geometry": {
                "type": "Point",
                "coordinates": [
                    14.97422,
                    50.00166
                ]
            }
        },
        {
            "type": "Feature",
            "properties": {
                "label:cs": "Pomník středu Evropy na Mírovém náměstí v Kouřimi",
                "P31": "Pomník",
                "P131^label:cs": "Kouřim",
                "P6736": "13911"
            },
            "geometry": {
                "type": "Point",
                "coordinates": [
                    14.97682,
                    50.00315
                ]
            }
        }
    ]
}