{
    "type": "FeatureCollection",
    "features": [
        {
            "type": "Feature",
            "properties": {
                "label:cs": "Kříž v zahradě v Hladově",
                "P31": "Pamětní kříž",
                "P131^label:cs": "Mnich",
                "P6736": "16446"
            },
            "geometry": {
                "type": "Point",
                "coordinates": [
                    14.97388,
                    49.28419
                ]
            }
        },
        {
            "type": "Feature",
            "properties": {
                "label:cs": "Kříž u osady Hladov",
                "P31": "Pamětní kříž",
                "P131^label:cs": "Rosička",
                "P6736": "16445"
            },
            "geometry": {
                "type": "Point",
                "coordinates": [
                    14.97476,
                    49.28218
                ]
            }
        },
        {
            "type": "Feature",
            "properties": {
                "label:cs": "Kaplička v Rosičce",
                "P31": "Kaplička",
                "P131^label:cs": "Rosička",
                "P6736": "16444"
            },
            "geometry": {
                "type": "Point",
                "coordinates": [
                    14.95533,
                    49.28033
                ]
            }
        },
        {
            "type": "Feature",
            "properties": {
                "label:cs": "Kříž jihovýchodně od Drunčí",
                "P31": "Pamětní kříž",
                "P131^label:cs": "Drunče",
                "P6736": "16443"
            },
            "geometry": {
                "type": "Point",
                "coordinates": [
                    14.94496,
                    49.29349
                ]
            }
        },
        {
            "type": "Feature",
            "properties": {
                "label:cs": "Kříž v poli východně od Světců",
                "P31": "Pamětní kříž",
                "P131^label:cs": "Světce",
                "P6736": "13451"
            },
            "geometry": {
                "type": "Point",
                "coordinates": [
                    14.95183,
                    49.26951
                ]
            }
        },
        {
            "type": "Feature",
            "properties": {
                "label:cs": "Kříž ve Světcích v zahradě",
                "P31": "Pamětní kříž",
                "P131^label:cs": "Světce",
                "P6736": "13445"
            },
            "geometry": {
                "type": "Point",
                "coordinates": [
                    14.94438,
                    49.26901
                ]
            }
        },
        {
            "type": "Feature",
            "properties": {
                "label:cs": "Kříž ve Světcích na svahu",
                "P31": "Pamětní kříž",
                "P131^label:cs": "Světce",
                "P6736": "13444"
            },
            "geometry": {
                "type": "Point",
                "coordinates": [
                    14.9421,
                    49.27079
                ]
            }
        },
        {
            "type": "Feature",
            "properties": {
                "label:cs": "Kříž jižně od Mnichu",
                "P31": "Pamětní kříž",
                "P131^label:cs": "Mnich",
                "P6736": "7022"
            },
            "geometry": {
                "type": "Point",
                "coordinates": [
                    14.96593,
                    49.2947
                ]
            }
        },
        {
            "type": "Feature",
            "properties": {
                "label:cs": "Kaple v Rosičce",
                "P31": "Kaple",
                "P131^label:cs": "Rosička",
                "P6736": "7020"
            },
            "geometry": {
                "type": "Point",
                "coordinates": [
                    14.95356,
                    49.27947
                ]
            }
        },
        {
            "type": "Feature",
            "properties": {
                "label:cs": "Kříž východně od Světců",
                "P31": "Pamětní kříž",
                "P131^label:cs": "Světce",
                "P6736": "7019"
            },
            "geometry": {
                "type": "Point",
                "coordinates": [
                    14.94826,
                    49.27676
                ]
            }
        },
        {
            "type": "Feature",
            "properties": {
                "label:cs": "Kaple ve Světcích",
                "P31": "Kaple",
                "P131^label:cs": "Světce",
                "P6736": "7018"
            },
            "geometry": {
                "type": "Point",
                "coordinates": [
                    14.94219,
                    49.27375
                ]
            }
        },
        {
            "type": "Feature",
            "properties": {
                "label:cs": "Pomník padlým ve Světcích",
                "P31": "Pomník padlým",
                "P131^label:cs": "Světce",
                "P6736": "7017"
            },
            "geometry": {
                "type": "Point",
                "coordinates": [
                    14.94195,
                    49.27383
                ]
            }
        },
        {
            "type": "Feature",
            "properties": {
                "label:cs": "Kříž v Rosičce v zahradě",
                "P31": "Pamětní kříž",
                "P131^label:cs": "Světce",
                "P6736": "6314"
            },
            "geometry": {
                "type": "Point",
                "coordinates": [
                    14.94486,
                    49.27793
                ]
            }
        },
        {
            "type": "Feature",
            "properties": {
                "label:cs": "Kříž nad Rosičkou",
                "P31": "Pamětní kříž",
                "P131^label:cs": "Světce",
                "P6736": "2591"
            },
            "geometry": {
                "type": "Point",
                "coordinates": [
                    14.94632,
                    49.27894
                ]
            }
        },
        {
            "type": "Feature",
            "properties": {
                "label:cs": "Kříž u rozcestí pod Novým Mnichem ve směru na Mnich",
                "P31": "Pamětní kříž",
                "P131^label:cs": "Mnich",
                "P6736": "2077"
            },
            "geometry": {
                "type": "Point",
                "coordinates": [
                    14.97554,
                    49.29375
                ]
            }
        },
        {
            "type": "Feature",
            "properties": {
                "label:cs": "Kříž pod Novým Mnichem ve směru na Hladov",
                "P31": "Pamětní kříž",
                "P131^label:cs": "Mnich",
                "P6736": "2069"
            },
            "geometry": {
                "type": "Point",
                "coordinates": [
                    14.97799,
                    49.286
                ]
            }
        },
        {
            "type": "Feature",
            "properties": {
                "label:cs": "Kříž pod Novým Mnichem u rybníčku",
                "P31": "Pamětní kříž",
                "P131^label:cs": "Mnich",
                "P6736": "2078"
            },
            "geometry": {
                "type": "Point",
                "coordinates": [
                    14.98105,
                    49.28725
                ]
            }
        },
        {
            "type": "Feature",
            "properties": {
                "label:cs": "Kříž u Mnichu u silnice do Deštné",
                "P31": "Pamětní kříž",
                "P131^label:cs": "Mnich",
                "P6736": "2071"
            },
            "geometry": {
                "type": "Point",
                "coordinates": [
                    14.96002,
                    49.29338
                ]
            }
        },
        {
            "type": "Feature",
            "properties": {
                "label:cs": "Kříž pod Novým Mnichem u rozcestí",
                "P31": "Pamětní kříž",
                "P131^label:cs": "Mnich",
                "P6736": "2068"
            },
            "geometry": {
                "type": "Point",
                "coordinates": [
                    14.97992,
                    49.28677
                ]
            }
        }
    ]
}