{
    "type": "FeatureCollection",
    "features": [
        {
            "type": "Feature",
            "properties": {
                "label:cs": "Kříž u zámku v Novém Dvoře",
                "P31": "Pamětní kříž",
                "P131^label:cs": "Kámen",
                "P6736": "18459"
            },
            "geometry": {
                "type": "Point",
                "coordinates": [
                    15.04064,
                    49.43419
                ]
            }
        },
        {
            "type": "Feature",
            "properties": {
                "label:cs": "Kříž v Nízké Lhotě",
                "P31": "Pamětní kříž",
                "P131^label:cs": "Kámen",
                "P6736": "6159"
            },
            "geometry": {
                "type": "Point",
                "coordinates": [
                    15.02934,
                    49.43812
                ]
            }
        },
        {
            "type": "Feature",
            "properties": {
                "label:cs": "Kříž východně od Nesvačil",
                "P31": "Pamětní kříž",
                "P131^label:cs": "Pošná",
                "P6736": "6139"
            },
            "geometry": {
                "type": "Point",
                "coordinates": [
                    15.06428,
                    49.43409
                ]
            }
        },
        {
            "type": "Feature",
            "properties": {
                "label:cs": "Kříž u Nesvačil u kaple",
                "P31": "Pamětní kříž",
                "P131^label:cs": "Pošná",
                "P6736": "6138"
            },
            "geometry": {
                "type": "Point",
                "coordinates": [
                    15.0607,
                    49.43359
                ]
            }
        },
        {
            "type": "Feature",
            "properties": {
                "label:cs": "Kaple východně od Nesvačil",
                "P31": "Kaple",
                "P131^label:cs": "Pošná",
                "P6736": "6137"
            },
            "geometry": {
                "type": "Point",
                "coordinates": [
                    15.06065,
                    49.43355
                ]
            }
        },
        {
            "type": "Feature",
            "properties": {
                "label:cs": "Kříž západně od Nesvačil",
                "P31": "Pamětní kříž",
                "P131^label:cs": "Pošná",
                "P6736": "6136"
            },
            "geometry": {
                "type": "Point",
                "coordinates": [
                    15.05777,
                    49.4333
                ]
            }
        },
        {
            "type": "Feature",
            "properties": {
                "label:cs": "Boží muka u kaple ve Zlátence",
                "P31": "Boží muka",
                "P131^label:cs": "Zlátenka",
                "P6736": "6135"
            },
            "geometry": {
                "type": "Point",
                "coordinates": [
                    15.05816,
                    49.4234
                ]
            }
        },
        {
            "type": "Feature",
            "properties": {
                "label:cs": "Kaple ve Zlátence",
                "P31": "Kaple",
                "P131^label:cs": "Zlátenka",
                "P6736": "6134"
            },
            "geometry": {
                "type": "Point",
                "coordinates": [
                    15.05812,
                    49.42344
                ]
            }
        },
        {
            "type": "Feature",
            "properties": {
                "label:cs": "Kříž západně od Zlátenky",
                "P31": "Pamětní kříž",
                "P131^label:cs": "Zlátenka",
                "P6736": "6133"
            },
            "geometry": {
                "type": "Point",
                "coordinates": [
                    15.05634,
                    49.422
                ]
            }
        },
        {
            "type": "Feature",
            "properties": {
                "label:cs": "Kříž západně od Vysoké Lhoty",
                "P31": "Pamětní kříž",
                "P131^label:cs": "Vysoká Lhota",
                "P6736": "6132"
            },
            "geometry": {
                "type": "Point",
                "coordinates": [
                    15.05401,
                    49.4158
                ]
            }
        },
        {
            "type": "Feature",
            "properties": {
                "label:cs": "Kříž u kaple ve Vysoké Lhotě",
                "P31": "Pamětní kříž",
                "P131^label:cs": "Vysoká Lhota",
                "P6736": "6131"
            },
            "geometry": {
                "type": "Point",
                "coordinates": [
                    15.04289,
                    49.41645
                ]
            }
        },
        {
            "type": "Feature",
            "properties": {
                "label:cs": "Kaple ve Vysoké Lhotě",
                "P31": "Kaple",
                "P131^label:cs": "Vysoká Lhota",
                "P6736": "6130"
            },
            "geometry": {
                "type": "Point",
                "coordinates": [
                    15.04286,
                    49.41653
                ]
            }
        }
    ]
}