{
    "type": "FeatureCollection",
    "features": [
        {
            "type": "Feature",
            "properties": {
                "label:cs": "Pamětní deska herce Rudolfa Hrušínského v Nové Včelnici",
                "P31": "Pamětní deska",
                "P131^label:cs": "Nová Včelnice",
                "P6736": "18966"
            },
            "geometry": {
                "type": "Point",
                "coordinates": [
                    15.07237,
                    49.23967
                ]
            }
        },
        {
            "type": "Feature",
            "properties": {
                "label:cs": "Kříž v západní části Vlčetínce",
                "P31": "Pamětní kříž",
                "P131^label:cs": "Vlčetínec",
                "P6736": "11141"
            },
            "geometry": {
                "type": "Point",
                "coordinates": [
                    15.0515,
                    49.26351
                ]
            }
        },
        {
            "type": "Feature",
            "properties": {
                "label:cs": "Kříž západně od Vlčetínce u rozcestí",
                "P31": "Pamětní kříž",
                "P131^label:cs": "Vlčetínec",
                "P6736": "11140"
            },
            "geometry": {
                "type": "Point",
                "coordinates": [
                    15.05144,
                    49.26328
                ]
            }
        },
        {
            "type": "Feature",
            "properties": {
                "label:cs": "Kříž ve Vlčetínci na křižovatce",
                "P31": "Pamětní kříž",
                "P131^label:cs": "Vlčetínec",
                "P6736": "11139"
            },
            "geometry": {
                "type": "Point",
                "coordinates": [
                    15.05488,
                    49.26444
                ]
            }
        },
        {
            "type": "Feature",
            "properties": {
                "label:cs": "Kaplička v Dívčích Kopách",
                "P31": "Kaplička",
                "P131^label:cs": "Dívčí Kopy",
                "P6736": "11137"
            },
            "geometry": {
                "type": "Point",
                "coordinates": [
                    15.04053,
                    49.25708
                ]
            }
        },
        {
            "type": "Feature",
            "properties": {
                "label:cs": "Kaple ve Vlčetínci",
                "P31": "Kaple",
                "P131^label:cs": "Vlčetínec",
                "P6736": "11138"
            },
            "geometry": {
                "type": "Point",
                "coordinates": [
                    15.05369,
                    49.26386
                ]
            }
        },
        {
            "type": "Feature",
            "properties": {
                "label:cs": "Kaple v Hadravově Rosičce",
                "P31": "Kaple",
                "P131^label:cs": "Hadravova Rosička",
                "P6736": "11136"
            },
            "geometry": {
                "type": "Point",
                "coordinates": [
                    15.04739,
                    49.25089
                ]
            }
        },
        {
            "type": "Feature",
            "properties": {
                "label:cs": "Kříž u kaple v Hadravově Rosičce",
                "P31": "Pamětní kříž",
                "P131^label:cs": "Hadravova Rosička",
                "P6736": "11135"
            },
            "geometry": {
                "type": "Point",
                "coordinates": [
                    15.04736,
                    49.25085
                ]
            }
        },
        {
            "type": "Feature",
            "properties": {
                "label:cs": "Kříž východně od Hadravovy Rosičky",
                "P31": "Pamětní kříž",
                "P131^label:cs": "Hadravova Rosička",
                "P6736": "11134"
            },
            "geometry": {
                "type": "Point",
                "coordinates": [
                    15.05487,
                    49.2501
                ]
            }
        },
        {
            "type": "Feature",
            "properties": {
                "label:cs": "Kaple v Nové Včelnici v Husově ulici",
                "P31": "Kaple",
                "P131^label:cs": "Nová Včelnice",
                "P6736": "11133"
            },
            "geometry": {
                "type": "Point",
                "coordinates": [
                    15.06775,
                    49.24378
                ]
            }
        },
        {
            "type": "Feature",
            "properties": {
                "label:cs": "sloup se sochou panny Marie v Nové Včelnici",
                "P31": "Sloup",
                "P131^label:cs": "Nová Včelnice",
                "P6736": "11131"
            },
            "geometry": {
                "type": "Point",
                "coordinates": [
                    15.07205,
                    49.24086
                ]
            }
        },
        {
            "type": "Feature",
            "properties": {
                "label:cs": "Památník Bedřicha Smetany v Nové Včelnici",
                "P31": "Památník",
                "P131^label:cs": "Nová Včelnice",
                "P6736": "11130"
            },
            "geometry": {
                "type": "Point",
                "coordinates": [
                    15.07276,
                    49.2411
                ]
            }
        },
        {
            "type": "Feature",
            "properties": {
                "label:cs": "Pomník padlým v Nové Včelnici",
                "P31": "Pomník padlým",
                "P131^label:cs": "Nová Včelnice",
                "P6736": "11129"
            },
            "geometry": {
                "type": "Point",
                "coordinates": [
                    15.07317,
                    49.23944
                ]
            }
        },
        {
            "type": "Feature",
            "properties": {
                "label:cs": "Kříž mezi Březím a Vlčetíncem",
                "P31": "Pamětní kříž",
                "P131^label:cs": "Vlčetínec",
                "P6736": "2767"
            },
            "geometry": {
                "type": "Point",
                "coordinates": [
                    15.06377,
                    49.26714
                ]
            }
        }
    ]
}