{
    "type": "FeatureCollection",
    "features": [
        {
            "type": "Feature",
            "properties": {
                "label:cs": "Pomník padlým v Utěchovicích",
                "P31": "Pomník padlým",
                "P131^label:cs": "Útěchovice",
                "P6736": "18560"
            },
            "geometry": {
                "type": "Point",
                "coordinates": [
                    15.11714,
                    49.47807
                ]
            }
        },
        {
            "type": "Feature",
            "properties": {
                "label:cs": "Kříž u samoty Křovinka",
                "P31": "Pamětní kříž",
                "P131^label:cs": "Bořetice",
                "P6736": "16439"
            },
            "geometry": {
                "type": "Point",
                "coordinates": [
                    15.10212,
                    49.48618
                ]
            }
        },
        {
            "type": "Feature",
            "properties": {
                "label:cs": "Kříž v Přáslavicích u kaple",
                "P31": "Pamětní kříž",
                "P131^label:cs": "Samšín",
                "P6736": "16437"
            },
            "geometry": {
                "type": "Point",
                "coordinates": [
                    15.08524,
                    49.48626
                ]
            }
        },
        {
            "type": "Feature",
            "properties": {
                "label:cs": "Kaple v Přáslavicích",
                "P31": "Kaple",
                "P131^label:cs": "Samšín",
                "P6736": "16436"
            },
            "geometry": {
                "type": "Point",
                "coordinates": [
                    15.08529,
                    49.48624
                ]
            }
        },
        {
            "type": "Feature",
            "properties": {
                "label:cs": "Kříž jižně od Přáslavic",
                "P31": "Pamětní kříž",
                "P131^label:cs": "Samšín",
                "P6736": "16435"
            },
            "geometry": {
                "type": "Point",
                "coordinates": [
                    15.08451,
                    49.48431
                ]
            }
        },
        {
            "type": "Feature",
            "properties": {
                "label:cs": "Kříž jihozápadně od Útěchovic u silnice",
                "P31": "Pamětní kříž",
                "P131^label:cs": "Útěchovice",
                "P6736": "7414"
            },
            "geometry": {
                "type": "Point",
                "coordinates": [
                    15.11232,
                    49.47634
                ]
            }
        },
        {
            "type": "Feature",
            "properties": {
                "label:cs": "Kříž jihozápadně od Útěchovic u zatáčky",
                "P31": "Pamětní kříž",
                "P131^label:cs": "Útěchovice",
                "P6736": "7412"
            },
            "geometry": {
                "type": "Point",
                "coordinates": [
                    15.10882,
                    49.47475
                ]
            }
        },
        {
            "type": "Feature",
            "properties": {
                "label:cs": "Kříž jihozápadně od Útěchovic",
                "P31": "Pamětní kříž",
                "P131^label:cs": "Útěchovice",
                "P6736": "7411"
            },
            "geometry": {
                "type": "Point",
                "coordinates": [
                    15.11018,
                    49.47138
                ]
            }
        },
        {
            "type": "Feature",
            "properties": {
                "label:cs": "Kříž jižně od Útěchovic",
                "P31": "Pamětní kříž",
                "P131^label:cs": "Útěchovice",
                "P6736": "7410"
            },
            "geometry": {
                "type": "Point",
                "coordinates": [
                    15.11678,
                    49.46984
                ]
            }
        },
        {
            "type": "Feature",
            "properties": {
                "label:cs": "Kříž severně od Útěchovic",
                "P31": "Pamětní kříž",
                "P131^label:cs": "Útěchovice",
                "P6736": "7407"
            },
            "geometry": {
                "type": "Point",
                "coordinates": [
                    15.11563,
                    49.4829
                ]
            }
        },
        {
            "type": "Feature",
            "properties": {
                "label:cs": "Kaplička severně od Útěchovic",
                "P31": "Kaplička",
                "P131^label:cs": "Útěchovice",
                "P6736": "7406"
            },
            "geometry": {
                "type": "Point",
                "coordinates": [
                    15.11681,
                    49.48127
                ]
            }
        },
        {
            "type": "Feature",
            "properties": {
                "label:cs": "Kříž u kaple v Útěchovicích",
                "P31": "Pamětní kříž",
                "P131^label:cs": "Útěchovice",
                "P6736": "7404"
            },
            "geometry": {
                "type": "Point",
                "coordinates": [
                    15.1169,
                    49.47804
                ]
            }
        },
        {
            "type": "Feature",
            "properties": {
                "label:cs": "Kaple v Útěchovicích",
                "P31": "Kaple",
                "P131^label:cs": "Útěchovice",
                "P6736": "7405"
            },
            "geometry": {
                "type": "Point",
                "coordinates": [
                    15.11707,
                    49.47809
                ]
            }
        }
    ]
}