{
    "type": "FeatureCollection",
    "features": [
        {
            "type": "Feature",
            "properties": {
                "label:cs": "Pomník svaté Anežky České v Poděbradech Na Dláždění",
                "P31": "Pomník",
                "P131^label:cs": "Poděbrady",
                "P6736": "19070"
            },
            "geometry": {
                "type": "Point",
                "coordinates": [
                    15.12321,
                    50.1419
                ]
            }
        },
        {
            "type": "Feature",
            "properties": {
                "label:cs": "Socha svatého Václava v Poděbradech Na kopečku",
                "P31": "Socha",
                "P131^label:cs": "Poděbrady",
                "P6736": "19068"
            },
            "geometry": {
                "type": "Point",
                "coordinates": [
                    15.12384,
                    50.14183
                ]
            }
        },
        {
            "type": "Feature",
            "properties": {
                "label:cs": "Socha Klečící dívka v lázeňském parku v Poděbradech",
                "P31": "Socha",
                "P131^label:cs": "Poděbrady",
                "P6736": "18869"
            },
            "geometry": {
                "type": "Point",
                "coordinates": [
                    15.12142,
                    50.1469
                ]
            }
        },
        {
            "type": "Feature",
            "properties": {
                "label:cs": "Květinové hodiny v lázeňském parku v Poděbradech",
                "P31": "Něco jiného",
                "P131^label:cs": "Poděbrady",
                "P6736": "18868"
            },
            "geometry": {
                "type": "Point",
                "coordinates": [
                    15.12035,
                    50.14518
                ]
            }
        },
        {
            "type": "Feature",
            "properties": {
                "label:cs": "Plastika srdcí v Lázeňském parku v Poděbradech",
                "P31": "Plastika",
                "P131^label:cs": "Poděbrady",
                "P6736": "17979"
            },
            "geometry": {
                "type": "Point",
                "coordinates": [
                    15.12034,
                    50.14528
                ]
            }
        },
        {
            "type": "Feature",
            "properties": {
                "label:cs": "Socha ležící ženy u kolonády v lázeňském parku v Poděbradech",
                "P31": "Socha",
                "P131^label:cs": "Poděbrady",
                "P6736": "13939"
            },
            "geometry": {
                "type": "Point",
                "coordinates": [
                    15.12062,
                    50.14664
                ]
            }
        },
        {
            "type": "Feature",
            "properties": {
                "label:cs": "Busta Antonína Dvořáka v lázeňském parku v Poděbradech",
                "P31": "Socha",
                "P131^label:cs": "Poděbrady",
                "P6736": "13938"
            },
            "geometry": {
                "type": "Point",
                "coordinates": [
                    15.11843,
                    50.14477
                ]
            }
        },
        {
            "type": "Feature",
            "properties": {
                "label:cs": "Kašna na nádvoří zámku v Poděbradech",
                "P31": "Kašna",
                "P131^label:cs": "Poděbrady",
                "P6736": "13937"
            },
            "geometry": {
                "type": "Point",
                "coordinates": [
                    15.1194,
                    50.14191
                ]
            }
        },
        {
            "type": "Feature",
            "properties": {
                "label:cs": "Mariánský sloup na náměstí Jiřího z Poděbrad v Poděbradech",
                "P31": "Sloup",
                "P131^label:cs": "Poděbrady",
                "P6736": "13936"
            },
            "geometry": {
                "type": "Point",
                "coordinates": [
                    15.11748,
                    50.14276
                ]
            }
        },
        {
            "type": "Feature",
            "properties": {
                "label:cs": "Socha Žena s osuškou v lázeňském parku v Poděbradech",
                "P31": "Socha",
                "P131^label:cs": "Poděbrady",
                "P6736": "13935"
            },
            "geometry": {
                "type": "Point",
                "coordinates": [
                    15.12027,
                    50.14511
                ]
            }
        },
        {
            "type": "Feature",
            "properties": {
                "label:cs": "Socha Ztracený ráj v lázeňském parku v Poděbradech",
                "P31": "Socha",
                "P131^label:cs": "Poděbrady",
                "P6736": "13934"
            },
            "geometry": {
                "type": "Point",
                "coordinates": [
                    15.12059,
                    50.14549
                ]
            }
        },
        {
            "type": "Feature",
            "properties": {
                "label:cs": "Památník Jiřího z Poděbrad v Poděbradech na Jiřího náměstí",
                "P31": "Památník",
                "P131^label:cs": "Poděbrady",
                "P6736": "9294"
            },
            "geometry": {
                "type": "Point",
                "coordinates": [
                    15.11829,
                    50.14239
                ]
            }
        }
    ]
}