{
    "type": "FeatureCollection",
    "features": [
        {
            "type": "Feature",
            "properties": {
                "label:cs": "Kříž u polní cesty východně od Boru ve směru na Orlov",
                "P31": "Pamětní kříž",
                "P131^label:cs": "Střítež",
                "P6736": "20839"
            },
            "geometry": {
                "type": "Point",
                "coordinates": [
                    15.13188,
                    49.38239
                ]
            }
        },
        {
            "type": "Feature",
            "properties": {
                "label:cs": "Kříž na severním okraji Boru u čp.19",
                "P31": "Pamětní kříž",
                "P131^label:cs": "Střítež",
                "P6736": "20838"
            },
            "geometry": {
                "type": "Point",
                "coordinates": [
                    15.12498,
                    49.38351
                ]
            }
        },
        {
            "type": "Feature",
            "properties": {
                "label:cs": "Kříž severně od Částkovic u lesa",
                "P31": "Pamětní kříž",
                "P131^label:cs": "Nová Cerekev",
                "P6736": "7365"
            },
            "geometry": {
                "type": "Point",
                "coordinates": [
                    15.1495,
                    49.4093
                ]
            }
        },
        {
            "type": "Feature",
            "properties": {
                "label:cs": "Kříž v Částkovicích u křižovatky",
                "P31": "Pamětní kříž",
                "P131^label:cs": "Nová Cerekev",
                "P6736": "7364"
            },
            "geometry": {
                "type": "Point",
                "coordinates": [
                    15.1472,
                    49.40525
                ]
            }
        },
        {
            "type": "Feature",
            "properties": {
                "label:cs": "Kříž východně od Částkovic",
                "P31": "Pamětní kříž",
                "P131^label:cs": "Nová Cerekev",
                "P6736": "7363"
            },
            "geometry": {
                "type": "Point",
                "coordinates": [
                    15.15009,
                    49.40124
                ]
            }
        },
        {
            "type": "Feature",
            "properties": {
                "label:cs": "Kříž v Částkovicích u kaple",
                "P31": "Pamětní kříž",
                "P131^label:cs": "Nová Cerekev",
                "P6736": "7361"
            },
            "geometry": {
                "type": "Point",
                "coordinates": [
                    15.14612,
                    49.40305
                ]
            }
        },
        {
            "type": "Feature",
            "properties": {
                "label:cs": "Kaple v Částkovicích",
                "P31": "Kaple",
                "P131^label:cs": "Nová Cerekev",
                "P6736": "7362"
            },
            "geometry": {
                "type": "Point",
                "coordinates": [
                    15.14606,
                    49.40311
                ]
            }
        },
        {
            "type": "Feature",
            "properties": {
                "label:cs": "Kříž v Částkovicích u rozcestí",
                "P31": "Pamětní kříž",
                "P131^label:cs": "Nová Cerekev",
                "P6736": "7360"
            },
            "geometry": {
                "type": "Point",
                "coordinates": [
                    15.14338,
                    49.40276
                ]
            }
        },
        {
            "type": "Feature",
            "properties": {
                "label:cs": "Kaplička v Částkovicích u rozcestí",
                "P31": "Kaplička",
                "P131^label:cs": "Nová Cerekev",
                "P6736": "7359"
            },
            "geometry": {
                "type": "Point",
                "coordinates": [
                    15.14355,
                    49.40314
                ]
            }
        },
        {
            "type": "Feature",
            "properties": {
                "label:cs": "Haltýř v Proseči-Obořišti u rozcestí",
                "P31": "Něco jiného",
                "P131^label:cs": "Nová Cerekev",
                "P6736": "7086"
            },
            "geometry": {
                "type": "Point",
                "coordinates": [
                    15.12761,
                    49.40774
                ]
            }
        },
        {
            "type": "Feature",
            "properties": {
                "label:cs": "Památník Karla Havlíčka Borovského v Proseči-Obořišti",
                "P31": "Památník",
                "P131^label:cs": "Nová Cerekev",
                "P6736": "7085"
            },
            "geometry": {
                "type": "Point",
                "coordinates": [
                    15.12938,
                    49.4062
                ]
            }
        },
        {
            "type": "Feature",
            "properties": {
                "label:cs": "Kaple v Proseči-Obořišti na návsi",
                "P31": "Kaple",
                "P131^label:cs": "Nová Cerekev",
                "P6736": "7084"
            },
            "geometry": {
                "type": "Point",
                "coordinates": [
                    15.12841,
                    49.40828
                ]
            }
        },
        {
            "type": "Feature",
            "properties": {
                "label:cs": "Kříž západně od Částkovic",
                "P31": "Pamětní kříž",
                "P131^label:cs": "Nová Cerekev",
                "P6736": "6108"
            },
            "geometry": {
                "type": "Point",
                "coordinates": [
                    15.1398,
                    49.40343
                ]
            }
        },
        {
            "type": "Feature",
            "properties": {
                "label:cs": "Kaplička jihozápadně od Částkovic",
                "P31": "Kaplička",
                "P131^label:cs": "Nová Cerekev",
                "P6736": "6042"
            },
            "geometry": {
                "type": "Point",
                "coordinates": [
                    15.14013,
                    49.39883
                ]
            }
        },
        {
            "type": "Feature",
            "properties": {
                "label:cs": "Kaplička v Proseči-Obořišti",
                "P31": "Kaplička",
                "P131^label:cs": "Nová Cerekev",
                "P6736": "6041"
            },
            "geometry": {
                "type": "Point",
                "coordinates": [
                    15.12734,
                    49.4096
                ]
            }
        }
    ]
}