{
    "type": "FeatureCollection",
    "features": [
        {
            "type": "Feature",
            "properties": {
                "label:cs": "Pomník Jana Husa v Mašově u Turnova",
                "P31": "Pomník",
                "P131^label:cs": "Turnov",
                "P6736": "25888"
            },
            "geometry": {
                "type": "Point",
                "coordinates": [
                    15.15312,
                    50.57312
                ]
            }
        },
        {
            "type": "Feature",
            "properties": {
                "label:cs": "Kaple Navštívení Panny Marie v Mašově u Turnova",
                "P31": "Kaple",
                "P131^label:cs": "Turnov",
                "P6736": "25887"
            },
            "geometry": {
                "type": "Point",
                "coordinates": [
                    15.14988,
                    50.57282
                ]
            }
        },
        {
            "type": "Feature",
            "properties": {
                "label:cs": "Pomník padlým u školy v Mašově u Turnova",
                "P31": "Pomník padlým",
                "P131^label:cs": "Turnov",
                "P6736": "25886"
            },
            "geometry": {
                "type": "Point",
                "coordinates": [
                    15.14697,
                    50.57265
                ]
            }
        },
        {
            "type": "Feature",
            "properties": {
                "label:cs": "Kříž na rohu ulice U Školy v Mašově u Turnova",
                "P31": "Pamětní kříž",
                "P131^label:cs": "Turnov",
                "P6736": "25885"
            },
            "geometry": {
                "type": "Point",
                "coordinates": [
                    15.14492,
                    50.57366
                ]
            }
        },
        {
            "type": "Feature",
            "properties": {
                "label:cs": "Kříž v Sobotecké ulici v Turnově",
                "P31": "Pamětní kříž",
                "P131^label:cs": "Turnov",
                "P6736": "25884"
            },
            "geometry": {
                "type": "Point",
                "coordinates": [
                    15.15279,
                    50.58038
                ]
            }
        },
        {
            "type": "Feature",
            "properties": {
                "label:cs": "Kaplička Božího hrobu u kostela svatého Františka v Turnově",
                "P31": "Kaplička",
                "P131^label:cs": "Turnov",
                "P6736": "19324"
            },
            "geometry": {
                "type": "Point",
                "coordinates": [
                    15.15781,
                    50.58762
                ]
            }
        },
        {
            "type": "Feature",
            "properties": {
                "label:cs": "Socha svatého Františka z Assisi ve výklenku kostela svatého Františka v Turnově",
                "P31": "Socha",
                "P131^label:cs": "Turnov",
                "P6736": "19271"
            },
            "geometry": {
                "type": "Point",
                "coordinates": [
                    15.1578,
                    50.58766
                ]
            }
        }
    ]
}