{
    "type": "FeatureCollection",
    "features": [
        {
            "type": "Feature",
            "properties": {
                "label:cs": "Milník v Arneštovicích u hlavní křižovatky",
                "P31": "Hraniční kámen",
                "P131^label:cs": "Arneštovice",
                "P6736": "20584"
            },
            "geometry": {
                "type": "Point",
                "coordinates": [
                    15.12156,
                    49.53038
                ]
            }
        },
        {
            "type": "Feature",
            "properties": {
                "label:cs": "Kříž u kaple v Arneštovicích",
                "P31": "Pamětní kříž",
                "P131^label:cs": "Arneštovice",
                "P6736": "19862"
            },
            "geometry": {
                "type": "Point",
                "coordinates": [
                    15.11873,
                    49.53244
                ]
            }
        },
        {
            "type": "Feature",
            "properties": {
                "label:cs": "Pomník padlým v Arneštovicích",
                "P31": "Pomník padlým",
                "P131^label:cs": "Arneštovice",
                "P6736": "19860"
            },
            "geometry": {
                "type": "Point",
                "coordinates": [
                    15.11858,
                    49.53248
                ]
            }
        },
        {
            "type": "Feature",
            "properties": {
                "label:cs": "Kaple v Arneštovicích",
                "P31": "Kaple",
                "P131^label:cs": "Arneštovice",
                "P6736": "19859"
            },
            "geometry": {
                "type": "Point",
                "coordinates": [
                    15.11867,
                    49.53247
                ]
            }
        },
        {
            "type": "Feature",
            "properties": {
                "label:cs": "Kříž na východním okraji Arneštovic u hlavní křižovatky",
                "P31": "Pamětní kříž",
                "P131^label:cs": "Arneštovice",
                "P6736": "19848"
            },
            "geometry": {
                "type": "Point",
                "coordinates": [
                    15.12157,
                    49.52971
                ]
            }
        },
        {
            "type": "Feature",
            "properties": {
                "label:cs": "Zničený kříž východně od Arneštovic u hlavní silnice",
                "P31": "Pamětní kříž",
                "P131^label:cs": "Arneštovice",
                "P6736": "19847"
            },
            "geometry": {
                "type": "Point",
                "coordinates": [
                    15.12426,
                    49.53139
                ]
            }
        },
        {
            "type": "Feature",
            "properties": {
                "label:cs": "Milník při cestě z Křelovic do Košetic u odbočky na Arneštovice",
                "P31": "Hraniční kámen",
                "P131^label:cs": "Křelovice",
                "P6736": "19428"
            },
            "geometry": {
                "type": "Point",
                "coordinates": [
                    15.15425,
                    49.5464
                ]
            }
        }
    ]
}