{
    "type": "FeatureCollection",
    "features": [
        {
            "type": "Feature",
            "properties": {
                "label:cs": "Kříž severně od Vlásenice-Drbohlav",
                "P31": "Pamětní kříž",
                "P131^label:cs": "Pelhřimov",
                "P6736": "6070"
            },
            "geometry": {
                "type": "Point",
                "coordinates": [
                    15.17899,
                    49.35393
                ]
            }
        },
        {
            "type": "Feature",
            "properties": {
                "label:cs": "Kříž jižně od Čelistné",
                "P31": "Pamětní kříž",
                "P131^label:cs": "Čelistná",
                "P6736": "6066"
            },
            "geometry": {
                "type": "Point",
                "coordinates": [
                    15.20323,
                    49.35569
                ]
            }
        },
        {
            "type": "Feature",
            "properties": {
                "label:cs": "Kříž severně od Čelistné u lesa",
                "P31": "Pamětní kříž",
                "P131^label:cs": "Čelistná",
                "P6736": "6059"
            },
            "geometry": {
                "type": "Point",
                "coordinates": [
                    15.20441,
                    49.36368
                ]
            }
        },
        {
            "type": "Feature",
            "properties": {
                "label:cs": "Kříž jižně od Libkovy Vody u rybníka",
                "P31": "Pamětní kříž",
                "P131^label:cs": "Libkova Voda",
                "P6736": "6058"
            },
            "geometry": {
                "type": "Point",
                "coordinates": [
                    15.19444,
                    49.3722
                ]
            }
        },
        {
            "type": "Feature",
            "properties": {
                "label:cs": "Podstavec v Libkově Vodě",
                "P31": "Neznámý",
                "P131^label:cs": "Libkova Voda",
                "P6736": "6057"
            },
            "geometry": {
                "type": "Point",
                "coordinates": [
                    15.19168,
                    49.37552
                ]
            }
        },
        {
            "type": "Feature",
            "properties": {
                "label:cs": "Kříž severně od Libkovy Vody",
                "P31": "Pamětní kříž",
                "P131^label:cs": "Libkova Voda",
                "P6736": "6056"
            },
            "geometry": {
                "type": "Point",
                "coordinates": [
                    15.19002,
                    49.37768
                ]
            }
        },
        {
            "type": "Feature",
            "properties": {
                "label:cs": "Boží muka východně od Libkovy Vody",
                "P31": "Boží muka",
                "P131^label:cs": "Libkova Voda",
                "P6736": "6055"
            },
            "geometry": {
                "type": "Point",
                "coordinates": [
                    15.19438,
                    49.37796
                ]
            }
        },
        {
            "type": "Feature",
            "properties": {
                "label:cs": "Pomník padlým v Libkově Vodě",
                "P31": "Pomník padlým",
                "P131^label:cs": "Libkova Voda",
                "P6736": "6054"
            },
            "geometry": {
                "type": "Point",
                "coordinates": [
                    15.19055,
                    49.37659
                ]
            }
        },
        {
            "type": "Feature",
            "properties": {
                "label:cs": "Památník v Libkově Vodě",
                "P31": "Památník",
                "P131^label:cs": "Libkova Voda",
                "P6736": "6053"
            },
            "geometry": {
                "type": "Point",
                "coordinates": [
                    15.19051,
                    49.37656
                ]
            }
        },
        {
            "type": "Feature",
            "properties": {
                "label:cs": "Kříž v Libkově Vodě v zahradě",
                "P31": "Pamětní kříž",
                "P131^label:cs": "Libkova Voda",
                "P6736": "6052"
            },
            "geometry": {
                "type": "Point",
                "coordinates": [
                    15.18879,
                    49.37626
                ]
            }
        },
        {
            "type": "Feature",
            "properties": {
                "label:cs": "Kaplička v Libkově Vodě u kostela",
                "P31": "Kaplička",
                "P131^label:cs": "Libkova Voda",
                "P6736": "6051"
            },
            "geometry": {
                "type": "Point",
                "coordinates": [
                    15.18839,
                    49.3761
                ]
            }
        },
        {
            "type": "Feature",
            "properties": {
                "label:cs": "Kříž v Libkově Vodě u kostela",
                "P31": "Pamětní kříž",
                "P131^label:cs": "Libkova Voda",
                "P6736": "6050"
            },
            "geometry": {
                "type": "Point",
                "coordinates": [
                    15.18841,
                    49.37616
                ]
            }
        },
        {
            "type": "Feature",
            "properties": {
                "label:cs": "Boží muka západně od Libkovy Vody",
                "P31": "Boží muka",
                "P131^label:cs": "Libkova Voda",
                "P6736": "6049"
            },
            "geometry": {
                "type": "Point",
                "coordinates": [
                    15.18692,
                    49.37636
                ]
            }
        },
        {
            "type": "Feature",
            "properties": {
                "label:cs": "Kříž západně od Libkovy Vody",
                "P31": "Pamětní kříž",
                "P131^label:cs": "Libkova Voda",
                "P6736": "6048"
            },
            "geometry": {
                "type": "Point",
                "coordinates": [
                    15.18495,
                    49.37583
                ]
            }
        },
        {
            "type": "Feature",
            "properties": {
                "label:cs": "Kříž východně od Ústrašína",
                "P31": "Pamětní kříž",
                "P131^label:cs": "Ústrašín",
                "P6736": "6047"
            },
            "geometry": {
                "type": "Point",
                "coordinates": [
                    15.17612,
                    49.38108
                ]
            }
        },
        {
            "type": "Feature",
            "properties": {
                "label:cs": "Kříž u Ústrašínského rybníka",
                "P31": "Pamětní kříž",
                "P131^label:cs": "Ústrašín",
                "P6736": "6046"
            },
            "geometry": {
                "type": "Point",
                "coordinates": [
                    15.16696,
                    49.38006
                ]
            }
        },
        {
            "type": "Feature",
            "properties": {
                "label:cs": "Kříž jižně od Ústrašína",
                "P31": "Pamětní kříž",
                "P131^label:cs": "Ústrašín",
                "P6736": "6045"
            },
            "geometry": {
                "type": "Point",
                "coordinates": [
                    15.16539,
                    49.37826
                ]
            }
        }
    ]
}