{
    "type": "FeatureCollection",
    "features": [
        {
            "type": "Feature",
            "properties": {
                "label:cs": "Kříž severně od Brtné",
                "P31": "Pamětní kříž",
                "P131^label:cs": "Želiv",
                "P6736": "22903"
            },
            "geometry": {
                "type": "Point",
                "coordinates": [
                    15.21625,
                    49.51314
                ]
            }
        },
        {
            "type": "Feature",
            "properties": {
                "label:cs": "Kříž na severním okraji Brtné u čp.36",
                "P31": "Pamětní kříž",
                "P131^label:cs": "Želiv",
                "P6736": "22902"
            },
            "geometry": {
                "type": "Point",
                "coordinates": [
                    15.21563,
                    49.51176
                ]
            }
        },
        {
            "type": "Feature",
            "properties": {
                "label:cs": "Kříž za kaplí v Brtné",
                "P31": "Pamětní kříž",
                "P131^label:cs": "Želiv",
                "P6736": "22901"
            },
            "geometry": {
                "type": "Point",
                "coordinates": [
                    15.21399,
                    49.50901
                ]
            }
        },
        {
            "type": "Feature",
            "properties": {
                "label:cs": "Kaple v Brtné",
                "P31": "Kaple",
                "P131^label:cs": "Želiv",
                "P6736": "22900"
            },
            "geometry": {
                "type": "Point",
                "coordinates": [
                    15.21395,
                    49.50893
                ]
            }
        },
        {
            "type": "Feature",
            "properties": {
                "label:cs": "Kříž východně od Popelištné u křižovatky",
                "P31": "Pamětní kříž",
                "P131^label:cs": "Červená Řečice",
                "P6736": "20415"
            },
            "geometry": {
                "type": "Point",
                "coordinates": [
                    15.20942,
                    49.49922
                ]
            }
        },
        {
            "type": "Feature",
            "properties": {
                "label:cs": "Kříž na křižovatce u samoty Mokřiny",
                "P31": "Pamětní kříž",
                "P131^label:cs": "Želiv",
                "P6736": "19011"
            },
            "geometry": {
                "type": "Point",
                "coordinates": [
                    15.22763,
                    49.51011
                ]
            }
        },
        {
            "type": "Feature",
            "properties": {
                "label:cs": "Kříž jižně od samoty Mokřiny",
                "P31": "Pamětní kříž",
                "P131^label:cs": "Svépravice",
                "P6736": "19010"
            },
            "geometry": {
                "type": "Point",
                "coordinates": [
                    15.22845,
                    49.50556
                ]
            }
        },
        {
            "type": "Feature",
            "properties": {
                "label:cs": "Kříž u cesty mezi Svépravicemi a Mokřinou v části Štětky",
                "P31": "Pamětní kříž",
                "P131^label:cs": "Svépravice",
                "P6736": "19009"
            },
            "geometry": {
                "type": "Point",
                "coordinates": [
                    15.23159,
                    49.5013
                ]
            }
        },
        {
            "type": "Feature",
            "properties": {
                "label:cs": "Kříž u cesty mezi Svépravicemi a Mokřinou",
                "P31": "Pamětní kříž",
                "P131^label:cs": "Svépravice",
                "P6736": "19008"
            },
            "geometry": {
                "type": "Point",
                "coordinates": [
                    15.23207,
                    49.50077
                ]
            }
        },
        {
            "type": "Feature",
            "properties": {
                "label:cs": "Kříž u silnice na Sedlici na severním okraji Svépravic",
                "P31": "Pamětní kříž",
                "P131^label:cs": "Svépravice",
                "P6736": "18985"
            },
            "geometry": {
                "type": "Point",
                "coordinates": [
                    15.23519,
                    49.49832
                ]
            }
        },
        {
            "type": "Feature",
            "properties": {
                "label:cs": "Kříž na severním okraji Svépravic",
                "P31": "Pamětní kříž",
                "P131^label:cs": "Svépravice",
                "P6736": "18984"
            },
            "geometry": {
                "type": "Point",
                "coordinates": [
                    15.23252,
                    49.49788
                ]
            }
        },
        {
            "type": "Feature",
            "properties": {
                "label:cs": "Pamětní deska padlým na bývalé škole ve Svépravicích",
                "P31": "Pamětní deska",
                "P131^label:cs": "Svépravice",
                "P6736": "18952"
            },
            "geometry": {
                "type": "Point",
                "coordinates": [
                    15.23368,
                    49.49694
                ]
            }
        },
        {
            "type": "Feature",
            "properties": {
                "label:cs": "Kříž na jižním okraji osady Haštal",
                "P31": "Pamětní kříž",
                "P131^label:cs": "Želiv",
                "P6736": "18824"
            },
            "geometry": {
                "type": "Point",
                "coordinates": [
                    15.22613,
                    49.51651
                ]
            }
        },
        {
            "type": "Feature",
            "properties": {
                "label:cs": "Kaple sv. Haštala v Haštale",
                "P31": "Kaple",
                "P131^label:cs": "Želiv",
                "P6736": "18823"
            },
            "geometry": {
                "type": "Point",
                "coordinates": [
                    15.22758,
                    49.51869
                ]
            }
        },
        {
            "type": "Feature",
            "properties": {
                "label:cs": "Kaplička jižně od Želiva směrem na Brtnou",
                "P31": "Kaplička",
                "P131^label:cs": "Želiv",
                "P6736": "18822"
            },
            "geometry": {
                "type": "Point",
                "coordinates": [
                    15.22452,
                    49.52407
                ]
            }
        }
    ]
}