{
    "type": "FeatureCollection",
    "features": [
        {
            "type": "Feature",
            "properties": {
                "label:cs": "Kříž za čp.5 v Miloticích",
                "P31": "Pamětní kříž",
                "P131^label:cs": "Dehtáře",
                "P6736": "23564"
            },
            "geometry": {
                "type": "Point",
                "coordinates": [
                    15.27672,
                    49.49831
                ]
            }
        },
        {
            "type": "Feature",
            "properties": {
                "label:cs": "Kříž před kaplí v Miloticích",
                "P31": "Pamětní kříž",
                "P131^label:cs": "Dehtáře",
                "P6736": "23563"
            },
            "geometry": {
                "type": "Point",
                "coordinates": [
                    15.27651,
                    49.49829
                ]
            }
        },
        {
            "type": "Feature",
            "properties": {
                "label:cs": "Kaple v Miloticích",
                "P31": "Kaple",
                "P131^label:cs": "Dehtáře",
                "P6736": "23562"
            },
            "geometry": {
                "type": "Point",
                "coordinates": [
                    15.27656,
                    49.49825
                ]
            }
        },
        {
            "type": "Feature",
            "properties": {
                "label:cs": "Kříž u kaple v Sedlici",
                "P31": "Pamětní kříž",
                "P131^label:cs": "Sedlice",
                "P6736": "20119"
            },
            "geometry": {
                "type": "Point",
                "coordinates": [
                    15.25605,
                    49.51513
                ]
            }
        },
        {
            "type": "Feature",
            "properties": {
                "label:cs": "Kaple v Sedlici",
                "P31": "Kaple",
                "P131^label:cs": "Sedlice",
                "P6736": "20118"
            },
            "geometry": {
                "type": "Point",
                "coordinates": [
                    15.25607,
                    49.51509
                ]
            }
        },
        {
            "type": "Feature",
            "properties": {
                "label:cs": "Kaplička u Sedlické přehrady v části Kordovsko",
                "P31": "Kaplička",
                "P131^label:cs": "Sedlice",
                "P6736": "19989"
            },
            "geometry": {
                "type": "Point",
                "coordinates": [
                    15.28476,
                    49.51714
                ]
            }
        },
        {
            "type": "Feature",
            "properties": {
                "label:cs": "Křížový kámen východně od Sedlice",
                "P31": "Křížový kámen",
                "P131^label:cs": "Sedlice",
                "P6736": "19987"
            },
            "geometry": {
                "type": "Point",
                "coordinates": [
                    15.26612,
                    49.51667
                ]
            }
        },
        {
            "type": "Feature",
            "properties": {
                "label:cs": "Kříž u Sedlické přehrady směrem ke Kordovsku",
                "P31": "Pamětní kříž",
                "P131^label:cs": "Sedlice",
                "P6736": "19986"
            },
            "geometry": {
                "type": "Point",
                "coordinates": [
                    15.27916,
                    49.51567
                ]
            }
        },
        {
            "type": "Feature",
            "properties": {
                "label:cs": "Kříž u samoty Na Seči severně od Kletečné",
                "P31": "Pamětní kříž",
                "P131^label:cs": "Humpolec",
                "P6736": "19985"
            },
            "geometry": {
                "type": "Point",
                "coordinates": [
                    15.29158,
                    49.51068
                ]
            }
        },
        {
            "type": "Feature",
            "properties": {
                "label:cs": "Pomník Obětem 2. světové války u samoty Na Seči",
                "P31": "Pomník padlým",
                "P131^label:cs": "Humpolec",
                "P6736": "19983"
            },
            "geometry": {
                "type": "Point",
                "coordinates": [
                    15.29169,
                    49.51059
                ]
            }
        },
        {
            "type": "Feature",
            "properties": {
                "label:cs": "Kříž u Sedlické přehrady",
                "P31": "Pamětní kříž",
                "P131^label:cs": "Sedlice",
                "P6736": "19977"
            },
            "geometry": {
                "type": "Point",
                "coordinates": [
                    15.26964,
                    49.51493
                ]
            }
        },
        {
            "type": "Feature",
            "properties": {
                "label:cs": "Kříž u rybníka Držadlo mezi Kletečnou a Onšovicemi",
                "P31": "Pamětní kříž",
                "P131^label:cs": "Humpolec",
                "P6736": "18683"
            },
            "geometry": {
                "type": "Point",
                "coordinates": [
                    15.28758,
                    49.49884
                ]
            }
        }
    ]
}