{
    "type": "FeatureCollection",
    "features": [
        {
            "type": "Feature",
            "properties": {
                "label:cs": "Kříž u železniční stanice Nová Buková",
                "P31": "Pamětní kříž",
                "P131^label:cs": "Nová Buková",
                "P6736": "19759"
            },
            "geometry": {
                "type": "Point",
                "coordinates": [
                    15.28926,
                    49.34241
                ]
            }
        },
        {
            "type": "Feature",
            "properties": {
                "label:cs": "Kříž na východním okraji Rohovky",
                "P31": "Pamětní kříž",
                "P131^label:cs": "Dobrá Voda",
                "P6736": "19496"
            },
            "geometry": {
                "type": "Point",
                "coordinates": [
                    15.276,
                    49.341
                ]
            }
        },
        {
            "type": "Feature",
            "properties": {
                "label:cs": "Kříž severně od Rohovky u silnice do Dobré Vody",
                "P31": "Pamětní kříž",
                "P131^label:cs": "Dobrá Voda",
                "P6736": "19495"
            },
            "geometry": {
                "type": "Point",
                "coordinates": [
                    15.26928,
                    49.34166
                ]
            }
        },
        {
            "type": "Feature",
            "properties": {
                "label:cs": "Kříž vedle zvoničky v Janovicích",
                "P31": "Pamětní kříž",
                "P131^label:cs": "Pelhřimov",
                "P6736": "19426"
            },
            "geometry": {
                "type": "Point",
                "coordinates": [
                    15.25415,
                    49.3306
                ]
            }
        },
        {
            "type": "Feature",
            "properties": {
                "label:cs": "Zvonička v Janovicích",
                "P31": "Zvonička",
                "P131^label:cs": "Pelhřimov",
                "P6736": "19425"
            },
            "geometry": {
                "type": "Point",
                "coordinates": [
                    15.25419,
                    49.33061
                ]
            }
        },
        {
            "type": "Feature",
            "properties": {
                "label:cs": "Kříž na návsi v Ostrovci",
                "P31": "Pamětní kříž",
                "P131^label:cs": "Pelhřimov",
                "P6736": "19424"
            },
            "geometry": {
                "type": "Point",
                "coordinates": [
                    15.25977,
                    49.33355
                ]
            }
        },
        {
            "type": "Feature",
            "properties": {
                "label:cs": "Křížový kámen v severní části Janovic u hlavní silnice",
                "P31": "Křížový kámen",
                "P131^label:cs": "Pelhřimov",
                "P6736": "19423"
            },
            "geometry": {
                "type": "Point",
                "coordinates": [
                    15.25524,
                    49.3332
                ]
            }
        },
        {
            "type": "Feature",
            "properties": {
                "label:cs": "Kříž v severní části Janovic v zahradě čp.7",
                "P31": "Pamětní kříž",
                "P131^label:cs": "Pelhřimov",
                "P6736": "19422"
            },
            "geometry": {
                "type": "Point",
                "coordinates": [
                    15.25353,
                    49.33252
                ]
            }
        },
        {
            "type": "Feature",
            "properties": {
                "label:cs": "Kříž v západní části Janovic v zahradě domu čp.18",
                "P31": "Pamětní kříž",
                "P131^label:cs": "Pelhřimov",
                "P6736": "19421"
            },
            "geometry": {
                "type": "Point",
                "coordinates": [
                    15.25123,
                    49.33083
                ]
            }
        }
    ]
}