{
    "type": "FeatureCollection",
    "features": [
        {
            "type": "Feature",
            "properties": {
                "label:cs": "Kříž ve východní části Hříběcí u zemědělských staveb",
                "P31": "Pamětní kříž",
                "P131^label:cs": "Horní Cerekev",
                "P6736": "20271"
            },
            "geometry": {
                "type": "Point",
                "coordinates": [
                    15.30319,
                    49.31738
                ]
            }
        },
        {
            "type": "Feature",
            "properties": {
                "label:cs": "Kříž jižně od místní části Hříběcí u cesty do Horní Vsi",
                "P31": "Pamětní kříž",
                "P131^label:cs": "Horní Cerekev",
                "P6736": "20270"
            },
            "geometry": {
                "type": "Point",
                "coordinates": [
                    15.30108,
                    49.3111
                ]
            }
        },
        {
            "type": "Feature",
            "properties": {
                "label:cs": "Kříž v západní části Horní Cerekve v ulici Štítného",
                "P31": "Boží muka",
                "P131^label:cs": "Horní Cerekev",
                "P6736": "20017"
            },
            "geometry": {
                "type": "Point",
                "coordinates": [
                    15.32625,
                    49.32089
                ]
            }
        },
        {
            "type": "Feature",
            "properties": {
                "label:cs": "Pamětní deska Jana Pernikáře v Horní Cerekvi",
                "P31": "Pamětní deska",
                "P131^label:cs": "Horní Cerekev",
                "P6736": "20016"
            },
            "geometry": {
                "type": "Point",
                "coordinates": [
                    15.32985,
                    49.31915
                ]
            }
        },
        {
            "type": "Feature",
            "properties": {
                "label:cs": "Barokní kašna na náměstí v Horní Cerekvi",
                "P31": "Kašna",
                "P131^label:cs": "Horní Cerekev",
                "P6736": "19616"
            },
            "geometry": {
                "type": "Point",
                "coordinates": [
                    15.32871,
                    49.31978
                ]
            }
        },
        {
            "type": "Feature",
            "properties": {
                "label:cs": "Kříž východně od lomu v Horní Cerekvi u křižovatky na Švábov",
                "P31": "Pamětní kříž",
                "P131^label:cs": "Horní Cerekev",
                "P6736": "19615"
            },
            "geometry": {
                "type": "Point",
                "coordinates": [
                    15.33462,
                    49.3149
                ]
            }
        },
        {
            "type": "Feature",
            "properties": {
                "label:cs": "Socha sv. Jana Nepomuckého v Horní Cerekvi",
                "P31": "Socha",
                "P131^label:cs": "Horní Cerekev",
                "P6736": "19611"
            },
            "geometry": {
                "type": "Point",
                "coordinates": [
                    15.32884,
                    49.31964
                ]
            }
        },
        {
            "type": "Feature",
            "properties": {
                "label:cs": "Pomník Obětem 1. a 2. světové války v Horní Cerekvi",
                "P31": "Pomník padlým",
                "P131^label:cs": "Horní Cerekev",
                "P6736": "19610"
            },
            "geometry": {
                "type": "Point",
                "coordinates": [
                    15.32915,
                    49.31955
                ]
            }
        },
        {
            "type": "Feature",
            "properties": {
                "label:cs": "Kříž u silnice z Hříběcí do Horní Cerekve u rybníku Pstruhovec",
                "P31": "Pamětní kříž",
                "P131^label:cs": "Horní Cerekev",
                "P6736": "19550"
            },
            "geometry": {
                "type": "Point",
                "coordinates": [
                    15.31702,
                    49.31913
                ]
            }
        },
        {
            "type": "Feature",
            "properties": {
                "label:cs": "Kaplička nad hotelem Rustikal v Horní Cerekvi",
                "P31": "Kaplička",
                "P131^label:cs": "Horní Cerekev",
                "P6736": "19273"
            },
            "geometry": {
                "type": "Point",
                "coordinates": [
                    15.33429,
                    49.32076
                ]
            }
        },
        {
            "type": "Feature",
            "properties": {
                "label:cs": "Kříž jižně od železničního nádraží v Horní Cerekvi",
                "P31": "Pamětní kříž",
                "P131^label:cs": "Horní Cerekev",
                "P6736": "18663"
            },
            "geometry": {
                "type": "Point",
                "coordinates": [
                    15.32198,
                    49.30629
                ]
            }
        }
    ]
}