{
    "type": "FeatureCollection",
    "features": [
        {
            "type": "Feature",
            "properties": {
                "label:cs": "Kříž západně od Švábova u silnice mezi Švábovem a Horní Cerekví",
                "P31": "Pamětní kříž",
                "P131^label:cs": "Švábov",
                "P6736": "19614"
            },
            "geometry": {
                "type": "Point",
                "coordinates": [
                    15.35406,
                    49.3091
                ]
            }
        },
        {
            "type": "Feature",
            "properties": {
                "label:cs": "Kříž u silnice mezi Švábovem a Horní Cerekví nad Švábovským potokem",
                "P31": "Pamětní kříž",
                "P131^label:cs": "Švábov",
                "P6736": "19609"
            },
            "geometry": {
                "type": "Point",
                "coordinates": [
                    15.34855,
                    49.31184
                ]
            }
        },
        {
            "type": "Feature",
            "properties": {
                "label:cs": "Kříž na západním okraji obce Švábov",
                "P31": "Pamětní kříž",
                "P131^label:cs": "Švábov",
                "P6736": "19590"
            },
            "geometry": {
                "type": "Point",
                "coordinates": [
                    15.35548,
                    49.30869
                ]
            }
        },
        {
            "type": "Feature",
            "properties": {
                "label:cs": "Kaple sv. Cyrila a Metoděje ve Švábově",
                "P31": "Kaple",
                "P131^label:cs": "Švábov",
                "P6736": "19589"
            },
            "geometry": {
                "type": "Point",
                "coordinates": [
                    15.35744,
                    49.30888
                ]
            }
        },
        {
            "type": "Feature",
            "properties": {
                "label:cs": "Kříž východně od Švábova u silnice do Batelova",
                "P31": "Pamětní kříž",
                "P131^label:cs": "Švábov",
                "P6736": "19588"
            },
            "geometry": {
                "type": "Point",
                "coordinates": [
                    15.366,
                    49.30979
                ]
            }
        }
    ]
}