{
    "type": "FeatureCollection",
    "features": [
        {
            "type": "Feature",
            "properties": {
                "label:cs": "Pomník padlým 29.6.1866 v Markově ulici v Jičíně",
                "P31": "Pomník padlým",
                "P131^label:cs": "Jičín",
                "P6736": "22883"
            },
            "geometry": {
                "type": "Point",
                "coordinates": [
                    15.34731,
                    50.44613
                ]
            }
        },
        {
            "type": "Feature",
            "properties": {
                "label:cs": "Pomník padlým 29.6.1866 Na Letné v Jičíně",
                "P31": "Pomník padlým",
                "P131^label:cs": "Jičín",
                "P6736": "22882"
            },
            "geometry": {
                "type": "Point",
                "coordinates": [
                    15.34593,
                    50.44053
                ]
            }
        },
        {
            "type": "Feature",
            "properties": {
                "label:cs": "Pomník padlým 29.6.1866 v ulici Maršála Koněva v Jičíně",
                "P31": "Pomník padlým",
                "P131^label:cs": "Jičín",
                "P6736": "22881"
            },
            "geometry": {
                "type": "Point",
                "coordinates": [
                    15.33852,
                    50.44308
                ]
            }
        },
        {
            "type": "Feature",
            "properties": {
                "label:cs": "Socha Nejsvětější Trojice v Kbelnici",
                "P31": "Socha",
                "P131^label:cs": "Kbelnice",
                "P6736": "22880"
            },
            "geometry": {
                "type": "Point",
                "coordinates": [
                    15.35169,
                    50.45458
                ]
            }
        },
        {
            "type": "Feature",
            "properties": {
                "label:cs": "Pomník padlým v 1.světové válce v Kbelnici",
                "P31": "Pomník padlým",
                "P131^label:cs": "Kbelnice",
                "P6736": "22879"
            },
            "geometry": {
                "type": "Point",
                "coordinates": [
                    15.34734,
                    50.45523
                ]
            }
        },
        {
            "type": "Feature",
            "properties": {
                "label:cs": "Kříž u silnice 35 u rozcestí do Kbelnice",
                "P31": "Pamětní kříž",
                "P131^label:cs": "Kbelnice",
                "P6736": "22878"
            },
            "geometry": {
                "type": "Point",
                "coordinates": [
                    15.34631,
                    50.45592
                ]
            }
        },
        {
            "type": "Feature",
            "properties": {
                "label:cs": "Kaplička u zaniklého pramene v Textilní ulici v Jičíně",
                "P31": "Kaplička",
                "P131^label:cs": "Jičín",
                "P6736": "22816"
            },
            "geometry": {
                "type": "Point",
                "coordinates": [
                    15.36645,
                    50.43343
                ]
            }
        },
        {
            "type": "Feature",
            "properties": {
                "label:cs": "Socha svatého Václava u kostela v Textilní ulici v Jičíně",
                "P31": "Socha",
                "P131^label:cs": "Jičín",
                "P6736": "22815"
            },
            "geometry": {
                "type": "Point",
                "coordinates": [
                    15.3664,
                    50.43355
                ]
            }
        },
        {
            "type": "Feature",
            "properties": {
                "label:cs": "Socha ženy s holubicí v Husově ulici v Jičíně",
                "P31": "Socha",
                "P131^label:cs": "Jičín",
                "P6736": "22814"
            },
            "geometry": {
                "type": "Point",
                "coordinates": [
                    15.36204,
                    50.43513
                ]
            }
        },
        {
            "type": "Feature",
            "properties": {
                "label:cs": "Sousoší Jana Křtitele a Ježíše na Lidickém náměstí v Jičíně",
                "P31": "Socha",
                "P131^label:cs": "Jičín",
                "P6736": "22813"
            },
            "geometry": {
                "type": "Point",
                "coordinates": [
                    15.34873,
                    50.43125
                ]
            }
        },
        {
            "type": "Feature",
            "properties": {
                "label:cs": "Pomník padlým v 1.světové válce na hřbitově v Jičíně",
                "P31": "Pomník padlým",
                "P131^label:cs": "Jičín",
                "P6736": "22812"
            },
            "geometry": {
                "type": "Point",
                "coordinates": [
                    15.34455,
                    50.43373
                ]
            }
        },
        {
            "type": "Feature",
            "properties": {
                "label:cs": "Centrální kříž na hřbitově v Jičíně",
                "P31": "Pamětní kříž",
                "P131^label:cs": "Jičín",
                "P6736": "22811"
            },
            "geometry": {
                "type": "Point",
                "coordinates": [
                    15.34464,
                    50.43344
                ]
            }
        },
        {
            "type": "Feature",
            "properties": {
                "label:cs": "Kaple na hřbitově v Jičíně",
                "P31": "Kaple",
                "P131^label:cs": "Jičín",
                "P6736": "22810"
            },
            "geometry": {
                "type": "Point",
                "coordinates": [
                    15.34537,
                    50.43283
                ]
            }
        },
        {
            "type": "Feature",
            "properties": {
                "label:cs": "Kříž u kostela svatého Ignáce z Loyoly v Jičíně",
                "P31": "Pamětní kříž",
                "P131^label:cs": "Jičín",
                "P6736": "22809"
            },
            "geometry": {
                "type": "Point",
                "coordinates": [
                    15.35005,
                    50.43632
                ]
            }
        },
        {
            "type": "Feature",
            "properties": {
                "label:cs": "Korunovační kašna na Valdštejnově náměstí v Jičíně",
                "P31": "Kašna",
                "P131^label:cs": "Jičín",
                "P6736": "22808"
            },
            "geometry": {
                "type": "Point",
                "coordinates": [
                    15.35147,
                    50.43687
                ]
            }
        },
        {
            "type": "Feature",
            "properties": {
                "label:cs": "Kamenná plastika draka u školy v Železnické ulici v Jičíně",
                "P31": "Plastika",
                "P131^label:cs": "Jičín",
                "P6736": "22807"
            },
            "geometry": {
                "type": "Point",
                "coordinates": [
                    15.35395,
                    50.43958
                ]
            }
        },
        {
            "type": "Feature",
            "properties": {
                "label:cs": "Foersterův pomník v ulici pod Čeřovkou v Jičíně",
                "P31": "Pomník",
                "P131^label:cs": "Jičín",
                "P6736": "22806"
            },
            "geometry": {
                "type": "Point",
                "coordinates": [
                    15.35925,
                    50.44411
                ]
            }
        },
        {
            "type": "Feature",
            "properties": {
                "label:cs": "Pomník padlým rudoarmějcům v parku pod vrchem Čeřovka v Jičíně",
                "P31": "Pomník padlým",
                "P131^label:cs": "Jičín",
                "P6736": "22805"
            },
            "geometry": {
                "type": "Point",
                "coordinates": [
                    15.36026,
                    50.44396
                ]
            }
        },
        {
            "type": "Feature",
            "properties": {
                "label:cs": "Pomník Antonína Straucha v parku pod Čeřovkou v Jičíně",
                "P31": "Pomník",
                "P131^label:cs": "Jičín",
                "P6736": "22804"
            },
            "geometry": {
                "type": "Point",
                "coordinates": [
                    15.36128,
                    50.44407
                ]
            }
        },
        {
            "type": "Feature",
            "properties": {
                "label:cs": "Dřevěná zvonice u kostela Všech svatých v části Sedličky",
                "P31": "Zvonička",
                "P131^label:cs": "Jičín",
                "P6736": "22803"
            },
            "geometry": {
                "type": "Point",
                "coordinates": [
                    15.37362,
                    50.452
                ]
            }
        },
        {
            "type": "Feature",
            "properties": {
                "label:cs": "Kaple svaté Maří Magdaleny na vrchu Zebín u Jičína",
                "P31": "Kaple",
                "P131^label:cs": "Jičín",
                "P6736": "22802"
            },
            "geometry": {
                "type": "Point",
                "coordinates": [
                    15.3742,
                    50.45341
                ]
            }
        },
        {
            "type": "Feature",
            "properties": {
                "label:cs": "Pomník architekta Vlastimila Hofmana v ulici Pod Koštofránkem v Jičíně",
                "P31": "Pomník",
                "P131^label:cs": "Jičín",
                "P6736": "16380"
            },
            "geometry": {
                "type": "Point",
                "coordinates": [
                    15.35413,
                    50.43531
                ]
            }
        },
        {
            "type": "Feature",
            "properties": {
                "label:cs": "Socha Panny Marie Rušánské na Komenského náměstí v Jičíně",
                "P31": "Socha",
                "P131^label:cs": "Jičín",
                "P6736": "16379"
            },
            "geometry": {
                "type": "Point",
                "coordinates": [
                    15.35074,
                    50.43877
                ]
            }
        },
        {
            "type": "Feature",
            "properties": {
                "label:cs": "Pomník Jana Amose Komenského v ulici 17.listopadu v Jičíně",
                "P31": "Pomník",
                "P131^label:cs": "Jičín",
                "P6736": "16378"
            },
            "geometry": {
                "type": "Point",
                "coordinates": [
                    15.35129,
                    50.43504
                ]
            }
        },
        {
            "type": "Feature",
            "properties": {
                "label:cs": "Malá kašna u zdi zámeckého parku v Jičíně",
                "P31": "Kašna",
                "P131^label:cs": "Jičín",
                "P6736": "16377"
            },
            "geometry": {
                "type": "Point",
                "coordinates": [
                    15.35198,
                    50.4355
                ]
            }
        },
        {
            "type": "Feature",
            "properties": {
                "label:cs": "Kašna v zámeckém parku v Jičíně",
                "P31": "Kašna",
                "P131^label:cs": "Jičín",
                "P6736": "16376"
            },
            "geometry": {
                "type": "Point",
                "coordinates": [
                    15.35303,
                    50.43542
                ]
            }
        },
        {
            "type": "Feature",
            "properties": {
                "label:cs": "Socha svatého Floriána na nádvoří zámku v Jičíně",
                "P31": "Socha",
                "P131^label:cs": "Jičín",
                "P6736": "16375"
            },
            "geometry": {
                "type": "Point",
                "coordinates": [
                    15.352,
                    50.43608
                ]
            }
        },
        {
            "type": "Feature",
            "properties": {
                "label:cs": "Kašna na nádvoří zámku v Jičíně",
                "P31": "Kašna",
                "P131^label:cs": "Jičín",
                "P6736": "16374"
            },
            "geometry": {
                "type": "Point",
                "coordinates": [
                    15.35233,
                    50.4361
                ]
            }
        },
        {
            "type": "Feature",
            "properties": {
                "label:cs": "Mariánský sloup na Valdštejnově náměstí v Jičíně",
                "P31": "Sloup",
                "P131^label:cs": "Jičín",
                "P6736": "16373"
            },
            "geometry": {
                "type": "Point",
                "coordinates": [
                    15.35169,
                    50.4368
                ]
            }
        },
        {
            "type": "Feature",
            "properties": {
                "label:cs": "Socha Nejsvětější Trojice v průchodu mezi kostelem a zámkem v Jičíně",
                "P31": "Socha",
                "P131^label:cs": "Jičín",
                "P6736": "16372"
            },
            "geometry": {
                "type": "Point",
                "coordinates": [
                    15.35276,
                    50.43631
                ]
            }
        },
        {
            "type": "Feature",
            "properties": {
                "label:cs": "Kovová plastika draka na Husově ulici v Jičíně",
                "P31": "Plastika",
                "P131^label:cs": "Jičín",
                "P6736": "16370"
            },
            "geometry": {
                "type": "Point",
                "coordinates": [
                    15.35499,
                    50.43669
                ]
            }
        },
        {
            "type": "Feature",
            "properties": {
                "label:cs": "Pomník Jana Husa na Husově ulici v Jičíně",
                "P31": "Pomník",
                "P131^label:cs": "Jičín",
                "P6736": "16369"
            },
            "geometry": {
                "type": "Point",
                "coordinates": [
                    15.35708,
                    50.43623
                ]
            }
        },
        {
            "type": "Feature",
            "properties": {
                "label:cs": "Pomník Karla Havlíčka Borovského v Jičíně",
                "P31": "Pomník",
                "P131^label:cs": "Jičín",
                "P6736": "16368"
            },
            "geometry": {
                "type": "Point",
                "coordinates": [
                    15.35887,
                    50.43998
                ]
            }
        },
        {
            "type": "Feature",
            "properties": {
                "label:cs": "Pomník padlým v bitvě u Jičína 1866 Na Žabínku v Jičíně",
                "P31": "Pomník padlým",
                "P131^label:cs": "Jičín",
                "P6736": "14078"
            },
            "geometry": {
                "type": "Point",
                "coordinates": [
                    15.35323,
                    50.44823
                ]
            }
        },
        {
            "type": "Feature",
            "properties": {
                "label:cs": "Socha svatého Floriána v Ruské ulici v Jičíně",
                "P31": "Socha",
                "P131^label:cs": "Jičín",
                "P6736": "14077"
            },
            "geometry": {
                "type": "Point",
                "coordinates": [
                    15.34789,
                    50.43276
                ]
            }
        },
        {
            "type": "Feature",
            "properties": {
                "label:cs": "Socha svatého Jakuba Mladšího v Ruské ulici v Jičíně",
                "P31": "Socha",
                "P131^label:cs": "Jičín",
                "P6736": "14076"
            },
            "geometry": {
                "type": "Point",
                "coordinates": [
                    15.34777,
                    50.43238
                ]
            }
        },
        {
            "type": "Feature",
            "properties": {
                "label:cs": "Socha svatého Jana Nepomuckého v Ruské ulici v Jičíně",
                "P31": "Socha",
                "P131^label:cs": "Jičín",
                "P6736": "14075"
            },
            "geometry": {
                "type": "Point",
                "coordinates": [
                    15.34777,
                    50.43237
                ]
            }
        },
        {
            "type": "Feature",
            "properties": {
                "label:cs": "Kašna v Jičíně na Valdštejnově náměstí",
                "P31": "Kašna",
                "P131^label:cs": "Jičín",
                "P6736": "9659"
            },
            "geometry": {
                "type": "Point",
                "coordinates": [
                    15.35207,
                    50.43689
                ]
            }
        }
    ]
}