{
    "type": "FeatureCollection",
    "features": [
        {
            "type": "Feature",
            "properties": {
                "label:cs": "Kříž na východním okraji Jankova",
                "P31": "Pamětní kříž",
                "P131^label:cs": "Jankov",
                "P6736": "25591"
            },
            "geometry": {
                "type": "Point",
                "coordinates": [
                    15.38871,
                    49.41486
                ]
            }
        },
        {
            "type": "Feature",
            "properties": {
                "label:cs": "Kříž u kaple sv. Anny v Jankově",
                "P31": "Pamětní kříž",
                "P131^label:cs": "Jankov",
                "P6736": "25543"
            },
            "geometry": {
                "type": "Point",
                "coordinates": [
                    15.38602,
                    49.41444
                ]
            }
        },
        {
            "type": "Feature",
            "properties": {
                "label:cs": "Kaple v Jankově",
                "P31": "Kaple",
                "P131^label:cs": "Jankov",
                "P6736": "19514"
            },
            "geometry": {
                "type": "Point",
                "coordinates": [
                    15.38606,
                    49.41441
                ]
            }
        },
        {
            "type": "Feature",
            "properties": {
                "label:cs": "Pamětní kámen Mistra Jana Husa v Opatově",
                "P31": "Památný kámen",
                "P131^label:cs": "Opatov",
                "P6736": "18694"
            },
            "geometry": {
                "type": "Point",
                "coordinates": [
                    15.39384,
                    49.42884
                ]
            }
        },
        {
            "type": "Feature",
            "properties": {
                "label:cs": "Pomník padlým v Opatově",
                "P31": "Pomník padlým",
                "P131^label:cs": "Opatov",
                "P6736": "18620"
            },
            "geometry": {
                "type": "Point",
                "coordinates": [
                    15.39392,
                    49.42888
                ]
            }
        }
    ]
}