{
    "type": "FeatureCollection",
    "features": [
        {
            "type": "Feature",
            "properties": {
                "label:cs": "Socha Jana Žižky na náměstí v Čáslavi",
                "P31": "Socha",
                "P131^label:cs": "Čáslav",
                "P6736": "13777"
            },
            "geometry": {
                "type": "Point",
                "coordinates": [
                    15.39258,
                    49.90968
                ]
            }
        },
        {
            "type": "Feature",
            "properties": {
                "label:cs": "Socha svatého Václava ve výklenku věže kostela v Čáslavi",
                "P31": "Socha",
                "P131^label:cs": "Čáslav",
                "P6736": "13776"
            },
            "geometry": {
                "type": "Point",
                "coordinates": [
                    15.38979,
                    49.91093
                ]
            }
        },
        {
            "type": "Feature",
            "properties": {
                "label:cs": "Pomník Matouše Ulického u kostela svatých Petra a Pavla v Čáslavi",
                "P31": "Pomník",
                "P131^label:cs": "Čáslav",
                "P6736": "13775"
            },
            "geometry": {
                "type": "Point",
                "coordinates": [
                    15.38998,
                    49.91092
                ]
            }
        },
        {
            "type": "Feature",
            "properties": {
                "label:cs": "Kašna na náměstí Jana Žižky v Čáslavi",
                "P31": "Kašna",
                "P131^label:cs": "Čáslav",
                "P6736": "13774"
            },
            "geometry": {
                "type": "Point",
                "coordinates": [
                    15.39166,
                    49.91027
                ]
            }
        },
        {
            "type": "Feature",
            "properties": {
                "label:cs": "Morový sloup na náměstí Jana Žižky v Čáslavi",
                "P31": "Sloup",
                "P131^label:cs": "Čáslav",
                "P6736": "13773"
            },
            "geometry": {
                "type": "Point",
                "coordinates": [
                    15.39199,
                    49.90996
                ]
            }
        }
    ]
}