{
    "type": "FeatureCollection",
    "features": [
        {
            "type": "Feature",
            "properties": {
                "label:cs": "Socha svatého Donáta západně od Vratěnína",
                "P31": "Socha",
                "P131^label:cs": "Vratěnín",
                "P6736": "20298"
            },
            "geometry": {
                "type": "Point",
                "coordinates": [
                    15.5716,
                    48.91541
                ]
            }
        },
        {
            "type": "Feature",
            "properties": {
                "label:cs": "Kříž jižně od Mešovic",
                "P31": "Pamětní kříž",
                "P131^label:cs": "Uherčice",
                "P6736": "20297"
            },
            "geometry": {
                "type": "Point",
                "coordinates": [
                    15.59416,
                    48.91987
                ]
            }
        },
        {
            "type": "Feature",
            "properties": {
                "label:cs": "Kaplička jižně od Mešovic",
                "P31": "Kaplička",
                "P131^label:cs": "Uherčice",
                "P6736": "20296"
            },
            "geometry": {
                "type": "Point",
                "coordinates": [
                    15.59424,
                    48.92137
                ]
            }
        },
        {
            "type": "Feature",
            "properties": {
                "label:cs": "Kříž ve Vratěníně před kostelem svatého Jakuba Většího",
                "P31": "Pamětní kříž",
                "P131^label:cs": "Vratěnín",
                "P6736": "19561"
            },
            "geometry": {
                "type": "Point",
                "coordinates": [
                    15.59701,
                    48.90379
                ]
            }
        },
        {
            "type": "Feature",
            "properties": {
                "label:cs": "Socha rytíře ve Vratěníně u kostela",
                "P31": "Socha",
                "P131^label:cs": "Vratěnín",
                "P6736": "19560"
            },
            "geometry": {
                "type": "Point",
                "coordinates": [
                    15.59729,
                    48.90376
                ]
            }
        },
        {
            "type": "Feature",
            "properties": {
                "label:cs": "Boží muka ve Vratěníně severní okraj obce",
                "P31": "Boží muka",
                "P131^label:cs": "Vratěnín",
                "P6736": "19546"
            },
            "geometry": {
                "type": "Point",
                "coordinates": [
                    15.59746,
                    48.90691
                ]
            }
        },
        {
            "type": "Feature",
            "properties": {
                "label:cs": "Boží muka západně od Vratěnína",
                "P31": "Boží muka",
                "P131^label:cs": "Vratěnín",
                "P6736": "19545"
            },
            "geometry": {
                "type": "Point",
                "coordinates": [
                    15.57891,
                    48.91303
                ]
            }
        }
    ]
}