{
    "type": "FeatureCollection",
    "features": [
        {
            "type": "Feature",
            "properties": {
                "label:cs": "Kříž jižně od Jazovic",
                "P31": "Pamětní kříž",
                "P131^label:cs": "Starý Petřín",
                "P6736": "20461"
            },
            "geometry": {
                "type": "Point",
                "coordinates": [
                    15.73915,
                    48.89524
                ]
            }
        },
        {
            "type": "Feature",
            "properties": {
                "label:cs": "Boží muka v Jazovicích jižní okraj obce",
                "P31": "Boží muka",
                "P131^label:cs": "Starý Petřín",
                "P6736": "20244"
            },
            "geometry": {
                "type": "Point",
                "coordinates": [
                    15.74288,
                    48.89737
                ]
            }
        },
        {
            "type": "Feature",
            "properties": {
                "label:cs": "Kříž v Jazovicích za kostelem",
                "P31": "Pamětní kříž",
                "P131^label:cs": "Starý Petřín",
                "P6736": "20243"
            },
            "geometry": {
                "type": "Point",
                "coordinates": [
                    15.74373,
                    48.89846
                ]
            }
        },
        {
            "type": "Feature",
            "properties": {
                "label:cs": "Kříž západně od Lančova",
                "P31": "Pamětní kříž",
                "P131^label:cs": "Lančov",
                "P6736": "20242"
            },
            "geometry": {
                "type": "Point",
                "coordinates": [
                    15.76058,
                    48.90595
                ]
            }
        },
        {
            "type": "Feature",
            "properties": {
                "label:cs": "Kaplička v Lančově východní okraj obce",
                "P31": "Kaplička",
                "P131^label:cs": "Lančov",
                "P6736": "19853"
            },
            "geometry": {
                "type": "Point",
                "coordinates": [
                    15.77233,
                    48.90679
                ]
            }
        },
        {
            "type": "Feature",
            "properties": {
                "label:cs": "Kříž v Lančově u kostela",
                "P31": "Pamětní kříž",
                "P131^label:cs": "Lančov",
                "P6736": "19852"
            },
            "geometry": {
                "type": "Point",
                "coordinates": [
                    15.76763,
                    48.90751
                ]
            }
        },
        {
            "type": "Feature",
            "properties": {
                "label:cs": "Kaplička severně od Lančova",
                "P31": "Kaplička",
                "P131^label:cs": "Lančov",
                "P6736": "19851"
            },
            "geometry": {
                "type": "Point",
                "coordinates": [
                    15.76964,
                    48.91767
                ]
            }
        },
        {
            "type": "Feature",
            "properties": {
                "label:cs": "Kaplička severozápadně od Lančova",
                "P31": "Kaplička",
                "P131^label:cs": "Lančov",
                "P6736": "9287"
            },
            "geometry": {
                "type": "Point",
                "coordinates": [
                    15.75933,
                    48.91096
                ]
            }
        }
    ]
}