{
    "type": "FeatureCollection",
    "features": [
        {
            "type": "Feature",
            "properties": {
                "label:cs": "Sochy u vchodu do školy Na Ostrově v Jaroměři",
                "P31": "Socha",
                "P131^label:cs": "Jaroměř",
                "P6736": "19204"
            },
            "geometry": {
                "type": "Point",
                "coordinates": [
                    15.91945,
                    50.35408
                ]
            }
        },
        {
            "type": "Feature",
            "properties": {
                "label:cs": "Kříž u silnice 37 severně od Hořenic",
                "P31": "Pamětní kříž",
                "P131^label:cs": "Hořenice",
                "P6736": "19112"
            },
            "geometry": {
                "type": "Point",
                "coordinates": [
                    15.91246,
                    50.37331
                ]
            }
        },
        {
            "type": "Feature",
            "properties": {
                "label:cs": "Kříž na návsi v Hořenicích",
                "P31": "Pamětní kříž",
                "P131^label:cs": "Hořenice",
                "P6736": "19111"
            },
            "geometry": {
                "type": "Point",
                "coordinates": [
                    15.91096,
                    50.36993
                ]
            }
        },
        {
            "type": "Feature",
            "properties": {
                "label:cs": "Kříž v ulici Národní v Jaroměři",
                "P31": "Pamětní kříž",
                "P131^label:cs": "Jaroměř",
                "P6736": "19109"
            },
            "geometry": {
                "type": "Point",
                "coordinates": [
                    15.91089,
                    50.35645
                ]
            }
        },
        {
            "type": "Feature",
            "properties": {
                "label:cs": "Kaple Panny Marie v ulici Na Vinicích v Jaroměři",
                "P31": "Kaple",
                "P131^label:cs": "Jaroměř",
                "P6736": "19107"
            },
            "geometry": {
                "type": "Point",
                "coordinates": [
                    15.90898,
                    50.35933
                ]
            }
        },
        {
            "type": "Feature",
            "properties": {
                "label:cs": "Kaple svaté Anny v ulici Na Klouzkově v Jaroměři",
                "P31": "Kaple",
                "P131^label:cs": "Jaroměř",
                "P6736": "19104"
            },
            "geometry": {
                "type": "Point",
                "coordinates": [
                    15.91275,
                    50.35006
                ]
            }
        },
        {
            "type": "Feature",
            "properties": {
                "label:cs": "Kříž v ulici Na Obci v Jaroměři",
                "P31": "Pamětní kříž",
                "P131^label:cs": "Jaroměř",
                "P6736": "19102"
            },
            "geometry": {
                "type": "Point",
                "coordinates": [
                    15.91553,
                    50.35248
                ]
            }
        },
        {
            "type": "Feature",
            "properties": {
                "label:cs": "Pomník padlým 1938-1945 v Albieriho ulici v Jaroměři",
                "P31": "Pomník padlým",
                "P131^label:cs": "Jaroměř",
                "P6736": "19100"
            },
            "geometry": {
                "type": "Point",
                "coordinates": [
                    15.91822,
                    50.35313
                ]
            }
        },
        {
            "type": "Feature",
            "properties": {
                "label:cs": "Pomník Josefa Šímy v parku u školy Na Ostrově v Jaroměři",
                "P31": "Pomník",
                "P131^label:cs": "Jaroměř",
                "P6736": "19098"
            },
            "geometry": {
                "type": "Point",
                "coordinates": [
                    15.91878,
                    50.35364
                ]
            }
        },
        {
            "type": "Feature",
            "properties": {
                "label:cs": "Pomník Otakara Španiela na náměstí Československé armády v Jaroměři",
                "P31": "Pomník",
                "P131^label:cs": "Jaroměř",
                "P6736": "19095"
            },
            "geometry": {
                "type": "Point",
                "coordinates": [
                    15.91895,
                    50.35532
                ]
            }
        },
        {
            "type": "Feature",
            "properties": {
                "label:cs": "Meteorologický sloup na náměstí Československé armády v Jaroměři",
                "P31": "Sloup",
                "P131^label:cs": "Jaroměř",
                "P6736": "19094"
            },
            "geometry": {
                "type": "Point",
                "coordinates": [
                    15.91856,
                    50.35551
                ]
            }
        },
        {
            "type": "Feature",
            "properties": {
                "label:cs": "Pomník Matyáše Bernarda Brauna na náměstí Čskoslovenské armády v Jaroměři",
                "P31": "Pomník",
                "P131^label:cs": "Jaroměř",
                "P6736": "19093"
            },
            "geometry": {
                "type": "Point",
                "coordinates": [
                    15.91873,
                    50.35546
                ]
            }
        },
        {
            "type": "Feature",
            "properties": {
                "label:cs": "Mariánský sloup na náměstí Československé armády v Jaroměři",
                "P31": "Sloup",
                "P131^label:cs": "Jaroměř",
                "P6736": "19092"
            },
            "geometry": {
                "type": "Point",
                "coordinates": [
                    15.91888,
                    50.3555
                ]
            }
        },
        {
            "type": "Feature",
            "properties": {
                "label:cs": "Masarykova socha v Masarykových sadech v Jaroměři",
                "P31": "Socha",
                "P131^label:cs": "Jaroměř",
                "P6736": "19081"
            },
            "geometry": {
                "type": "Point",
                "coordinates": [
                    15.91954,
                    50.35447
                ]
            }
        },
        {
            "type": "Feature",
            "properties": {
                "label:cs": "Pomník odstraněného Masarykova pomníku v Masarykových sadech v Jaroměři",
                "P31": "Pomník",
                "P131^label:cs": "Jaroměř",
                "P6736": "19080"
            },
            "geometry": {
                "type": "Point",
                "coordinates": [
                    15.92017,
                    50.35427
                ]
            }
        },
        {
            "type": "Feature",
            "properties": {
                "label:cs": "Socha ležící ženy v parku u školy Na Ostrově v Jaroměři",
                "P31": "Socha",
                "P131^label:cs": "Jaroměř",
                "P6736": "19079"
            },
            "geometry": {
                "type": "Point",
                "coordinates": [
                    15.91983,
                    50.35357
                ]
            }
        },
        {
            "type": "Feature",
            "properties": {
                "label:cs": "Pomník Boženy Němcové na Husově náměstí v Jaroměři",
                "P31": "Pomník",
                "P131^label:cs": "Jaroměř",
                "P6736": "19078"
            },
            "geometry": {
                "type": "Point",
                "coordinates": [
                    15.92074,
                    50.35241
                ]
            }
        },
        {
            "type": "Feature",
            "properties": {
                "label:cs": "Boží muka v ulici Otakara Španiela v Jaroměři",
                "P31": "Boží muka",
                "P131^label:cs": "Jaroměř",
                "P6736": "19077"
            },
            "geometry": {
                "type": "Point",
                "coordinates": [
                    15.91943,
                    50.35119
                ]
            }
        }
    ]
}