{
    "type": "FeatureCollection",
    "features": [
        {
            "type": "Feature",
            "properties": {
                "label:cs": "Hasičský pomník v Brodu nad Labem",
                "P31": "Pomník",
                "P131^label:cs": "Heřmanice",
                "P6736": "19126"
            },
            "geometry": {
                "type": "Point",
                "coordinates": [
                    15.90947,
                    50.38728
                ]
            }
        },
        {
            "type": "Feature",
            "properties": {
                "label:cs": "Kříž v zahradě u Labské stezky v Brodu nad Labem",
                "P31": "Pamětní kříž",
                "P131^label:cs": "Heřmanice",
                "P6736": "19125"
            },
            "geometry": {
                "type": "Point",
                "coordinates": [
                    15.91454,
                    50.38658
                ]
            }
        },
        {
            "type": "Feature",
            "properties": {
                "label:cs": "Kříž na rozcestí v Brodu nad Labem",
                "P31": "Pamětní kříž",
                "P131^label:cs": "Heřmanice",
                "P6736": "19124"
            },
            "geometry": {
                "type": "Point",
                "coordinates": [
                    15.9131,
                    50.38718
                ]
            }
        },
        {
            "type": "Feature",
            "properties": {
                "label:cs": "Kříž u mostu v Brodu nad Labem",
                "P31": "Pamětní kříž",
                "P131^label:cs": "Heřmanice",
                "P6736": "19123"
            },
            "geometry": {
                "type": "Point",
                "coordinates": [
                    15.90933,
                    50.38794
                ]
            }
        },
        {
            "type": "Feature",
            "properties": {
                "label:cs": "Kříž v zahradě na severním okraji Heřmanic",
                "P31": "Pamětní kříž",
                "P131^label:cs": "Heřmanice",
                "P6736": "19122"
            },
            "geometry": {
                "type": "Point",
                "coordinates": [
                    15.92303,
                    50.37951
                ]
            }
        },
        {
            "type": "Feature",
            "properties": {
                "label:cs": "Kříž u kostela v Heřmanicích",
                "P31": "Pamětní kříž",
                "P131^label:cs": "Heřmanice",
                "P6736": "19115"
            },
            "geometry": {
                "type": "Point",
                "coordinates": [
                    15.91977,
                    50.37901
                ]
            }
        },
        {
            "type": "Feature",
            "properties": {
                "label:cs": "Pomník padlým v 1.světové válce v Heřmanicích",
                "P31": "Pomník padlým",
                "P131^label:cs": "Heřmanice",
                "P6736": "19114"
            },
            "geometry": {
                "type": "Point",
                "coordinates": [
                    15.91982,
                    50.3792
                ]
            }
        }
    ]
}