{
    "type": "FeatureCollection",
    "features": [
        {
            "type": "Feature",
            "properties": {
                "label:cs": "Socha Svatého Jana Nepomuckého na návsi v Únanově",
                "P31": "Socha",
                "P131^label:cs": "Únanov",
                "P6736": "14218"
            },
            "geometry": {
                "type": "Point",
                "coordinates": [
                    16.06299,
                    48.90105
                ]
            }
        },
        {
            "type": "Feature",
            "properties": {
                "label:cs": "Kříž na severním okraji Únanova",
                "P31": "Pamětní kříž",
                "P131^label:cs": "Únanov",
                "P6736": "14217"
            },
            "geometry": {
                "type": "Point",
                "coordinates": [
                    16.06385,
                    48.90516
                ]
            }
        },
        {
            "type": "Feature",
            "properties": {
                "label:cs": "Boží muka na severozápadním okraji Únanova",
                "P31": "Boží muka",
                "P131^label:cs": "Únanov",
                "P6736": "14216"
            },
            "geometry": {
                "type": "Point",
                "coordinates": [
                    16.05658,
                    48.90621
                ]
            }
        },
        {
            "type": "Feature",
            "properties": {
                "label:cs": "Pomník padlým na návsi v Únanově",
                "P31": "Pomník padlým",
                "P131^label:cs": "Únanov",
                "P6736": "14215"
            },
            "geometry": {
                "type": "Point",
                "coordinates": [
                    16.06271,
                    48.90123
                ]
            }
        },
        {
            "type": "Feature",
            "properties": {
                "label:cs": "Kaple Panny Marie a sv. Jana Pavla II na severozápadním okraji Únanova",
                "P31": "Kaplička",
                "P131^label:cs": "Únanov",
                "P6736": "14214"
            },
            "geometry": {
                "type": "Point",
                "coordinates": [
                    16.05761,
                    48.90577
                ]
            }
        }
    ]
}