{
    "type": "FeatureCollection",
    "features": [
        {
            "type": "Feature",
            "properties": {
                "label:cs": "Boží muka v Radešíně nad Bobrůvkou východní okraj obce",
                "P31": "Boží muka",
                "P131^label:cs": "Radešín",
                "P6736": "20618"
            },
            "geometry": {
                "type": "Point",
                "coordinates": [
                    16.09221,
                    49.46902
                ]
            }
        },
        {
            "type": "Feature",
            "properties": {
                "label:cs": "Kříž v Radešíně nad Bobrůvkou severní okraj obce",
                "P31": "Pamětní kříž",
                "P131^label:cs": "Radešín",
                "P6736": "20616"
            },
            "geometry": {
                "type": "Point",
                "coordinates": [
                    16.08829,
                    49.47215
                ]
            }
        },
        {
            "type": "Feature",
            "properties": {
                "label:cs": "Kaplička v Horní Bobrové západní část obce",
                "P31": "Kaplička",
                "P131^label:cs": "Bobrová",
                "P6736": "20615"
            },
            "geometry": {
                "type": "Point",
                "coordinates": [
                    16.10913,
                    49.48103
                ]
            }
        },
        {
            "type": "Feature",
            "properties": {
                "label:cs": "Boží muka mezi kostelem sv. Petra a Pavla a pomnákem padlých v Bobrové",
                "P31": "Boží muka",
                "P131^label:cs": "Bobrová",
                "P6736": "15412"
            },
            "geometry": {
                "type": "Point",
                "coordinates": [
                    16.11388,
                    49.47992
                ]
            }
        },
        {
            "type": "Feature",
            "properties": {
                "label:cs": "Pomník padlým u kostela sv. Petra a Pavla v Bobrové",
                "P31": "Pomník padlým",
                "P131^label:cs": "Bobrová",
                "P6736": "15411"
            },
            "geometry": {
                "type": "Point",
                "coordinates": [
                    16.11413,
                    49.47985
                ]
            }
        }
    ]
}