{
    "type": "FeatureCollection",
    "features": [
        {
            "type": "Feature",
            "properties": {
                "label:cs": "Kříž v Dobříkově u dřevěného kostelíku Všech svatých",
                "P31": "Pamětní kříž",
                "P131^label:cs": "Dobříkov",
                "P6736": "15975"
            },
            "geometry": {
                "type": "Point",
                "coordinates": [
                    16.13617,
                    50.00136
                ]
            }
        },
        {
            "type": "Feature",
            "properties": {
                "label:cs": "Kříž severně od Zámrsku",
                "P31": "Pamětní kříž",
                "P131^label:cs": "Zámrsk",
                "P6736": "15974"
            },
            "geometry": {
                "type": "Point",
                "coordinates": [
                    16.13058,
                    49.99371
                ]
            }
        },
        {
            "type": "Feature",
            "properties": {
                "label:cs": "Pomník padlým ve Slatině u Vysokého Mýta",
                "P31": "Pomník padlým",
                "P131^label:cs": "Slatina",
                "P6736": "12230"
            },
            "geometry": {
                "type": "Point",
                "coordinates": [
                    16.16497,
                    49.97956
                ]
            }
        },
        {
            "type": "Feature",
            "properties": {
                "label:cs": "Kříž ve Slatině u Vysokého Mýta",
                "P31": "Pamětní kříž",
                "P131^label:cs": "Slatina",
                "P6736": "12223"
            },
            "geometry": {
                "type": "Point",
                "coordinates": [
                    16.15644,
                    49.9802
                ]
            }
        },
        {
            "type": "Feature",
            "properties": {
                "label:cs": "Socha Svatého Jana Nepomuckého v Zámrsku u kostela",
                "P31": "Socha",
                "P131^label:cs": "Zámrsk",
                "P6736": "12198"
            },
            "geometry": {
                "type": "Point",
                "coordinates": [
                    16.13155,
                    49.98798
                ]
            }
        },
        {
            "type": "Feature",
            "properties": {
                "label:cs": "Pomník východně od Zámrsku u řeky Loučné",
                "P31": "Pomník",
                "P131^label:cs": "Zámrsk",
                "P6736": "12197"
            },
            "geometry": {
                "type": "Point",
                "coordinates": [
                    16.13796,
                    49.98962
                ]
            }
        },
        {
            "type": "Feature",
            "properties": {
                "label:cs": "Pomník padlým v Dobříkově",
                "P31": "Pomník padlým",
                "P131^label:cs": "Dobříkov",
                "P6736": "11892"
            },
            "geometry": {
                "type": "Point",
                "coordinates": [
                    16.13363,
                    50.00237
                ]
            }
        },
        {
            "type": "Feature",
            "properties": {
                "label:cs": "Památník Dobříkovským z Malejova",
                "P31": "Památník",
                "P131^label:cs": "Dobříkov",
                "P6736": "11891"
            },
            "geometry": {
                "type": "Point",
                "coordinates": [
                    16.13762,
                    50.00095
                ]
            }
        },
        {
            "type": "Feature",
            "properties": {
                "label:cs": "Pomník vojákům v Dobříkově",
                "P31": "Pomník padlým",
                "P131^label:cs": "Dobříkov",
                "P6736": "11890"
            },
            "geometry": {
                "type": "Point",
                "coordinates": [
                    16.13089,
                    50.00289
                ]
            }
        },
        {
            "type": "Feature",
            "properties": {
                "label:cs": "Kříž v Hluboké",
                "P31": "Pamětní kříž",
                "P131^label:cs": "Sruby",
                "P6736": "11859"
            },
            "geometry": {
                "type": "Point",
                "coordinates": [
                    16.15307,
                    50.00338
                ]
            }
        },
        {
            "type": "Feature",
            "properties": {
                "label:cs": "Zvonička v Dobříkově",
                "P31": "Zvonička",
                "P131^label:cs": "Dobříkov",
                "P6736": "11754"
            },
            "geometry": {
                "type": "Point",
                "coordinates": [
                    16.1379,
                    50.00107
                ]
            }
        },
        {
            "type": "Feature",
            "properties": {
                "label:cs": "Kříž v Dobříkově",
                "P31": "Pamětní kříž",
                "P131^label:cs": "Dobříkov",
                "P6736": "11753"
            },
            "geometry": {
                "type": "Point",
                "coordinates": [
                    16.14041,
                    50.00042
                ]
            }
        },
        {
            "type": "Feature",
            "properties": {
                "label:cs": "Kříž západně od Srubů",
                "P31": "Pamětní kříž",
                "P131^label:cs": "Sruby",
                "P6736": "11749"
            },
            "geometry": {
                "type": "Point",
                "coordinates": [
                    16.16445,
                    50.00178
                ]
            }
        }
    ]
}