{
    "type": "FeatureCollection",
    "features": [
        {
            "type": "Feature",
            "properties": {
                "label:cs": "Mariánský sloup ve Vysokém Mýtě na náměstí Přemysla Otakara II.",
                "P31": "Sloup",
                "P131^label:cs": "Vysoké Mýto",
                "P6736": "15852"
            },
            "geometry": {
                "type": "Point",
                "coordinates": [
                    16.16065,
                    49.95355
                ]
            }
        },
        {
            "type": "Feature",
            "properties": {
                "label:cs": "Socha Panny Marie ve Vysokém Mýtě",
                "P31": "Socha",
                "P131^label:cs": "Vysoké Mýto",
                "P6736": "12250"
            },
            "geometry": {
                "type": "Point",
                "coordinates": [
                    16.15942,
                    49.95215
                ]
            }
        },
        {
            "type": "Feature",
            "properties": {
                "label:cs": "Kříž severně od Vysokého Mýta při cestě na Bučkův kopec",
                "P31": "Pamětní kříž",
                "P131^label:cs": "Vysoké Mýto",
                "P6736": "12202"
            },
            "geometry": {
                "type": "Point",
                "coordinates": [
                    16.17152,
                    49.96513
                ]
            }
        },
        {
            "type": "Feature",
            "properties": {
                "label:cs": "Kámen z bývalého kostelíka ze 16. století",
                "P31": "Něco jiného",
                "P131^label:cs": "Vysoké Mýto",
                "P6736": "12168"
            },
            "geometry": {
                "type": "Point",
                "coordinates": [
                    16.16787,
                    49.95237
                ]
            }
        },
        {
            "type": "Feature",
            "properties": {
                "label:cs": "Kříž ve Vysokém Mýtě na Jablonského náměstí",
                "P31": "Pamětní kříž",
                "P131^label:cs": "Vysoké Mýto",
                "P6736": "12167"
            },
            "geometry": {
                "type": "Point",
                "coordinates": [
                    16.16787,
                    49.95272
                ]
            }
        },
        {
            "type": "Feature",
            "properties": {
                "label:cs": "Kříž na východním okraji Vysokého Mýta",
                "P31": "Pamětní kříž",
                "P131^label:cs": "Vysoké Mýto",
                "P6736": "12036"
            },
            "geometry": {
                "type": "Point",
                "coordinates": [
                    16.17113,
                    49.95263
                ]
            }
        },
        {
            "type": "Feature",
            "properties": {
                "label:cs": "Smírčí kříž na okraji Vysokého Mýta",
                "P31": "Smírčí kříž",
                "P131^label:cs": "Vysoké Mýto",
                "P6736": "11414"
            },
            "geometry": {
                "type": "Point",
                "coordinates": [
                    16.1403,
                    49.96496
                ]
            }
        },
        {
            "type": "Feature",
            "properties": {
                "label:cs": "Smírčí kříž na rozcestí za Vysokým Mýtem",
                "P31": "Smírčí kříž",
                "P131^label:cs": "Vysoké Mýto",
                "P6736": "11413"
            },
            "geometry": {
                "type": "Point",
                "coordinates": [
                    16.13435,
                    49.95298
                ]
            }
        }
    ]
}