{
    "type": "FeatureCollection",
    "features": [
        {
            "type": "Feature",
            "properties": {
                "label:cs": "Socha Svatého Antonína v Borovnici",
                "P31": "Socha",
                "P131^label:cs": "Borovnice",
                "P6736": "12950"
            },
            "geometry": {
                "type": "Point",
                "coordinates": [
                    16.24537,
                    50.06292
                ]
            }
        },
        {
            "type": "Feature",
            "properties": {
                "label:cs": "Socha Svatého Jana Nepomuckého v Borovnici",
                "P31": "Socha",
                "P131^label:cs": "Borovnice",
                "P6736": "12949"
            },
            "geometry": {
                "type": "Point",
                "coordinates": [
                    16.24642,
                    50.06215
                ]
            }
        },
        {
            "type": "Feature",
            "properties": {
                "label:cs": "Kříž jižně od Rájce",
                "P31": "Pamětní kříž",
                "P131^label:cs": "Borovnice",
                "P6736": "11801"
            },
            "geometry": {
                "type": "Point",
                "coordinates": [
                    16.23215,
                    50.05009
                ]
            }
        },
        {
            "type": "Feature",
            "properties": {
                "label:cs": "Kříž v Koldíně",
                "P31": "Pamětní kříž",
                "P131^label:cs": "Koldín",
                "P6736": "11687"
            },
            "geometry": {
                "type": "Point",
                "coordinates": [
                    16.25217,
                    50.03702
                ]
            }
        },
        {
            "type": "Feature",
            "properties": {
                "label:cs": "Kříž východně od Kosteleckých Horek",
                "P31": "Pamětní kříž",
                "P131^label:cs": "Kostelecké Horky",
                "P6736": "11679"
            },
            "geometry": {
                "type": "Point",
                "coordinates": [
                    16.22005,
                    50.04739
                ]
            }
        },
        {
            "type": "Feature",
            "properties": {
                "label:cs": "Kaplička v Rájci",
                "P31": "Kaplička",
                "P131^label:cs": "Borovnice",
                "P6736": "11660"
            },
            "geometry": {
                "type": "Point",
                "coordinates": [
                    16.23456,
                    50.0522
                ]
            }
        },
        {
            "type": "Feature",
            "properties": {
                "label:cs": "Kaplička v Borovnici",
                "P31": "Kaplička",
                "P131^label:cs": "Borovnice",
                "P6736": "11659"
            },
            "geometry": {
                "type": "Point",
                "coordinates": [
                    16.24578,
                    50.06215
                ]
            }
        },
        {
            "type": "Feature",
            "properties": {
                "label:cs": "Boží muka severně od Skořenic",
                "P31": "Boží muka",
                "P131^label:cs": "Skořenice",
                "P6736": "11655"
            },
            "geometry": {
                "type": "Point",
                "coordinates": [
                    16.22456,
                    50.04333
                ]
            }
        },
        {
            "type": "Feature",
            "properties": {
                "label:cs": "Smírčí kříž západně od Rájce",
                "P31": "Smírčí kříž",
                "P131^label:cs": "Borovnice",
                "P6736": "11643"
            },
            "geometry": {
                "type": "Point",
                "coordinates": [
                    16.22373,
                    50.04901
                ]
            }
        },
        {
            "type": "Feature",
            "properties": {
                "label:cs": "Obrázek severně od Koldína",
                "P31": "Obrázek",
                "P131^label:cs": "Koldín",
                "P6736": "11628"
            },
            "geometry": {
                "type": "Point",
                "coordinates": [
                    16.24756,
                    50.04266
                ]
            }
        }
    ]
}