{
    "type": "FeatureCollection",
    "features": [
        {
            "type": "Feature",
            "properties": {
                "label:cs": "Kříž severně od Stříteže při cestě do Sebranic",
                "P31": "Pamětní kříž",
                "P131^label:cs": "Polička",
                "P6736": "23773"
            },
            "geometry": {
                "type": "Point",
                "coordinates": [
                    16.23864,
                    49.75755
                ]
            }
        },
        {
            "type": "Feature",
            "properties": {
                "label:cs": "Kříž v Sebranicích vedle kaple Nejsvětější Trojice",
                "P31": "Pamětní kříž",
                "P131^label:cs": "Sebranice",
                "P6736": "22906"
            },
            "geometry": {
                "type": "Point",
                "coordinates": [
                    16.252,
                    49.77135
                ]
            }
        },
        {
            "type": "Feature",
            "properties": {
                "label:cs": "Kaple Nejsvětější Trojice v Sebranicích místní část Pohora",
                "P31": "Kaple",
                "P131^label:cs": "Sebranice",
                "P6736": "22905"
            },
            "geometry": {
                "type": "Point",
                "coordinates": [
                    16.2521,
                    49.77139
                ]
            }
        },
        {
            "type": "Feature",
            "properties": {
                "label:cs": "Kaple Nejsvětější Trojice v Pohoře",
                "P31": "Kaple",
                "P131^label:cs": "Sebranice",
                "P6736": "22008"
            },
            "geometry": {
                "type": "Point",
                "coordinates": [
                    16.25207,
                    49.77138
                ]
            }
        },
        {
            "type": "Feature",
            "properties": {
                "label:cs": "Kříž v Sebranicích v místní části Pohora vedle kaple Nejsvětější Trjice",
                "P31": "Pamětní kříž",
                "P131^label:cs": "Sebranice",
                "P6736": "22007"
            },
            "geometry": {
                "type": "Point",
                "coordinates": [
                    16.25206,
                    49.77137
                ]
            }
        },
        {
            "type": "Feature",
            "properties": {
                "label:cs": "Kříž v Lubné jižní okraj obce II",
                "P31": "Pamětní kříž",
                "P131^label:cs": "Lubná",
                "P6736": "21990"
            },
            "geometry": {
                "type": "Point",
                "coordinates": [
                    16.22283,
                    49.77282
                ]
            }
        },
        {
            "type": "Feature",
            "properties": {
                "label:cs": "Kříž v Lubné jižní okraj obce",
                "P31": "Pamětní kříž",
                "P131^label:cs": "Lubná",
                "P6736": "21989"
            },
            "geometry": {
                "type": "Point",
                "coordinates": [
                    16.22493,
                    49.77271
                ]
            }
        },
        {
            "type": "Feature",
            "properties": {
                "label:cs": "Kříž v Lubné u kaple svaté Anny",
                "P31": "Pamětní kříž",
                "P131^label:cs": "Lubná",
                "P6736": "21977"
            },
            "geometry": {
                "type": "Point",
                "coordinates": [
                    16.22096,
                    49.77243
                ]
            }
        },
        {
            "type": "Feature",
            "properties": {
                "label:cs": "Kaple svatého Xavera v Lubné střed obce",
                "P31": "Kaple",
                "P131^label:cs": "Lubná",
                "P6736": "21976"
            },
            "geometry": {
                "type": "Point",
                "coordinates": [
                    16.21928,
                    49.77338
                ]
            }
        },
        {
            "type": "Feature",
            "properties": {
                "label:cs": "Kříž v Lubné východní část obce",
                "P31": "Pamětní kříž",
                "P131^label:cs": "Lubná",
                "P6736": "21975"
            },
            "geometry": {
                "type": "Point",
                "coordinates": [
                    16.22929,
                    49.77409
                ]
            }
        },
        {
            "type": "Feature",
            "properties": {
                "label:cs": "Socha svatého Jana Nepomuckého v Lubné",
                "P31": "Socha",
                "P131^label:cs": "Lubná",
                "P6736": "21974"
            },
            "geometry": {
                "type": "Point",
                "coordinates": [
                    16.23414,
                    49.77405
                ]
            }
        },
        {
            "type": "Feature",
            "properties": {
                "label:cs": "Kříž v Sebranicích poblíž kostela",
                "P31": "Pamětní kříž",
                "P131^label:cs": "Sebranice",
                "P6736": "21956"
            },
            "geometry": {
                "type": "Point",
                "coordinates": [
                    16.24879,
                    49.77254
                ]
            }
        },
        {
            "type": "Feature",
            "properties": {
                "label:cs": "Pomník padlým v Lubné u Poličky",
                "P31": "Pomník padlým",
                "P131^label:cs": "Lubná",
                "P6736": "21954"
            },
            "geometry": {
                "type": "Point",
                "coordinates": [
                    16.22298,
                    49.77416
                ]
            }
        },
        {
            "type": "Feature",
            "properties": {
                "label:cs": "Kříž v Lubné severovýchodní okraj obce",
                "P31": "Pamětní kříž",
                "P131^label:cs": "Lubná",
                "P6736": "21953"
            },
            "geometry": {
                "type": "Point",
                "coordinates": [
                    16.23727,
                    49.77549
                ]
            }
        },
        {
            "type": "Feature",
            "properties": {
                "label:cs": "Kříž ve Stříteži u Poličky severní okraj obce",
                "P31": "Pamětní kříž",
                "P131^label:cs": "Polička",
                "P6736": "21885"
            },
            "geometry": {
                "type": "Point",
                "coordinates": [
                    16.23953,
                    49.75376
                ]
            }
        },
        {
            "type": "Feature",
            "properties": {
                "label:cs": "Kaple svaté Anny v Lubné jižní okraj obce",
                "P31": "Kaple",
                "P131^label:cs": "Lubná",
                "P6736": "21883"
            },
            "geometry": {
                "type": "Point",
                "coordinates": [
                    16.22078,
                    49.77234
                ]
            }
        },
        {
            "type": "Feature",
            "properties": {
                "label:cs": "Kaplička svatého Jana Nepomuckého a svatého Prokopa",
                "P31": "Kaplička",
                "P131^label:cs": "Sebranice",
                "P6736": "21809"
            },
            "geometry": {
                "type": "Point",
                "coordinates": [
                    16.24007,
                    49.77528
                ]
            }
        },
        {
            "type": "Feature",
            "properties": {
                "label:cs": "Pomník nepostavené trati Litomyšl Polička",
                "P31": "Pomník",
                "P131^label:cs": "Sebranice",
                "P6736": "21808"
            },
            "geometry": {
                "type": "Point",
                "coordinates": [
                    16.24016,
                    49.77525
                ]
            }
        },
        {
            "type": "Feature",
            "properties": {
                "label:cs": "Kříž v Sebranicích v místní části Pohora",
                "P31": "Pamětní kříž",
                "P131^label:cs": "Sebranice",
                "P6736": "17714"
            },
            "geometry": {
                "type": "Point",
                "coordinates": [
                    16.25495,
                    49.77218
                ]
            }
        }
    ]
}