{
    "type": "FeatureCollection",
    "features": [
        {
            "type": "Feature",
            "properties": {
                "label:cs": "Sloup se sochou panny Marie Svatohorské v Hnátnici jižní okraj obce",
                "P31": "Sloup",
                "P131^label:cs": "Hnátnice",
                "P6736": "25552"
            },
            "geometry": {
                "type": "Point",
                "coordinates": [
                    16.46014,
                    50.00516
                ]
            }
        },
        {
            "type": "Feature",
            "properties": {
                "label:cs": "Kříž jihovýchodně od Lanšperka",
                "P31": "Pamětní kříž",
                "P131^label:cs": "Dolní Dobrouč",
                "P6736": "25042"
            },
            "geometry": {
                "type": "Point",
                "coordinates": [
                    16.45975,
                    49.9927
                ]
            }
        },
        {
            "type": "Feature",
            "properties": {
                "label:cs": "Kaple Nanebevzetí Panny Marie v Lanšperku",
                "P31": "Kaple",
                "P131^label:cs": "Dolní Dobrouč",
                "P6736": "13888"
            },
            "geometry": {
                "type": "Point",
                "coordinates": [
                    16.45702,
                    49.9966
                ]
            }
        },
        {
            "type": "Feature",
            "properties": {
                "label:cs": "Kříž v Lanšperku poblíž hradu",
                "P31": "Pamětní kříž",
                "P131^label:cs": "Dolní Dobrouč",
                "P6736": "12343"
            },
            "geometry": {
                "type": "Point",
                "coordinates": [
                    16.45509,
                    49.99536
                ]
            }
        },
        {
            "type": "Feature",
            "properties": {
                "label:cs": "Kříž u kostela v Lanšperku",
                "P31": "Pamětní kříž",
                "P131^label:cs": "Dolní Dobrouč",
                "P6736": "12342"
            },
            "geometry": {
                "type": "Point",
                "coordinates": [
                    16.45634,
                    49.99672
                ]
            }
        }
    ]
}