{
    "type": "FeatureCollection",
    "features": [
        {
            "type": "Feature",
            "properties": {
                "label:cs": "Kříž v Písečné u Žamberka ve středu obce",
                "P31": "Pamětní kříž",
                "P131^label:cs": "Písečná",
                "P6736": "15225"
            },
            "geometry": {
                "type": "Point",
                "coordinates": [
                    16.45555,
                    50.04511
                ]
            }
        },
        {
            "type": "Feature",
            "properties": {
                "label:cs": "Socha svatého Jana Nepomuckého v Písečné u Žamberka",
                "P31": "Socha",
                "P131^label:cs": "Písečná",
                "P6736": "12686"
            },
            "geometry": {
                "type": "Point",
                "coordinates": [
                    16.44526,
                    50.04308
                ]
            }
        },
        {
            "type": "Feature",
            "properties": {
                "label:cs": "Boží muka mezi Písečnou a Letohradem",
                "P31": "Boží muka",
                "P131^label:cs": "Písečná",
                "P6736": "12648"
            },
            "geometry": {
                "type": "Point",
                "coordinates": [
                    16.46705,
                    50.0453
                ]
            }
        },
        {
            "type": "Feature",
            "properties": {
                "label:cs": "Kříž jižně od Písečné",
                "P31": "Pamětní kříž",
                "P131^label:cs": "Písečná",
                "P6736": "12495"
            },
            "geometry": {
                "type": "Point",
                "coordinates": [
                    16.45973,
                    50.03855
                ]
            }
        },
        {
            "type": "Feature",
            "properties": {
                "label:cs": "Boží muka jižně od Písečné",
                "P31": "Boží muka",
                "P131^label:cs": "Písečná",
                "P6736": "12493"
            },
            "geometry": {
                "type": "Point",
                "coordinates": [
                    16.45798,
                    50.04118
                ]
            }
        },
        {
            "type": "Feature",
            "properties": {
                "label:cs": "Kříž severně od Písečné",
                "P31": "Pamětní kříž",
                "P131^label:cs": "Písečná",
                "P6736": "12492"
            },
            "geometry": {
                "type": "Point",
                "coordinates": [
                    16.44621,
                    50.04679
                ]
            }
        },
        {
            "type": "Feature",
            "properties": {
                "label:cs": "Boží muka severně od Písečné",
                "P31": "Boží muka",
                "P131^label:cs": "Písečná",
                "P6736": "12491"
            },
            "geometry": {
                "type": "Point",
                "coordinates": [
                    16.44612,
                    50.0469
                ]
            }
        },
        {
            "type": "Feature",
            "properties": {
                "label:cs": "Kříž v Písečné na tzv. horním konci",
                "P31": "Pamětní kříž",
                "P131^label:cs": "Písečná",
                "P6736": "12490"
            },
            "geometry": {
                "type": "Point",
                "coordinates": [
                    16.44289,
                    50.04603
                ]
            }
        },
        {
            "type": "Feature",
            "properties": {
                "label:cs": "Sloup se sochou Panny Marie",
                "P31": "Sloup",
                "P131^label:cs": "Písečná",
                "P6736": "12489"
            },
            "geometry": {
                "type": "Point",
                "coordinates": [
                    16.44547,
                    50.04549
                ]
            }
        },
        {
            "type": "Feature",
            "properties": {
                "label:cs": "Kříž před kostelem v Písečné",
                "P31": "Pamětní kříž",
                "P131^label:cs": "Písečná",
                "P6736": "12488"
            },
            "geometry": {
                "type": "Point",
                "coordinates": [
                    16.44599,
                    50.04395
                ]
            }
        },
        {
            "type": "Feature",
            "properties": {
                "label:cs": "Kříž mezi Žampachem a Písečnou",
                "P31": "Pamětní kříž",
                "P131^label:cs": "Písečná",
                "P6736": "12337"
            },
            "geometry": {
                "type": "Point",
                "coordinates": [
                    16.44023,
                    50.04186
                ]
            }
        }
    ]
}