{
    "type": "FeatureCollection",
    "features": [
        {
            "type": "Feature",
            "properties": {
                "label:cs": "Kříž v Kunčicích u Letohradu v ulici Pod Ovčínem",
                "P31": "Pamětní kříž",
                "P131^label:cs": "Letohrad",
                "P6736": "25405"
            },
            "geometry": {
                "type": "Point",
                "coordinates": [
                    16.51647,
                    50.023
                ]
            }
        },
        {
            "type": "Feature",
            "properties": {
                "label:cs": "Kříž v Kunčicích u Letohradu u kostela svaté Kateřiny",
                "P31": "Pamětní kříž",
                "P131^label:cs": "Letohrad",
                "P6736": "25404"
            },
            "geometry": {
                "type": "Point",
                "coordinates": [
                    16.52014,
                    50.02387
                ]
            }
        },
        {
            "type": "Feature",
            "properties": {
                "label:cs": "Pomník padlým v Kunčicích u Letohradu",
                "P31": "Pomník padlým",
                "P131^label:cs": "Letohrad",
                "P6736": "25403"
            },
            "geometry": {
                "type": "Point",
                "coordinates": [
                    16.51997,
                    50.02383
                ]
            }
        },
        {
            "type": "Feature",
            "properties": {
                "label:cs": "Socha Panny Marie v Letohradě v místní části Podměstí",
                "P31": "Socha",
                "P131^label:cs": "Letohrad",
                "P6736": "25390"
            },
            "geometry": {
                "type": "Point",
                "coordinates": [
                    16.49833,
                    50.03274
                ]
            }
        },
        {
            "type": "Feature",
            "properties": {
                "label:cs": "Sousoší sv. Anny u kostela sv. Václava v Letohradu",
                "P31": "Socha",
                "P131^label:cs": "Letohrad",
                "P6736": "20105"
            },
            "geometry": {
                "type": "Point",
                "coordinates": [
                    16.4987,
                    50.03569
                ]
            }
        },
        {
            "type": "Feature",
            "properties": {
                "label:cs": "Pomník F. V. Heka u kostela sv. Václava v Letohradu",
                "P31": "Pomník",
                "P131^label:cs": "Letohrad",
                "P6736": "20104"
            },
            "geometry": {
                "type": "Point",
                "coordinates": [
                    16.49855,
                    50.03557
                ]
            }
        },
        {
            "type": "Feature",
            "properties": {
                "label:cs": "Kaple sv. Jana Nepomuckého na hřebeni nad Letohradem",
                "P31": "Kaple",
                "P131^label:cs": "Letohrad",
                "P6736": "20103"
            },
            "geometry": {
                "type": "Point",
                "coordinates": [
                    16.492,
                    50.03485
                ]
            }
        },
        {
            "type": "Feature",
            "properties": {
                "label:cs": "Kaple na hřbitově v Letohradu",
                "P31": "Kaple",
                "P131^label:cs": "Letohrad",
                "P6736": "20102"
            },
            "geometry": {
                "type": "Point",
                "coordinates": [
                    16.49404,
                    50.03474
                ]
            }
        },
        {
            "type": "Feature",
            "properties": {
                "label:cs": "Empírový altán v zámeckém parku v Letohradu",
                "P31": "Něco jiného",
                "P131^label:cs": "Letohrad",
                "P6736": "20101"
            },
            "geometry": {
                "type": "Point",
                "coordinates": [
                    16.49417,
                    50.03428
                ]
            }
        },
        {
            "type": "Feature",
            "properties": {
                "label:cs": "Památník Járy Cimrmana u boční zdi zámku v Letohradu",
                "P31": "Památník",
                "P131^label:cs": "Letohrad",
                "P6736": "20100"
            },
            "geometry": {
                "type": "Point",
                "coordinates": [
                    16.50003,
                    50.03542
                ]
            }
        },
        {
            "type": "Feature",
            "properties": {
                "label:cs": "Kaplička v Letohradě v Ústecké ulici",
                "P31": "Kaplička",
                "P131^label:cs": "Letohrad",
                "P6736": "17062"
            },
            "geometry": {
                "type": "Point",
                "coordinates": [
                    16.49535,
                    50.03257
                ]
            }
        },
        {
            "type": "Feature",
            "properties": {
                "label:cs": "Sousoší svaté Anny v Letohradě u kostela svatého Václava",
                "P31": "Socha",
                "P131^label:cs": "Letohrad",
                "P6736": "16830"
            },
            "geometry": {
                "type": "Point",
                "coordinates": [
                    16.49875,
                    50.03567
                ]
            }
        },
        {
            "type": "Feature",
            "properties": {
                "label:cs": "Kašna v zámeckém parku v Letohradu",
                "P31": "Kašna",
                "P131^label:cs": "Letohrad",
                "P6736": "13891"
            },
            "geometry": {
                "type": "Point",
                "coordinates": [
                    16.49807,
                    50.03509
                ]
            }
        }
    ]
}