{
    "type": "FeatureCollection",
    "features": [
        {
            "type": "Feature",
            "properties": {
                "label:cs": "Kříž v Českých Petrovicích",
                "P31": "Pamětní kříž",
                "P131^label:cs": "České Petrovice",
                "P6736": "12853"
            },
            "geometry": {
                "type": "Point",
                "coordinates": [
                    16.59928,
                    50.12093
                ]
            }
        },
        {
            "type": "Feature",
            "properties": {
                "label:cs": "Sousoší v Českých Petrovicích",
                "P31": "Socha",
                "P131^label:cs": "České Petrovice",
                "P6736": "12843"
            },
            "geometry": {
                "type": "Point",
                "coordinates": [
                    16.60059,
                    50.12159
                ]
            }
        },
        {
            "type": "Feature",
            "properties": {
                "label:cs": "Kaplička v místní části Jedlina",
                "P31": "Kaplička",
                "P131^label:cs": "Klášterec nad Orlicí",
                "P6736": "12692"
            },
            "geometry": {
                "type": "Point",
                "coordinates": [
                    16.58553,
                    50.12319
                ]
            }
        },
        {
            "type": "Feature",
            "properties": {
                "label:cs": "Kříž v Českých Petrovicích při cestě na Jedlinu",
                "P31": "Pamětní kříž",
                "P131^label:cs": "České Petrovice",
                "P6736": "12647"
            },
            "geometry": {
                "type": "Point",
                "coordinates": [
                    16.58928,
                    50.12144
                ]
            }
        },
        {
            "type": "Feature",
            "properties": {
                "label:cs": "Kříž v Jedlině u kapličky",
                "P31": "Pamětní kříž",
                "P131^label:cs": "Klášterec nad Orlicí",
                "P6736": "12646"
            },
            "geometry": {
                "type": "Point",
                "coordinates": [
                    16.58541,
                    50.12324
                ]
            }
        },
        {
            "type": "Feature",
            "properties": {
                "label:cs": "Obrázek v Českých Petrovicích",
                "P31": "Obrázek",
                "P131^label:cs": "České Petrovice",
                "P6736": "12633"
            },
            "geometry": {
                "type": "Point",
                "coordinates": [
                    16.59693,
                    50.12072
                ]
            }
        },
        {
            "type": "Feature",
            "properties": {
                "label:cs": "Kříž v Českých Petrovicích u kostela",
                "P31": "Pamětní kříž",
                "P131^label:cs": "České Petrovice",
                "P6736": "12632"
            },
            "geometry": {
                "type": "Point",
                "coordinates": [
                    16.59526,
                    50.12252
                ]
            }
        },
        {
            "type": "Feature",
            "properties": {
                "label:cs": "Kříž uprostřed obce Jedlina",
                "P31": "Pamětní kříž",
                "P131^label:cs": "Klášterec nad Orlicí",
                "P6736": "12173"
            },
            "geometry": {
                "type": "Point",
                "coordinates": [
                    16.58053,
                    50.12442
                ]
            }
        },
        {
            "type": "Feature",
            "properties": {
                "label:cs": "Kříž severně od Českých Petrovic",
                "P31": "Pamětní kříž",
                "P131^label:cs": "České Petrovice",
                "P6736": "12153"
            },
            "geometry": {
                "type": "Point",
                "coordinates": [
                    16.60553,
                    50.12727
                ]
            }
        }
    ]
}