{
    "type": "FeatureCollection",
    "features": [
        {
            "type": "Feature",
            "properties": {
                "label:cs": "Kříž v Letovicích na křižovatce ulic Pražská a Bártova",
                "P31": "Pamětní kříž",
                "P131^label:cs": "Letovice",
                "P6736": "21901"
            },
            "geometry": {
                "type": "Point",
                "coordinates": [
                    16.57704,
                    49.54721
                ]
            }
        },
        {
            "type": "Feature",
            "properties": {
                "label:cs": "Kříž před kostelem Svatého Václava v Letovicích",
                "P31": "Pamětní kříž",
                "P131^label:cs": "Letovice",
                "P6736": "21900"
            },
            "geometry": {
                "type": "Point",
                "coordinates": [
                    16.57894,
                    49.54492
                ]
            }
        },
        {
            "type": "Feature",
            "properties": {
                "label:cs": "Kříž v Letovicích na křižovatce ulic Pod klášterem a Albína Krejčího",
                "P31": "Pamětní kříž",
                "P131^label:cs": "Letovice",
                "P6736": "21899"
            },
            "geometry": {
                "type": "Point",
                "coordinates": [
                    16.57871,
                    49.54415
                ]
            }
        },
        {
            "type": "Feature",
            "properties": {
                "label:cs": "Pomník padlým v Letovicích",
                "P31": "Pomník padlým",
                "P131^label:cs": "Letovice",
                "P6736": "13311"
            },
            "geometry": {
                "type": "Point",
                "coordinates": [
                    16.57908,
                    49.55369
                ]
            }
        },
        {
            "type": "Feature",
            "properties": {
                "label:cs": "Kříž v Letovicích v Nádražní ulici",
                "P31": "Pamětní kříž",
                "P131^label:cs": "Letovice",
                "P6736": "13310"
            },
            "geometry": {
                "type": "Point",
                "coordinates": [
                    16.572,
                    49.55354
                ]
            }
        }
    ]
}