{
    "type": "FeatureCollection",
    "features": [
        {
            "type": "Feature",
            "properties": {
                "label:cs": "Obrázek v Jestřebí na okraji lesa",
                "P31": "Obrázek",
                "P131^label:cs": "Jestřebí",
                "P6736": "22277"
            },
            "geometry": {
                "type": "Point",
                "coordinates": [
                    16.87224,
                    49.85941
                ]
            }
        },
        {
            "type": "Feature",
            "properties": {
                "label:cs": "Kříž na okraji Pobučí na rozcestí",
                "P31": "Pamětní kříž",
                "P131^label:cs": "Jestřebí",
                "P6736": "21548"
            },
            "geometry": {
                "type": "Point",
                "coordinates": [
                    16.84823,
                    49.84116
                ]
            }
        },
        {
            "type": "Feature",
            "properties": {
                "label:cs": "Kříž v Pobučí naproti kostelu",
                "P31": "Pamětní kříž",
                "P131^label:cs": "Jestřebí",
                "P6736": "21547"
            },
            "geometry": {
                "type": "Point",
                "coordinates": [
                    16.85109,
                    49.84315
                ]
            }
        },
        {
            "type": "Feature",
            "properties": {
                "label:cs": "Kříž v Jestřebí na okraji obce",
                "P31": "Pamětní kříž",
                "P131^label:cs": "Jestřebí",
                "P6736": "21546"
            },
            "geometry": {
                "type": "Point",
                "coordinates": [
                    16.87441,
                    49.84939
                ]
            }
        },
        {
            "type": "Feature",
            "properties": {
                "label:cs": "Torzo kříže v Pobučí poblíž kostela",
                "P31": "Pamětní kříž",
                "P131^label:cs": "Jestřebí",
                "P6736": "21326"
            },
            "geometry": {
                "type": "Point",
                "coordinates": [
                    16.85108,
                    49.84384
                ]
            }
        },
        {
            "type": "Feature",
            "properties": {
                "label:cs": "Dřevěný kříž v Pobučí na kopci Kalvárie",
                "P31": "Pamětní kříž",
                "P131^label:cs": "Jestřebí",
                "P6736": "21154"
            },
            "geometry": {
                "type": "Point",
                "coordinates": [
                    16.85425,
                    49.84688
                ]
            }
        },
        {
            "type": "Feature",
            "properties": {
                "label:cs": "Kříž u kaple v Jestřebíčku",
                "P31": "Pamětní kříž",
                "P131^label:cs": "Jestřebí",
                "P6736": "20860"
            },
            "geometry": {
                "type": "Point",
                "coordinates": [
                    16.86102,
                    49.85677
                ]
            }
        },
        {
            "type": "Feature",
            "properties": {
                "label:cs": "Kaple svatého Františka z Assisi v Jestřebíčku",
                "P31": "Kaple",
                "P131^label:cs": "Jestřebí",
                "P6736": "20859"
            },
            "geometry": {
                "type": "Point",
                "coordinates": [
                    16.86113,
                    49.85677
                ]
            }
        },
        {
            "type": "Feature",
            "properties": {
                "label:cs": "Kaple Panny Marie v Jestřebí na návsi",
                "P31": "Kaple",
                "P131^label:cs": "Jestřebí",
                "P6736": "20792"
            },
            "geometry": {
                "type": "Point",
                "coordinates": [
                    16.86829,
                    49.85239
                ]
            }
        },
        {
            "type": "Feature",
            "properties": {
                "label:cs": "Kříž v Jestřebí před kaplí",
                "P31": "Pamětní kříž",
                "P131^label:cs": "Jestřebí",
                "P6736": "19822"
            },
            "geometry": {
                "type": "Point",
                "coordinates": [
                    16.86813,
                    49.85247
                ]
            }
        },
        {
            "type": "Feature",
            "properties": {
                "label:cs": "Kaple Panny Marie Sněžné v Jestřebí",
                "P31": "Kaple",
                "P131^label:cs": "Jestřebí",
                "P6736": "19821"
            },
            "geometry": {
                "type": "Point",
                "coordinates": [
                    16.86832,
                    49.85241
                ]
            }
        },
        {
            "type": "Feature",
            "properties": {
                "label:cs": "Pomník Karla Havlíčka Borovského v Jestřebí",
                "P31": "Pomník",
                "P131^label:cs": "Jestřebí",
                "P6736": "18796"
            },
            "geometry": {
                "type": "Point",
                "coordinates": [
                    16.86809,
                    49.85211
                ]
            }
        },
        {
            "type": "Feature",
            "properties": {
                "label:cs": "Kaple svatého Martina v Lupěném",
                "P31": "Kaple",
                "P131^label:cs": "Nemile",
                "P6736": "18552"
            },
            "geometry": {
                "type": "Point",
                "coordinates": [
                    16.84155,
                    49.86499
                ]
            }
        },
        {
            "type": "Feature",
            "properties": {
                "label:cs": "Pomník padlým v Jestřebí u kostela",
                "P31": "Pomník padlým",
                "P131^label:cs": "Jestřebí",
                "P6736": "17074"
            },
            "geometry": {
                "type": "Point",
                "coordinates": [
                    16.86861,
                    49.85239
                ]
            }
        },
        {
            "type": "Feature",
            "properties": {
                "label:cs": "Kříž v Pobučí před kostelem",
                "P31": "Pamětní kříž",
                "P131^label:cs": "Jestřebí",
                "P6736": "16980"
            },
            "geometry": {
                "type": "Point",
                "coordinates": [
                    16.85125,
                    49.84317
                ]
            }
        },
        {
            "type": "Feature",
            "properties": {
                "label:cs": "Kříž v Jestřebí na křižovatce",
                "P31": "Pamětní kříž",
                "P131^label:cs": "Jestřebí",
                "P6736": "16099"
            },
            "geometry": {
                "type": "Point",
                "coordinates": [
                    16.86495,
                    49.85705
                ]
            }
        },
        {
            "type": "Feature",
            "properties": {
                "label:cs": "Kaplička na okraji Pobučí",
                "P31": "Kaplička",
                "P131^label:cs": "Jestřebí",
                "P6736": "12029"
            },
            "geometry": {
                "type": "Point",
                "coordinates": [
                    16.85341,
                    49.84287
                ]
            }
        },
        {
            "type": "Feature",
            "properties": {
                "label:cs": "Boží muka v Zábřehu na Skaličce u hřbitova",
                "P31": "Boží muka",
                "P131^label:cs": "Zábřeh",
                "P6736": "11745"
            },
            "geometry": {
                "type": "Point",
                "coordinates": [
                    16.87326,
                    49.86629
                ]
            }
        },
        {
            "type": "Feature",
            "properties": {
                "label:cs": "Boží muka na okraji Pobučí",
                "P31": "Boží muka",
                "P131^label:cs": "Jestřebí",
                "P6736": "11395"
            },
            "geometry": {
                "type": "Point",
                "coordinates": [
                    16.85511,
                    49.84325
                ]
            }
        }
    ]
}