{
    "type": "FeatureCollection",
    "features": [
        {
            "type": "Feature",
            "properties": {
                "label:cs": "Obrázek u Loštic v lese U Františka",
                "P31": "Obrázek",
                "P131^label:cs": "Loštice",
                "P6736": "23903"
            },
            "geometry": {
                "type": "Point",
                "coordinates": [
                    16.9125,
                    49.72757
                ]
            }
        },
        {
            "type": "Feature",
            "properties": {
                "label:cs": "Kaplička Smíření svaté Hildegardy z Bingenu v Žádlovicích pod lesem",
                "P31": "Kaplička",
                "P131^label:cs": "Loštice",
                "P6736": "22170"
            },
            "geometry": {
                "type": "Point",
                "coordinates": [
                    16.90039,
                    49.75285
                ]
            }
        },
        {
            "type": "Feature",
            "properties": {
                "label:cs": "Kříž v Lošticích v části Vlčice",
                "P31": "Pamětní kříž",
                "P131^label:cs": "Loštice",
                "P6736": "18417"
            },
            "geometry": {
                "type": "Point",
                "coordinates": [
                    16.90327,
                    49.73476
                ]
            }
        },
        {
            "type": "Feature",
            "properties": {
                "label:cs": "Kříž u Loštic vedle silnice",
                "P31": "Pamětní kříž",
                "P131^label:cs": "Loštice",
                "P6736": "18416"
            },
            "geometry": {
                "type": "Point",
                "coordinates": [
                    16.91332,
                    49.73829
                ]
            }
        },
        {
            "type": "Feature",
            "properties": {
                "label:cs": "Kříž v Žádlovicích vedle kaple",
                "P31": "Pamětní kříž",
                "P131^label:cs": "Loštice",
                "P6736": "18018"
            },
            "geometry": {
                "type": "Point",
                "coordinates": [
                    16.90762,
                    49.74565
                ]
            }
        },
        {
            "type": "Feature",
            "properties": {
                "label:cs": "Kaple svaté Rodiny v Žádlovicích",
                "P31": "Kaple",
                "P131^label:cs": "Loštice",
                "P6736": "17964"
            },
            "geometry": {
                "type": "Point",
                "coordinates": [
                    16.90754,
                    49.7456
                ]
            }
        },
        {
            "type": "Feature",
            "properties": {
                "label:cs": "Kaple Panny Marie v Lechovicích u rybníka",
                "P31": "Kaple",
                "P131^label:cs": "Pavlov",
                "P6736": "17961"
            },
            "geometry": {
                "type": "Point",
                "coordinates": [
                    16.88636,
                    49.73836
                ]
            }
        },
        {
            "type": "Feature",
            "properties": {
                "label:cs": "Pomník padlým ve středu Radnice",
                "P31": "Pomník padlým",
                "P131^label:cs": "Pavlov",
                "P6736": "17865"
            },
            "geometry": {
                "type": "Point",
                "coordinates": [
                    16.87533,
                    49.72466
                ]
            }
        },
        {
            "type": "Feature",
            "properties": {
                "label:cs": "Socha Panny Marie v Pavlově před kostelem",
                "P31": "Socha",
                "P131^label:cs": "Pavlov",
                "P6736": "17826"
            },
            "geometry": {
                "type": "Point",
                "coordinates": [
                    16.87943,
                    49.74251
                ]
            }
        },
        {
            "type": "Feature",
            "properties": {
                "label:cs": "Kříž výchdně od Pavlova u silnice",
                "P31": "Pamětní kříž",
                "P131^label:cs": "Pavlov",
                "P6736": "17825"
            },
            "geometry": {
                "type": "Point",
                "coordinates": [
                    16.88832,
                    49.74351
                ]
            }
        },
        {
            "type": "Feature",
            "properties": {
                "label:cs": "Kříž západně od Loštic u zahrádkářské osady",
                "P31": "Pamětní kříž",
                "P131^label:cs": "Loštice",
                "P6736": "17824"
            },
            "geometry": {
                "type": "Point",
                "coordinates": [
                    16.90603,
                    49.74092
                ]
            }
        },
        {
            "type": "Feature",
            "properties": {
                "label:cs": "Kaple v Lošticích v místní části Vlčice",
                "P31": "Kaple",
                "P131^label:cs": "Loštice",
                "P6736": "13132"
            },
            "geometry": {
                "type": "Point",
                "coordinates": [
                    16.90632,
                    49.73672
                ]
            }
        },
        {
            "type": "Feature",
            "properties": {
                "label:cs": "Boží muka na kraji Pavlova",
                "P31": "Boží muka",
                "P131^label:cs": "Pavlov",
                "P6736": "11866"
            },
            "geometry": {
                "type": "Point",
                "coordinates": [
                    16.88338,
                    49.7445
                ]
            }
        },
        {
            "type": "Feature",
            "properties": {
                "label:cs": "Kaplička u Loštic na Chlumku v poli",
                "P31": "Kaplička",
                "P131^label:cs": "Loštice",
                "P6736": "11864"
            },
            "geometry": {
                "type": "Point",
                "coordinates": [
                    16.91805,
                    49.74654
                ]
            }
        }
    ]
}