{
    "type": "FeatureCollection",
    "features": [
        {
            "type": "Feature",
            "properties": {
                "label:cs": "Kříž v Lošticích na Olomoucké ulici",
                "P31": "Pamětní kříž",
                "P131^label:cs": "Loštice",
                "P6736": "22778"
            },
            "geometry": {
                "type": "Point",
                "coordinates": [
                    16.94287,
                    49.74109
                ]
            }
        },
        {
            "type": "Feature",
            "properties": {
                "label:cs": "Kříž v Paloníně na návsi před kostelem",
                "P31": "Pamětní kříž",
                "P131^label:cs": "Palonín",
                "P6736": "22776"
            },
            "geometry": {
                "type": "Point",
                "coordinates": [
                    16.95328,
                    49.72821
                ]
            }
        },
        {
            "type": "Feature",
            "properties": {
                "label:cs": "Pomník padlým v Paloníně na návsi",
                "P31": "Pomník padlým",
                "P131^label:cs": "Palonín",
                "P6736": "22775"
            },
            "geometry": {
                "type": "Point",
                "coordinates": [
                    16.95318,
                    49.7293
                ]
            }
        },
        {
            "type": "Feature",
            "properties": {
                "label:cs": "Socha svatého Jana Nepomuckého v Paloníně",
                "P31": "Socha",
                "P131^label:cs": "Palonín",
                "P6736": "22499"
            },
            "geometry": {
                "type": "Point",
                "coordinates": [
                    16.95293,
                    49.73059
                ]
            }
        },
        {
            "type": "Feature",
            "properties": {
                "label:cs": "Pomník padlým v Lošticích před školou",
                "P31": "Pomník padlým",
                "P131^label:cs": "Loštice",
                "P6736": "22235"
            },
            "geometry": {
                "type": "Point",
                "coordinates": [
                    16.93071,
                    49.74567
                ]
            }
        },
        {
            "type": "Feature",
            "properties": {
                "label:cs": "Kříž za Palonínem vedle cyklostezky v polích",
                "P31": "Pamětní kříž",
                "P131^label:cs": "Palonín",
                "P6736": "20534"
            },
            "geometry": {
                "type": "Point",
                "coordinates": [
                    16.94535,
                    49.73523
                ]
            }
        },
        {
            "type": "Feature",
            "properties": {
                "label:cs": "Sloup se sochou Panny Marie v Lošticích na okraji obce",
                "P31": "Sloup",
                "P131^label:cs": "Loštice",
                "P6736": "20533"
            },
            "geometry": {
                "type": "Point",
                "coordinates": [
                    16.94382,
                    49.73806
                ]
            }
        },
        {
            "type": "Feature",
            "properties": {
                "label:cs": "Kříž v Lošticích v ulici U Valchy",
                "P31": "Pamětní kříž",
                "P131^label:cs": "Loštice",
                "P6736": "20532"
            },
            "geometry": {
                "type": "Point",
                "coordinates": [
                    16.92142,
                    49.74192
                ]
            }
        },
        {
            "type": "Feature",
            "properties": {
                "label:cs": "Kříž se sousoším Piety v Lošticích v Hradské ulici",
                "P31": "Pamětní kříž",
                "P131^label:cs": "Loštice",
                "P6736": "20531"
            },
            "geometry": {
                "type": "Point",
                "coordinates": [
                    16.9269,
                    49.74223
                ]
            }
        },
        {
            "type": "Feature",
            "properties": {
                "label:cs": "Kříž v Lošticích v Havelkově ulici",
                "P31": "Pamětní kříž",
                "P131^label:cs": "Loštice",
                "P6736": "20530"
            },
            "geometry": {
                "type": "Point",
                "coordinates": [
                    16.93314,
                    49.73877
                ]
            }
        },
        {
            "type": "Feature",
            "properties": {
                "label:cs": "Kříž v Lošticích na Olomoucké ulici",
                "P31": "Pamětní kříž",
                "P131^label:cs": "Loštice",
                "P6736": "20529"
            },
            "geometry": {
                "type": "Point",
                "coordinates": [
                    16.93596,
                    49.74271
                ]
            }
        },
        {
            "type": "Feature",
            "properties": {
                "label:cs": "Socha svatého Jana Nepomuckého v Lošticích na Olomoucké ulici",
                "P31": "Socha",
                "P131^label:cs": "Loštice",
                "P6736": "20528"
            },
            "geometry": {
                "type": "Point",
                "coordinates": [
                    16.93093,
                    49.74433
                ]
            }
        },
        {
            "type": "Feature",
            "properties": {
                "label:cs": "Sloup se sousoším Nejsvětější Trojice v Lošticích na náměstí Míru",
                "P31": "Sloup",
                "P131^label:cs": "Loštice",
                "P6736": "20527"
            },
            "geometry": {
                "type": "Point",
                "coordinates": [
                    16.92838,
                    49.74485
                ]
            }
        },
        {
            "type": "Feature",
            "properties": {
                "label:cs": "Socha Krista Výtězného v Lošticích na Moravičanské ulici",
                "P31": "Socha",
                "P131^label:cs": "Loštice",
                "P6736": "20526"
            },
            "geometry": {
                "type": "Point",
                "coordinates": [
                    16.93249,
                    49.74796
                ]
            }
        },
        {
            "type": "Feature",
            "properties": {
                "label:cs": "Kříž v Lošticích vedle kostela",
                "P31": "Pamětní kříž",
                "P131^label:cs": "Loštice",
                "P6736": "20525"
            },
            "geometry": {
                "type": "Point",
                "coordinates": [
                    16.93117,
                    49.74616
                ]
            }
        },
        {
            "type": "Feature",
            "properties": {
                "label:cs": "Kříž v Lošticích před kostelem",
                "P31": "Pamětní kříž",
                "P131^label:cs": "Loštice",
                "P6736": "20524"
            },
            "geometry": {
                "type": "Point",
                "coordinates": [
                    16.93049,
                    49.74591
                ]
            }
        },
        {
            "type": "Feature",
            "properties": {
                "label:cs": "Socha Panny Marie Immaculaty v Lošticích před kostelem",
                "P31": "Socha",
                "P131^label:cs": "Loštice",
                "P6736": "20523"
            },
            "geometry": {
                "type": "Point",
                "coordinates": [
                    16.93058,
                    49.74586
                ]
            }
        },
        {
            "type": "Feature",
            "properties": {
                "label:cs": "Socha Panny Marie na severním okraji Loštic při silnici na Moravičany",
                "P31": "Socha",
                "P131^label:cs": "Loštice",
                "P6736": "18359"
            },
            "geometry": {
                "type": "Point",
                "coordinates": [
                    16.93877,
                    49.75037
                ]
            }
        },
        {
            "type": "Feature",
            "properties": {
                "label:cs": "Kašna se sochou Svatopluka na Náměstí Míru v Lošticích",
                "P31": "Kašna",
                "P131^label:cs": "Loštice",
                "P6736": "18358"
            },
            "geometry": {
                "type": "Point",
                "coordinates": [
                    16.92804,
                    49.74493
                ]
            }
        },
        {
            "type": "Feature",
            "properties": {
                "label:cs": "Socha svatého Jana Nepomuckého na okraji Loštic",
                "P31": "Socha",
                "P131^label:cs": "Loštice",
                "P6736": "14430"
            },
            "geometry": {
                "type": "Point",
                "coordinates": [
                    16.92457,
                    49.74845
                ]
            }
        },
        {
            "type": "Feature",
            "properties": {
                "label:cs": "Pamětní deska s bustou Adolfa Kašpara v Lošticích na fasádě Památníku Adolfa Kašpara",
                "P31": "Pamětní deska",
                "P131^label:cs": "Loštice",
                "P6736": "14061"
            },
            "geometry": {
                "type": "Point",
                "coordinates": [
                    16.92553,
                    49.74636
                ]
            }
        },
        {
            "type": "Feature",
            "properties": {
                "label:cs": "Kříž u Palonína na křižovatce",
                "P31": "Pamětní kříž",
                "P131^label:cs": "Palonín",
                "P6736": "11603"
            },
            "geometry": {
                "type": "Point",
                "coordinates": [
                    16.95687,
                    49.73463
                ]
            }
        },
        {
            "type": "Feature",
            "properties": {
                "label:cs": "Kalička svaté Pavlíny u Palonína v poli",
                "P31": "Kaplička",
                "P131^label:cs": "Palonín",
                "P6736": "11602"
            },
            "geometry": {
                "type": "Point",
                "coordinates": [
                    16.94905,
                    49.73211
                ]
            }
        }
    ]
}