{
    "type": "FeatureCollection",
    "features": [
        {
            "type": "Feature",
            "properties": {
                "label:cs": "Kříž v Dolních Studénkách na křižovatce",
                "P31": "Pamětní kříž",
                "P131^label:cs": "Dolní Studénky",
                "P6736": "19800"
            },
            "geometry": {
                "type": "Point",
                "coordinates": [
                    16.97395,
                    49.93668
                ]
            }
        },
        {
            "type": "Feature",
            "properties": {
                "label:cs": "Kříž v Dolních Studénkách u kostela",
                "P31": "Pamětní kříž",
                "P131^label:cs": "Dolní Studénky",
                "P6736": "19799"
            },
            "geometry": {
                "type": "Point",
                "coordinates": [
                    16.9644,
                    49.93138
                ]
            }
        },
        {
            "type": "Feature",
            "properties": {
                "label:cs": "Obrázek v Dolních Studénkách u hlavní silnice",
                "P31": "Obrázek",
                "P131^label:cs": "Dolní Studénky",
                "P6736": "19798"
            },
            "geometry": {
                "type": "Point",
                "coordinates": [
                    16.96522,
                    49.93196
                ]
            }
        },
        {
            "type": "Feature",
            "properties": {
                "label:cs": "Pomník padlým v Dolních Studénkách",
                "P31": "Pomník padlým",
                "P131^label:cs": "Dolní Studénky",
                "P6736": "19796"
            },
            "geometry": {
                "type": "Point",
                "coordinates": [
                    16.96483,
                    49.93164
                ]
            }
        },
        {
            "type": "Feature",
            "properties": {
                "label:cs": "Obrázek u Dolních Studének na okraji lesa",
                "P31": "Obrázek",
                "P131^label:cs": "Dolní Studénky",
                "P6736": "19795"
            },
            "geometry": {
                "type": "Point",
                "coordinates": [
                    16.97693,
                    49.92895
                ]
            }
        },
        {
            "type": "Feature",
            "properties": {
                "label:cs": "Obrázek u Dolních Studének na polním rozcestí",
                "P31": "Obrázek",
                "P131^label:cs": "Dolní Studénky",
                "P6736": "19794"
            },
            "geometry": {
                "type": "Point",
                "coordinates": [
                    16.97045,
                    49.93008
                ]
            }
        },
        {
            "type": "Feature",
            "properties": {
                "label:cs": "Kaplička v Dolních Studénkách u hlavní silnice",
                "P31": "Kaplička",
                "P131^label:cs": "Dolní Studénky",
                "P6736": "12155"
            },
            "geometry": {
                "type": "Point",
                "coordinates": [
                    16.96859,
                    49.93395
                ]
            }
        }
    ]
}