{
    "type": "FeatureCollection",
    "features": [
        {
            "type": "Feature",
            "properties": {
                "label:cs": "Pomník padlým ve Veleboři u kaple",
                "P31": "Pomník padlým",
                "P131^label:cs": "Klopina",
                "P6736": "23887"
            },
            "geometry": {
                "type": "Point",
                "coordinates": [
                    17.01786,
                    49.83549
                ]
            }
        },
        {
            "type": "Feature",
            "properties": {
                "label:cs": "Kaple ve Veleboři u hlavní silnice",
                "P31": "Kaple",
                "P131^label:cs": "Klopina",
                "P6736": "19331"
            },
            "geometry": {
                "type": "Point",
                "coordinates": [
                    17.01764,
                    49.8353
                ]
            }
        },
        {
            "type": "Feature",
            "properties": {
                "label:cs": "Kříž na okraji Veleboře u rozcestí",
                "P31": "Pamětní kříž",
                "P131^label:cs": "Klopina",
                "P6736": "19330"
            },
            "geometry": {
                "type": "Point",
                "coordinates": [
                    17.01554,
                    49.83312
                ]
            }
        },
        {
            "type": "Feature",
            "properties": {
                "label:cs": "Kříž v Klopině na okraji obce",
                "P31": "Pamětní kříž",
                "P131^label:cs": "Klopina",
                "P6736": "19329"
            },
            "geometry": {
                "type": "Point",
                "coordinates": [
                    17.01554,
                    49.82514
                ]
            }
        },
        {
            "type": "Feature",
            "properties": {
                "label:cs": "Pomník padlým v Pískově",
                "P31": "Pomník padlým",
                "P131^label:cs": "Troubelice",
                "P6736": "13227"
            },
            "geometry": {
                "type": "Point",
                "coordinates": [
                    17.04838,
                    49.82169
                ]
            }
        },
        {
            "type": "Feature",
            "properties": {
                "label:cs": "Kříž v Pískově u kaple",
                "P31": "Pamětní kříž",
                "P131^label:cs": "Troubelice",
                "P6736": "13214"
            },
            "geometry": {
                "type": "Point",
                "coordinates": [
                    17.04805,
                    49.82158
                ]
            }
        },
        {
            "type": "Feature",
            "properties": {
                "label:cs": "Boží muka u Pískova naproti hřbitovu",
                "P31": "Boží muka",
                "P131^label:cs": "Troubelice",
                "P6736": "12359"
            },
            "geometry": {
                "type": "Point",
                "coordinates": [
                    17.0404,
                    49.81953
                ]
            }
        }
    ]
}