{
    "type": "FeatureCollection",
    "features": [
        {
            "type": "Feature",
            "properties": {
                "label:cs": "Pomník padlým Benkov u cesty na hřbitov",
                "P31": "Pomník padlým",
                "P131^label:cs": "Dlouhomilov",
                "P6736": "25745"
            },
            "geometry": {
                "type": "Point",
                "coordinates": [
                    17.02241,
                    49.89319
                ]
            }
        },
        {
            "type": "Feature",
            "properties": {
                "label:cs": "Kříž na okraji Nedvězí",
                "P31": "Pamětní kříž",
                "P131^label:cs": "Rohle",
                "P6736": "16280"
            },
            "geometry": {
                "type": "Point",
                "coordinates": [
                    17.03071,
                    49.87128
                ]
            }
        },
        {
            "type": "Feature",
            "properties": {
                "label:cs": "Pomník padlým v Nedvězí",
                "P31": "Pomník padlým",
                "P131^label:cs": "Rohle",
                "P6736": "13228"
            },
            "geometry": {
                "type": "Point",
                "coordinates": [
                    17.03273,
                    49.87181
                ]
            }
        },
        {
            "type": "Feature",
            "properties": {
                "label:cs": "Kaple v Nedvězí u hlavní silnice",
                "P31": "Kaple",
                "P131^label:cs": "Rohle",
                "P6736": "13014"
            },
            "geometry": {
                "type": "Point",
                "coordinates": [
                    17.03383,
                    49.87326
                ]
            }
        },
        {
            "type": "Feature",
            "properties": {
                "label:cs": "Kaple ve středu Benkova nad silnicí",
                "P31": "Kaple",
                "P131^label:cs": "Dlouhomilov",
                "P6736": "12829"
            },
            "geometry": {
                "type": "Point",
                "coordinates": [
                    17.02184,
                    49.89318
                ]
            }
        }
    ]
}