{
    "type": "FeatureCollection",
    "features": [
        {
            "type": "Feature",
            "properties": {
                "label:cs": "Křiž v Troubelicích na rozcestí",
                "P31": "Pamětní kříž",
                "P131^label:cs": "Troubelice",
                "P6736": "23121"
            },
            "geometry": {
                "type": "Point",
                "coordinates": [
                    17.09512,
                    49.81212
                ]
            }
        },
        {
            "type": "Feature",
            "properties": {
                "label:cs": "Kaple svaté Anny v Šumvaldu u hlavní silnice",
                "P31": "Kaple",
                "P131^label:cs": "Šumvald",
                "P6736": "22928"
            },
            "geometry": {
                "type": "Point",
                "coordinates": [
                    17.13475,
                    49.83308
                ]
            }
        },
        {
            "type": "Feature",
            "properties": {
                "label:cs": "Boží muka v Šumvaldu na okraji obce",
                "P31": "Boží muka",
                "P131^label:cs": "Šumvald",
                "P6736": "17664"
            },
            "geometry": {
                "type": "Point",
                "coordinates": [
                    17.12098,
                    49.83
                ]
            }
        },
        {
            "type": "Feature",
            "properties": {
                "label:cs": "Boží muka východně od Troubelic",
                "P31": "Boží muka",
                "P131^label:cs": "Troubelice",
                "P6736": "12728"
            },
            "geometry": {
                "type": "Point",
                "coordinates": [
                    17.10936,
                    49.82272
                ]
            }
        },
        {
            "type": "Feature",
            "properties": {
                "label:cs": "Boží muka v Šumvaldu u rybníka",
                "P31": "Boží muka",
                "P131^label:cs": "Šumvald",
                "P6736": "12727"
            },
            "geometry": {
                "type": "Point",
                "coordinates": [
                    17.12429,
                    49.81276
                ]
            }
        }
    ]
}