{
    "type": "FeatureCollection",
    "features": [
        {
            "type": "Feature",
            "properties": {
                "label:cs": "Kříž v Dětřichově na okraji vesnice",
                "P31": "Pamětní kříž",
                "P131^label:cs": "Uničov",
                "P6736": "25760"
            },
            "geometry": {
                "type": "Point",
                "coordinates": [
                    17.12214,
                    49.7362
                ]
            }
        },
        {
            "type": "Feature",
            "properties": {
                "label:cs": "Kříž v Renotách před kostelem",
                "P31": "Pamětní kříž",
                "P131^label:cs": "Uničov",
                "P6736": "24457"
            },
            "geometry": {
                "type": "Point",
                "coordinates": [
                    17.10175,
                    49.74225
                ]
            }
        },
        {
            "type": "Feature",
            "properties": {
                "label:cs": "Pomník padlým Renoty u hlavní silnice",
                "P31": "Pomník padlým",
                "P131^label:cs": "Uničov",
                "P6736": "24179"
            },
            "geometry": {
                "type": "Point",
                "coordinates": [
                    17.10118,
                    49.74141
                ]
            }
        },
        {
            "type": "Feature",
            "properties": {
                "label:cs": "Kříž u Střelic vedle silnice",
                "P31": "Pamětní kříž",
                "P131^label:cs": "Uničov",
                "P6736": "22609"
            },
            "geometry": {
                "type": "Point",
                "coordinates": [
                    17.09496,
                    49.74675
                ]
            }
        },
        {
            "type": "Feature",
            "properties": {
                "label:cs": "Kříž v Dětřichově před kaplí",
                "P31": "Pamětní kříž",
                "P131^label:cs": "Uničov",
                "P6736": "16568"
            },
            "geometry": {
                "type": "Point",
                "coordinates": [
                    17.12368,
                    49.73556
                ]
            }
        },
        {
            "type": "Feature",
            "properties": {
                "label:cs": "Kaple svatého Floriána v Dětřichově",
                "P31": "Kaple",
                "P131^label:cs": "Uničov",
                "P6736": "16567"
            },
            "geometry": {
                "type": "Point",
                "coordinates": [
                    17.12386,
                    49.73572
                ]
            }
        },
        {
            "type": "Feature",
            "properties": {
                "label:cs": "Boží muka na okraji Renot",
                "P31": "Boží muka",
                "P131^label:cs": "Uničov",
                "P6736": "15564"
            },
            "geometry": {
                "type": "Point",
                "coordinates": [
                    17.10707,
                    49.73909
                ]
            }
        }
    ]
}