{
    "type": "FeatureCollection",
    "features": [
        {
            "type": "Feature",
            "properties": {
                "label:cs": "Sloup Panny Marie Vojnice jižně od obce u silnice",
                "P31": "Sloup",
                "P131^label:cs": "Těšetice",
                "P6736": "24970"
            },
            "geometry": {
                "type": "Point",
                "coordinates": [
                    17.14138,
                    49.58964
                ]
            }
        },
        {
            "type": "Feature",
            "properties": {
                "label:cs": "Socha svatého Václava v Topolanech u kaple",
                "P31": "Socha",
                "P131^label:cs": "Olomouc",
                "P6736": "13290"
            },
            "geometry": {
                "type": "Point",
                "coordinates": [
                    17.18011,
                    49.58765
                ]
            }
        },
        {
            "type": "Feature",
            "properties": {
                "label:cs": "Sloup Svaté Trojice ve Vojnici u kaple",
                "P31": "Sloup",
                "P131^label:cs": "Těšetice",
                "P6736": "13281"
            },
            "geometry": {
                "type": "Point",
                "coordinates": [
                    17.13934,
                    49.59701
                ]
            }
        },
        {
            "type": "Feature",
            "properties": {
                "label:cs": "Pomník padlým ve Vojnici",
                "P31": "Pomník padlým",
                "P131^label:cs": "Těšetice",
                "P6736": "13245"
            },
            "geometry": {
                "type": "Point",
                "coordinates": [
                    17.13933,
                    49.59712
                ]
            }
        },
        {
            "type": "Feature",
            "properties": {
                "label:cs": "Pomník padlým v Ústíně",
                "P31": "Pomník padlým",
                "P131^label:cs": "Ústín",
                "P6736": "13244"
            },
            "geometry": {
                "type": "Point",
                "coordinates": [
                    17.15709,
                    49.58633
                ]
            }
        },
        {
            "type": "Feature",
            "properties": {
                "label:cs": "Kaple svatého Floriána v Topolanech",
                "P31": "Kaple",
                "P131^label:cs": "Olomouc",
                "P6736": "13089"
            },
            "geometry": {
                "type": "Point",
                "coordinates": [
                    17.17726,
                    49.58445
                ]
            }
        },
        {
            "type": "Feature",
            "properties": {
                "label:cs": "Kaplička svatého Floriána v Ústíně",
                "P31": "Kaplička",
                "P131^label:cs": "Ústín",
                "P6736": "12407"
            },
            "geometry": {
                "type": "Point",
                "coordinates": [
                    17.15534,
                    49.58715
                ]
            }
        },
        {
            "type": "Feature",
            "properties": {
                "label:cs": "Smírčí kříž ve Vojnicích ve zdi kaple",
                "P31": "Smírčí kříž",
                "P131^label:cs": "Těšetice",
                "P6736": "12247"
            },
            "geometry": {
                "type": "Point",
                "coordinates": [
                    17.13939,
                    49.59701
                ]
            }
        },
        {
            "type": "Feature",
            "properties": {
                "label:cs": "Boží muka západně od Topolan",
                "P31": "Boží muka",
                "P131^label:cs": "Olomouc",
                "P6736": "12236"
            },
            "geometry": {
                "type": "Point",
                "coordinates": [
                    17.16976,
                    49.58661
                ]
            }
        },
        {
            "type": "Feature",
            "properties": {
                "label:cs": "Boží muka v Topolanech v ulici U svatého Jana",
                "P31": "Boží muka",
                "P131^label:cs": "Olomouc",
                "P6736": "12235"
            },
            "geometry": {
                "type": "Point",
                "coordinates": [
                    17.18158,
                    49.58812
                ]
            }
        },
        {
            "type": "Feature",
            "properties": {
                "label:cs": "Boží muka v Topolanech v ulici U svatého Jana",
                "P31": "Boží muka",
                "P131^label:cs": "Olomouc",
                "P6736": "12234"
            },
            "geometry": {
                "type": "Point",
                "coordinates": [
                    17.18154,
                    49.5881
                ]
            }
        },
        {
            "type": "Feature",
            "properties": {
                "label:cs": "Smírčí kříž v Topolanech v Bílkově ulici",
                "P31": "Smírčí kříž",
                "P131^label:cs": "Olomouc",
                "P6736": "12212"
            },
            "geometry": {
                "type": "Point",
                "coordinates": [
                    17.18005,
                    49.58504
                ]
            }
        }
    ]
}