{
    "type": "FeatureCollection",
    "features": [
        {
            "type": "Feature",
            "properties": {
                "label:cs": "Pomník padlým na Náměstí v Koryčanech",
                "P31": "Pomník padlým",
                "P131^label:cs": "Koryčany",
                "P6736": "18940"
            },
            "geometry": {
                "type": "Point",
                "coordinates": [
                    17.16409,
                    49.10617
                ]
            }
        },
        {
            "type": "Feature",
            "properties": {
                "label:cs": "Kaplička svatého Floriána v Koryčanech",
                "P31": "Kaplička",
                "P131^label:cs": "Koryčany",
                "P6736": "13380"
            },
            "geometry": {
                "type": "Point",
                "coordinates": [
                    17.15892,
                    49.10897
                ]
            }
        },
        {
            "type": "Feature",
            "properties": {
                "label:cs": "Kříž před kostelem na náměstí v Koryčanech",
                "P31": "Pamětní kříž",
                "P131^label:cs": "Koryčany",
                "P6736": "13379"
            },
            "geometry": {
                "type": "Point",
                "coordinates": [
                    17.16329,
                    49.10591
                ]
            }
        },
        {
            "type": "Feature",
            "properties": {
                "label:cs": "Socha Panny Marie před kostelem na náměstí v Koryčanech",
                "P31": "Socha",
                "P131^label:cs": "Koryčany",
                "P6736": "13377"
            },
            "geometry": {
                "type": "Point",
                "coordinates": [
                    17.1637,
                    49.10608
                ]
            }
        },
        {
            "type": "Feature",
            "properties": {
                "label:cs": "Pylon Tomáše Šinka u hřbitova v Koryčanech",
                "P31": "Pomník",
                "P131^label:cs": "Koryčany",
                "P6736": "13376"
            },
            "geometry": {
                "type": "Point",
                "coordinates": [
                    17.16375,
                    49.11082
                ]
            }
        },
        {
            "type": "Feature",
            "properties": {
                "label:cs": "Socha Panny Marie v Příčné ulici",
                "P31": "Socha",
                "P131^label:cs": "Koryčany",
                "P6736": "13375"
            },
            "geometry": {
                "type": "Point",
                "coordinates": [
                    17.1641,
                    49.10986
                ]
            }
        },
        {
            "type": "Feature",
            "properties": {
                "label:cs": "Sousoší Tři Jáni v Koryčanech",
                "P31": "Socha",
                "P131^label:cs": "Koryčany",
                "P6736": "9366"
            },
            "geometry": {
                "type": "Point",
                "coordinates": [
                    17.16262,
                    49.10574
                ]
            }
        },
        {
            "type": "Feature",
            "properties": {
                "label:cs": "Kašna na náměstí v Koryčanech",
                "P31": "Kašna",
                "P131^label:cs": "Koryčany",
                "P6736": "9360"
            },
            "geometry": {
                "type": "Point",
                "coordinates": [
                    17.16347,
                    49.10633
                ]
            }
        }
    ]
}