{
    "type": "FeatureCollection",
    "features": [
        {
            "type": "Feature",
            "properties": {
                "label:cs": "Památník v Dolní Dlouhé Loučce ve středu obce",
                "P31": "Památník",
                "P131^label:cs": "Dlouhá Loučka",
                "P6736": "23334"
            },
            "geometry": {
                "type": "Point",
                "coordinates": [
                    17.18935,
                    49.81783
                ]
            }
        },
        {
            "type": "Feature",
            "properties": {
                "label:cs": "Kašna v Dolní Dlouhé Loučce ve středu obce",
                "P31": "Kašna",
                "P131^label:cs": "Dlouhá Loučka",
                "P6736": "23333"
            },
            "geometry": {
                "type": "Point",
                "coordinates": [
                    17.18934,
                    49.81784
                ]
            }
        },
        {
            "type": "Feature",
            "properties": {
                "label:cs": "Dřevěný kříž na okraji Dolní Dlouhé Loučky",
                "P31": "Pamětní kříž",
                "P131^label:cs": "Dlouhá Loučka",
                "P6736": "23111"
            },
            "geometry": {
                "type": "Point",
                "coordinates": [
                    17.18618,
                    49.82384
                ]
            }
        },
        {
            "type": "Feature",
            "properties": {
                "label:cs": "Kaple na okraji Dolní Dlouhé Loučky vedle polní cesty",
                "P31": "Kaple",
                "P131^label:cs": "Dlouhá Loučka",
                "P6736": "22931"
            },
            "geometry": {
                "type": "Point",
                "coordinates": [
                    17.18762,
                    49.81646
                ]
            }
        },
        {
            "type": "Feature",
            "properties": {
                "label:cs": "Památník severně od Horní Dlouhé Loučky v hájku",
                "P31": "Památník",
                "P131^label:cs": "Dlouhá Loučka",
                "P6736": "22930"
            },
            "geometry": {
                "type": "Point",
                "coordinates": [
                    17.19143,
                    49.83026
                ]
            }
        },
        {
            "type": "Feature",
            "properties": {
                "label:cs": "Sloup se sochou Panny Marie ve středu Dolní Dlouhé Loučky",
                "P31": "Socha",
                "P131^label:cs": "Dlouhá Loučka",
                "P6736": "18360"
            },
            "geometry": {
                "type": "Point",
                "coordinates": [
                    17.18963,
                    49.81805
                ]
            }
        },
        {
            "type": "Feature",
            "properties": {
                "label:cs": "Pomník padlým na hřbitově u Křivé",
                "P31": "Pomník padlým",
                "P131^label:cs": "Dlouhá Loučka",
                "P6736": "11881"
            },
            "geometry": {
                "type": "Point",
                "coordinates": [
                    17.20224,
                    49.83237
                ]
            }
        }
    ]
}