{
    "type": "FeatureCollection",
    "features": [
        {
            "type": "Feature",
            "properties": {
                "label:cs": "Pomník padlým v Mořicích u hasičské zbrojnice",
                "P31": "Pomník padlým",
                "P131^label:cs": "Mořice",
                "P6736": "24411"
            },
            "geometry": {
                "type": "Point",
                "coordinates": [
                    17.19727,
                    49.33024
                ]
            }
        },
        {
            "type": "Feature",
            "properties": {
                "label:cs": "Socha svaté Anny v Němčicích nad Hanou na ulici Tyršova",
                "P31": "Socha",
                "P131^label:cs": "Němčice nad Hanou",
                "P6736": "22429"
            },
            "geometry": {
                "type": "Point",
                "coordinates": [
                    17.21026,
                    49.34439
                ]
            }
        },
        {
            "type": "Feature",
            "properties": {
                "label:cs": "Kříž v Němčicích nad Hanou na ulici Masarykova",
                "P31": "Pamětní kříž",
                "P131^label:cs": "Němčice nad Hanou",
                "P6736": "22428"
            },
            "geometry": {
                "type": "Point",
                "coordinates": [
                    17.20898,
                    49.34304
                ]
            }
        },
        {
            "type": "Feature",
            "properties": {
                "label:cs": "Kříž v Němčicích nad Hanou na ulici Novosady",
                "P31": "Pamětní kříž",
                "P131^label:cs": "Němčice nad Hanou",
                "P6736": "22427"
            },
            "geometry": {
                "type": "Point",
                "coordinates": [
                    17.20126,
                    49.34688
                ]
            }
        },
        {
            "type": "Feature",
            "properties": {
                "label:cs": "Kříž v Němčicích nad Hanou na ulici Novosady",
                "P31": "Pamětní kříž",
                "P131^label:cs": "Němčice nad Hanou",
                "P6736": "22426"
            },
            "geometry": {
                "type": "Point",
                "coordinates": [
                    17.20369,
                    49.34379
                ]
            }
        },
        {
            "type": "Feature",
            "properties": {
                "label:cs": "Socha anděla v Němčicích nad Hanou na ulici Hliník",
                "P31": "Socha",
                "P131^label:cs": "Němčice nad Hanou",
                "P6736": "22425"
            },
            "geometry": {
                "type": "Point",
                "coordinates": [
                    17.19808,
                    49.34371
                ]
            }
        },
        {
            "type": "Feature",
            "properties": {
                "label:cs": "Kříž v Němčicích nad Hanou na ulici Havlíčkova",
                "P31": "Pamětní kříž",
                "P131^label:cs": "Němčice nad Hanou",
                "P6736": "22424"
            },
            "geometry": {
                "type": "Point",
                "coordinates": [
                    17.19911,
                    49.34201
                ]
            }
        },
        {
            "type": "Feature",
            "properties": {
                "label:cs": "Kříž v Němčicích nad Hanou na ulici Šafaříkova",
                "P31": "Pamětní kříž",
                "P131^label:cs": "Němčice nad Hanou",
                "P6736": "22423"
            },
            "geometry": {
                "type": "Point",
                "coordinates": [
                    17.20208,
                    49.34029
                ]
            }
        },
        {
            "type": "Feature",
            "properties": {
                "label:cs": "Kříž v Němčicích nad Hanou za kostelem na Komenského náměstí",
                "P31": "Pamětní kříž",
                "P131^label:cs": "Němčice nad Hanou",
                "P6736": "22422"
            },
            "geometry": {
                "type": "Point",
                "coordinates": [
                    17.20529,
                    49.34072
                ]
            }
        },
        {
            "type": "Feature",
            "properties": {
                "label:cs": "Dřevěný kříž v Němčicích na Hanou u kostela na Komenského náměstí",
                "P31": "Pamětní kříž",
                "P131^label:cs": "Němčice nad Hanou",
                "P6736": "22421"
            },
            "geometry": {
                "type": "Point",
                "coordinates": [
                    17.20528,
                    49.34084
                ]
            }
        },
        {
            "type": "Feature",
            "properties": {
                "label:cs": "Socha svatého Františka Xaverského v Němčicích nad Hanou na Komenského náměstí",
                "P31": "Socha",
                "P131^label:cs": "Němčice nad Hanou",
                "P6736": "22420"
            },
            "geometry": {
                "type": "Point",
                "coordinates": [
                    17.20543,
                    49.34112
                ]
            }
        },
        {
            "type": "Feature",
            "properties": {
                "label:cs": "Kříž v Němčicích nad Hanou na Komenského náměstí",
                "P31": "Pamětní kříž",
                "P131^label:cs": "Němčice nad Hanou",
                "P6736": "22419"
            },
            "geometry": {
                "type": "Point",
                "coordinates": [
                    17.20552,
                    49.3411
                ]
            }
        },
        {
            "type": "Feature",
            "properties": {
                "label:cs": "Socha svatého Jana Nepomuckého v Němčicích nad Hanou na Komenského náměstí",
                "P31": "Socha",
                "P131^label:cs": "Němčice nad Hanou",
                "P6736": "22418"
            },
            "geometry": {
                "type": "Point",
                "coordinates": [
                    17.20562,
                    49.3411
                ]
            }
        },
        {
            "type": "Feature",
            "properties": {
                "label:cs": "Pomník padlým v Němčicích nad Hanou na Komenského náměstí",
                "P31": "Pomník padlým",
                "P131^label:cs": "Němčice nad Hanou",
                "P6736": "22415"
            },
            "geometry": {
                "type": "Point",
                "coordinates": [
                    17.20558,
                    49.34127
                ]
            }
        },
        {
            "type": "Feature",
            "properties": {
                "label:cs": "Mariánský sloup v Němčicích nad Hanou na Komenského náměstí",
                "P31": "Sloup",
                "P131^label:cs": "Němčice nad Hanou",
                "P6736": "22414"
            },
            "geometry": {
                "type": "Point",
                "coordinates": [
                    17.20558,
                    49.34146
                ]
            }
        },
        {
            "type": "Feature",
            "properties": {
                "label:cs": "Socha svatého Judy Tadeáše v Němčicích nad Hanou na Palackého náměstí",
                "P31": "Socha",
                "P131^label:cs": "Němčice nad Hanou",
                "P6736": "22413"
            },
            "geometry": {
                "type": "Point",
                "coordinates": [
                    17.20564,
                    49.34194
                ]
            }
        },
        {
            "type": "Feature",
            "properties": {
                "label:cs": "Kašna v Němčicích nad Hanou na Palackého náměstí",
                "P31": "Kašna",
                "P131^label:cs": "Němčice nad Hanou",
                "P6736": "22412"
            },
            "geometry": {
                "type": "Point",
                "coordinates": [
                    17.20569,
                    49.34228
                ]
            }
        },
        {
            "type": "Feature",
            "properties": {
                "label:cs": "Kříž západně od Mořic vedle cyklostezky",
                "P31": "Pamětní kříž",
                "P131^label:cs": "Mořice",
                "P6736": "21139"
            },
            "geometry": {
                "type": "Point",
                "coordinates": [
                    17.18367,
                    49.3297
                ]
            }
        },
        {
            "type": "Feature",
            "properties": {
                "label:cs": "Socha svatého Jana Nepomuckého v Mořicích u kostela",
                "P31": "Socha",
                "P131^label:cs": "Mořice",
                "P6736": "21099"
            },
            "geometry": {
                "type": "Point",
                "coordinates": [
                    17.19785,
                    49.32948
                ]
            }
        },
        {
            "type": "Feature",
            "properties": {
                "label:cs": "Boží muka na okraji Mořic u říčky Haná",
                "P31": "Boží muka",
                "P131^label:cs": "Mořice",
                "P6736": "21048"
            },
            "geometry": {
                "type": "Point",
                "coordinates": [
                    17.19258,
                    49.33403
                ]
            }
        },
        {
            "type": "Feature",
            "properties": {
                "label:cs": "Boží muka v Mořicích u hřbitova",
                "P31": "Boží muka",
                "P131^label:cs": "Mořice",
                "P6736": "21047"
            },
            "geometry": {
                "type": "Point",
                "coordinates": [
                    17.19875,
                    49.32656
                ]
            }
        },
        {
            "type": "Feature",
            "properties": {
                "label:cs": "Smírčí kříž v Mořicích u hřbitova",
                "P31": "Smírčí kříž",
                "P131^label:cs": "Mořice",
                "P6736": "21046"
            },
            "geometry": {
                "type": "Point",
                "coordinates": [
                    17.19877,
                    49.32662
                ]
            }
        }
    ]
}