{
    "type": "FeatureCollection",
    "features": [
        {
            "type": "Feature",
            "properties": {
                "label:cs": "Sochy andělů na nádvoří zámku v Kroměříži",
                "P31": "Socha",
                "P131^label:cs": "Kroměříž",
                "P6736": "23428"
            },
            "geometry": {
                "type": "Point",
                "coordinates": [
                    17.39335,
                    49.30027
                ]
            }
        },
        {
            "type": "Feature",
            "properties": {
                "label:cs": "Socha Zvěstování Panny Marie v Kroměříži",
                "P31": "Socha",
                "P131^label:cs": "Kroměříž",
                "P6736": "19566"
            },
            "geometry": {
                "type": "Point",
                "coordinates": [
                    17.39154,
                    49.30056
                ]
            }
        },
        {
            "type": "Feature",
            "properties": {
                "label:cs": "Gloriet (altán, pavilon) v Podzámecké zahradě v Kroměříži",
                "P31": "Něco jiného",
                "P131^label:cs": "Kroměříž",
                "P6736": "17978"
            },
            "geometry": {
                "type": "Point",
                "coordinates": [
                    17.39104,
                    49.30463
                ]
            }
        },
        {
            "type": "Feature",
            "properties": {
                "label:cs": "Lví kašna v Květné zahradě v Kroměříži",
                "P31": "Kašna",
                "P131^label:cs": "Kroměříž",
                "P6736": "13962"
            },
            "geometry": {
                "type": "Point",
                "coordinates": [
                    17.38105,
                    49.29786
                ]
            }
        },
        {
            "type": "Feature",
            "properties": {
                "label:cs": "Kašna Tritonů v Květné zahradě v Kroměříži",
                "P31": "Kašna",
                "P131^label:cs": "Kroměříž",
                "P6736": "13961"
            },
            "geometry": {
                "type": "Point",
                "coordinates": [
                    17.37971,
                    49.29728
                ]
            }
        },
        {
            "type": "Feature",
            "properties": {
                "label:cs": "Kašna na Milíčově náměstí v Kroměříži",
                "P31": "Kašna",
                "P131^label:cs": "Kroměříž",
                "P6736": "13952"
            },
            "geometry": {
                "type": "Point",
                "coordinates": [
                    17.39061,
                    49.29678
                ]
            }
        },
        {
            "type": "Feature",
            "properties": {
                "label:cs": "Kašna na Riegrově náměstí v Kroměříži",
                "P31": "Kašna",
                "P131^label:cs": "Kroměříž",
                "P6736": "13951"
            },
            "geometry": {
                "type": "Point",
                "coordinates": [
                    17.39547,
                    49.29726
                ]
            }
        },
        {
            "type": "Feature",
            "properties": {
                "label:cs": "Sloup Nejsvětější Trojice na Riegrově náměstí v Kroměříži",
                "P31": "Sloup",
                "P131^label:cs": "Kroměříž",
                "P6736": "13950"
            },
            "geometry": {
                "type": "Point",
                "coordinates": [
                    17.39409,
                    49.29716
                ]
            }
        },
        {
            "type": "Feature",
            "properties": {
                "label:cs": "Kašna na Velkém náměstí v Kroměříži",
                "P31": "Kašna",
                "P131^label:cs": "Kroměříž",
                "P6736": "13949"
            },
            "geometry": {
                "type": "Point",
                "coordinates": [
                    17.39329,
                    49.29867
                ]
            }
        },
        {
            "type": "Feature",
            "properties": {
                "label:cs": "Pomník kardinála Rudolfa Jana v Podzámecké zahradě v Kroměříži",
                "P31": "Pomník",
                "P131^label:cs": "Kroměříž",
                "P6736": "13946"
            },
            "geometry": {
                "type": "Point",
                "coordinates": [
                    17.38638,
                    49.30437
                ]
            }
        },
        {
            "type": "Feature",
            "properties": {
                "label:cs": "Kašna amorků v Podzámecké zahradě v Kroměříži",
                "P31": "Kašna",
                "P131^label:cs": "Kroměříž",
                "P6736": "13945"
            },
            "geometry": {
                "type": "Point",
                "coordinates": [
                    17.39406,
                    49.30156
                ]
            }
        },
        {
            "type": "Feature",
            "properties": {
                "label:cs": "Mozaikové lunety Maxe Švabinského v areálu Hotelu Octárna v Kroměříži",
                "P31": "Něco jiného",
                "P131^label:cs": "Kroměříž",
                "P6736": "13505"
            },
            "geometry": {
                "type": "Point",
                "coordinates": [
                    17.39869,
                    49.29721
                ]
            }
        },
        {
            "type": "Feature",
            "properties": {
                "label:cs": "Busta Maxe Švabinského v areálu Hotelu Octárna v Kroměříži",
                "P31": "Socha",
                "P131^label:cs": "Kroměříž",
                "P6736": "13499"
            },
            "geometry": {
                "type": "Point",
                "coordinates": [
                    17.39878,
                    49.29721
                ]
            }
        },
        {
            "type": "Feature",
            "properties": {
                "label:cs": "Smírčí kříž v Kroměříži v ulici Štěchovice",
                "P31": "Smírčí kříž",
                "P131^label:cs": "Kroměříž",
                "P6736": "11566"
            },
            "geometry": {
                "type": "Point",
                "coordinates": [
                    17.3855,
                    49.30054
                ]
            }
        }
    ]
}