{
    "type": "FeatureCollection",
    "features": [
        {
            "type": "Feature",
            "properties": {
                "label:cs": "Obrázek v Mokrých Lazcích na křižovatce ulic Petra Bezruče a Kostelní",
                "P31": "Obrázek",
                "P131^label:cs": "Mokré Lazce",
                "P6736": "23613"
            },
            "geometry": {
                "type": "Point",
                "coordinates": [
                    18.02937,
                    49.90398
                ]
            }
        },
        {
            "type": "Feature",
            "properties": {
                "label:cs": "Kaplička v Mokrých Lazcích na křižovatce ulic Petra Bezruče a Hájová",
                "P31": "Kaplička",
                "P131^label:cs": "Mokré Lazce",
                "P6736": "23612"
            },
            "geometry": {
                "type": "Point",
                "coordinates": [
                    18.02913,
                    49.90342
                ]
            }
        },
        {
            "type": "Feature",
            "properties": {
                "label:cs": "Pomník padlým a zemřelým ve světové válce v Mokrých Lazcích na křižovatce ulic Petra Bezruče a Kostelní",
                "P31": "Pomník padlým",
                "P131^label:cs": "Mokré Lazce",
                "P6736": "23611"
            },
            "geometry": {
                "type": "Point",
                "coordinates": [
                    18.02937,
                    49.90391
                ]
            }
        },
        {
            "type": "Feature",
            "properties": {
                "label:cs": "Kříž v Mokrých Lazcích v ulici Sokolská východní okraj obce",
                "P31": "Pamětní kříž",
                "P131^label:cs": "Mokré Lazce",
                "P6736": "23610"
            },
            "geometry": {
                "type": "Point",
                "coordinates": [
                    18.03618,
                    49.90733
                ]
            }
        },
        {
            "type": "Feature",
            "properties": {
                "label:cs": "Kříž východně od Mokrých Lazců",
                "P31": "Pamětní kříž",
                "P131^label:cs": "Mokré Lazce",
                "P6736": "23589"
            },
            "geometry": {
                "type": "Point",
                "coordinates": [
                    18.04256,
                    49.90547
                ]
            }
        },
        {
            "type": "Feature",
            "properties": {
                "label:cs": "Obrázek ve Lhotě u Opavy východní okraj obce",
                "P31": "Obrázek",
                "P131^label:cs": "Háj ve Slezsku",
                "P6736": "23588"
            },
            "geometry": {
                "type": "Point",
                "coordinates": [
                    18.05077,
                    49.90515
                ]
            }
        },
        {
            "type": "Feature",
            "properties": {
                "label:cs": "Kříž ve Štítině na křižovatce ulic Palackého a Havlíčkova",
                "P31": "Pamětní kříž",
                "P131^label:cs": "Štítina",
                "P6736": "23370"
            },
            "geometry": {
                "type": "Point",
                "coordinates": [
                    18.01788,
                    49.91212
                ]
            }
        }
    ]
}