{"type":"FeatureCollection","features":[{"type":"Feature","properties":{"label:cs":"Kříž u Františkánského kláštera v Chebu","P31":"http://www.wikidata.org/entity/Q2309609","P31^label:cs":"Pamětní kříž","P131^label:cs":"Cheb","P6736":"37926"},"geometry":{"type":"Point","coordinates":[12.36827,50.0779]}},{"type":"Feature","properties":{"label:cs":"Pomník stromu Milénia v Městských sadech v Chebu","P31":"http://www.wikidata.org/entity/Q4989906","P31^label:cs":"Pomník","P131^label:cs":"Cheb","P6736":"37916"},"geometry":{"type":"Point","coordinates":[12.36816,50.07574]}},{"type":"Feature","properties":{"label:cs":"Socha Oslava práce před Fakultou ekonomie v Hradební ulici v Chebu","P31":"http://www.wikidata.org/entity/Q179700","P31^label:cs":"Socha","P131^label:cs":"Cheb","P6736":"37901"},"geometry":{"type":"Point","coordinates":[12.36429,50.07627]}},{"type":"Feature","properties":{"label:cs":"Kašna v Březinově ulici v Chebu","P31":"http://www.wikidata.org/entity/Q12029081","P31^label:cs":"Kašna","P131^label:cs":"Cheb","P6736":"13489"},"geometry":{"type":"Point","coordinates":[12.3702,50.07771]}},{"type":"Feature","properties":{"label:cs":"Kašna ve Františkánské zahradě v Chebu","P31":"http://www.wikidata.org/entity/Q12029081","P31^label:cs":"Kašna","P131^label:cs":"Cheb","P6736":"13485"},"geometry":{"type":"Point","coordinates":[12.36666,50.07801]}},{"type":"Feature","properties":{"label:cs":"Pomník Angeluse Pfeffera v Městských sadech v Chebu","P31":"http://www.wikidata.org/entity/Q4989906","P31^label:cs":"Pomník","P131^label:cs":"Cheb","P6736":"13483"},"geometry":{"type":"Point","coordinates":[12.36793,50.07471]}},{"type":"Feature","properties":{"label:cs":"Pomník americkým vojákům v Městských sadech v Chebu","P31":"http://www.wikidata.org/entity/Q575759","P31^label:cs":"Pomník padlým","P131^label:cs":"Cheb","P6736":"13481"},"geometry":{"type":"Point","coordinates":[12.3685,50.07449]}},{"type":"Feature","properties":{"label:cs":"Socha torza ženy v parku v ulici Májová v Chebu","P31":"http://www.wikidata.org/entity/Q179700","P31^label:cs":"Socha","P131^label:cs":"Cheb","P6736":"13480"},"geometry":{"type":"Point","coordinates":[12.36863,50.07551]}},{"type":"Feature","properties":{"label:cs":"Socha ležící ženy v parku v Májové ulici v Chebu","P31":"http://www.wikidata.org/entity/Q179700","P31^label:cs":"Socha","P131^label:cs":"Cheb","P6736":"13479"},"geometry":{"type":"Point","coordinates":[12.36858,50.07563]}}]}