{"type":"FeatureCollection","features":[{"type":"Feature","properties":{"label:cs":"Kříž u odbočky k zaniklému Folterovu mlýnu severně od Háje","P31":"http://www.wikidata.org/entity/Q2309609","P31^label:cs":"Pamětní kříž","P131^label:cs":"Stará Voda","P6736":"40455"},"geometry":{"type":"Point","coordinates":[12.54663,49.96788]}},{"type":"Feature","properties":{"label:cs":"Kříž rodiny Konhäuser u cesty z Vysoké do Háje","P31":"http://www.wikidata.org/entity/Q2309609","P31^label:cs":"Pamětní kříž","P131^label:cs":"Stará Voda","P6736":"40454"},"geometry":{"type":"Point","coordinates":[12.54688,49.96955]}},{"type":"Feature","properties":{"label:cs":"Neznámá památka u zaniklé cesty jižně od Vysoké - nenalezena","P31":"http://www.wikidata.org/entity/?","P31^label:cs":"Nenalezena","P131^label:cs":"Stará Voda","P6736":"40451"},"geometry":{"type":"Point","coordinates":[12.55095,49.97034]}},{"type":"Feature","properties":{"label:cs":"Kříž u cesty do Háje jižně od Vysoké","P31":"http://www.wikidata.org/entity/Q2309609","P31^label:cs":"Pamětní kříž","P131^label:cs":"Stará Voda","P6736":"40449"},"geometry":{"type":"Point","coordinates":[12.54756,49.9704]}},{"type":"Feature","properties":{"label:cs":"Kříž u cesty jižně od Vysoké","P31":"http://www.wikidata.org/entity/Q2309609","P31^label:cs":"Pamětní kříž","P131^label:cs":"Stará Voda","P6736":"40448"},"geometry":{"type":"Point","coordinates":[12.55019,49.97636]}}]}