{"type":"FeatureCollection","features":[{"type":"Feature","properties":{"label:cs":"Socha Objetí v parku u Ferdinandova pramene v Mariánských Lázních","P31":"http://www.wikidata.org/entity/Q179700","P31^label:cs":"Socha","P131^label:cs":"Mariánské Lázně","P6736":"39382"},"geometry":{"type":"Point","coordinates":[12.70798,49.96142]}},{"type":"Feature","properties":{"label:cs":"Socha Jaro u Ferdinandova pramene v Mariánských Lázních","P31":"http://www.wikidata.org/entity/Q179700","P31^label:cs":"Socha","P131^label:cs":"Mariánské Lázně","P6736":"39381"},"geometry":{"type":"Point","coordinates":[12.7073,49.96213]}},{"type":"Feature","properties":{"label:cs":"Socha Školák u školy ve čtvrti Úšovice","P31":"http://www.wikidata.org/entity/Q179700","P31^label:cs":"Socha","P131^label:cs":"Mariánské Lázně","P6736":"39383"},"geometry":{"type":"Point","coordinates":[12.70849,49.95261]}},{"type":"Feature","properties":{"label:cs":"Socha Matka a dítě v parku u nemocnice v Mariánských Lázních","P31":"http://www.wikidata.org/entity/Q179700","P31^label:cs":"Socha","P131^label:cs":"Mariánské Lázně","P6736":"39374"},"geometry":{"type":"Point","coordinates":[12.70331,49.96073]}},{"type":"Feature","properties":{"label:cs":"Kašna v parku u nemocnice v Mariánských Lázních","P31":"http://www.wikidata.org/entity/Q12029081","P31^label:cs":"Kašna","P131^label:cs":"Mariánské Lázně","P6736":"39351"},"geometry":{"type":"Point","coordinates":[12.70153,49.96093]}}]}