{"type":"FeatureCollection","features":[{"type":"Feature","properties":{"label:cs":"Socha Volejbalistky v Mariánských Lázních","P31":"http://www.wikidata.org/entity/Q179700","P31^label:cs":"Socha","P131^label:cs":"Mariánské Lázně","P6736":"41140"},"geometry":{"type":"Point","coordinates":[12.70157,49.97364]}},{"type":"Feature","properties":{"label:cs":"Malá kašna u zdi Nových lázní v Mariánských Lázních","P31":"http://www.wikidata.org/entity/Q12029081","P31^label:cs":"Kašna","P131^label:cs":"Mariánské Lázně","P6736":"39458"},"geometry":{"type":"Point","coordinates":[12.7062,49.97469]}},{"type":"Feature","properties":{"label:cs":"Pamětní deska Richarda Wagnera na domě Karlovarská 5/1 v Mariánských Lázních","P31":"http://www.wikidata.org/entity/Q721747","P31^label:cs":"Pamětní deska","P131^label:cs":"Mariánské Lázně","P6736":"39457"},"geometry":{"type":"Point","coordinates":[12.71125,49.9757]}},{"type":"Feature","properties":{"label:cs":"Pamětní deska Eduarda Petišky na domě Karlovarská 5/1 v Mariánských Lázních","P31":"http://www.wikidata.org/entity/Q721747","P31^label:cs":"Pamětní deska","P131^label:cs":"Mariánské Lázně","P6736":"39456"},"geometry":{"type":"Point","coordinates":[12.71113,49.97573]}},{"type":"Feature","properties":{"label:cs":"Pamětní deska Josefa Dobrovského na domě Karlovarská 7 v Mariánských Lázních","P31":"http://www.wikidata.org/entity/Q721747","P31^label:cs":"Pamětní deska","P131^label:cs":"Mariánské Lázně","P6736":"39455"},"geometry":{"type":"Point","coordinates":[12.70966,49.97597]}},{"type":"Feature","properties":{"label:cs":"Pamětní deska Sigmunda Freuda na Městské knihovně v Mariánských Lázních","P31":"http://www.wikidata.org/entity/Q721747","P31^label:cs":"Pamětní deska","P131^label:cs":"Mariánské Lázně","P6736":"39454"},"geometry":{"type":"Point","coordinates":[12.70193,49.96721]}},{"type":"Feature","properties":{"label:cs":"Pamětní deska Vladimira Nabokova na domě Ibsenova 175/7 v Mariánských Lázních","P31":"http://www.wikidata.org/entity/Q721747","P31^label:cs":"Pamětní deska","P131^label:cs":"Mariánské Lázně","P6736":"39453"},"geometry":{"type":"Point","coordinates":[12.70407,49.97871]}},{"type":"Feature","properties":{"label:cs":"Pamětní deska s bustou Miroslava Horníčka na domě Chopinova 393/6 v Mariánských Lázních","P31":"http://www.wikidata.org/entity/Q721747","P31^label:cs":"Pamětní deska","P131^label:cs":"Mariánské Lázně","P6736":"39452"},"geometry":{"type":"Point","coordinates":[12.7038,49.9793]}},{"type":"Feature","properties":{"label:cs":"Pamětní deska Maxima Gorkého na hotelu Maxim v Mariánských Lázních","P31":"http://www.wikidata.org/entity/Q721747","P31^label:cs":"Pamětní deska","P131^label:cs":"Mariánské Lázně","P6736":"39450"},"geometry":{"type":"Point","coordinates":[12.70484,49.97814]}},{"type":"Feature","properties":{"label:cs":"Kašna v Ibsenově ulici v Mariánských Lázních","P31":"http://www.wikidata.org/entity/Q12029081","P31^label:cs":"Kašna","P131^label:cs":"Mariánské Lázně","P6736":"39449"},"geometry":{"type":"Point","coordinates":[12.70641,49.97857]}},{"type":"Feature","properties":{"label:cs":"Socha ženy s květy v Lesní ulici v Mariánských Lázních","P31":"http://www.wikidata.org/entity/Q179700","P31^label:cs":"Socha","P131^label:cs":"Mariánské Lázně","P6736":"39448"},"geometry":{"type":"Point","coordinates":[12.70863,49.97734]}},{"type":"Feature","properties":{"label:cs":"Pamětní deska Václava Beneše Třebízského na domě Třebízského113/11 v Mariánských Lázních","P31":"http://www.wikidata.org/entity/Q721747","P31^label:cs":"Pamětní deska","P131^label:cs":"Mariánské Lázně","P6736":"39447"},"geometry":{"type":"Point","coordinates":[12.7011,49.97868]}},{"type":"Feature","properties":{"label:cs":"Pamětní deska Ivana Alexandroviče Gončarova na domě Mírové náměstí 83/3 v Mariánských Lázních","P31":"http://www.wikidata.org/entity/Q721747","P31^label:cs":"Pamětní deska","P131^label:cs":"Mariánské Lázně","P6736":"39446"},"geometry":{"type":"Point","coordinates":[12.70371,49.97816]}},{"type":"Feature","properties":{"label:cs":"Pamětní deska Fryderyka Chopina na domě Hlavní třída 47/28 v Mariánských Lázních","P31":"http://www.wikidata.org/entity/Q721747","P31^label:cs":"Pamětní deska","P131^label:cs":"Mariánské Lázně","P6736":"39445"},"geometry":{"type":"Point","coordinates":[12.70314,49.97532]}},{"type":"Feature","properties":{"label:cs":"Plastika Sun Dance na promenádě Bad Homburgu v Mariánských Lázních","P31":"http://www.wikidata.org/entity/Q12045520","P31^label:cs":"Plastika","P131^label:cs":"Mariánské Lázně","P6736":"39444"},"geometry":{"type":"Point","coordinates":[12.70511,49.97682]}},{"type":"Feature","properties":{"label:cs":"Plastika Quartus na promenádě Bad Homburgu v Mariánských Lázních","P31":"http://www.wikidata.org/entity/Q12045520","P31^label:cs":"Plastika","P131^label:cs":"Mariánské Lázně","P6736":"39443"},"geometry":{"type":"Point","coordinates":[12.7047,49.97684]}},{"type":"Feature","properties":{"label:cs":"Plastika Reading in the Park na promenádě Bad Homburgu v Mariánských Lázních","P31":"http://www.wikidata.org/entity/Q12045520","P31^label:cs":"Plastika","P131^label:cs":"Mariánské Lázně","P6736":"39440"},"geometry":{"type":"Point","coordinates":[12.70446,49.97685]}},{"type":"Feature","properties":{"label:cs":"Plastika High Flying Diver na promenádě Bad Homburgu v Mariánských Lázních","P31":"http://www.wikidata.org/entity/Q12045520","P31^label:cs":"Plastika","P131^label:cs":"Mariánské Lázně","P6736":"39438"},"geometry":{"type":"Point","coordinates":[12.70432,49.97683]}},{"type":"Feature","properties":{"label:cs":"Plastika Lion King na promenádě Bad Homburgu v Mariánských Lázních","P31":"http://www.wikidata.org/entity/Q12045520","P31^label:cs":"Plastika","P131^label:cs":"Mariánské Lázně","P6736":"39435"},"geometry":{"type":"Point","coordinates":[12.70413,49.97686]}},{"type":"Feature","properties":{"label:cs":"Plastika Something Fishy na promenádě Bad Homburgu v Mariánských Lázních","P31":"http://www.wikidata.org/entity/Q12045520","P31^label:cs":"Plastika","P131^label:cs":"Mariánské Lázně","P6736":"39434"},"geometry":{"type":"Point","coordinates":[12.70399,49.97687]}},{"type":"Feature","properties":{"label:cs":"Plastika Fast?! na promenádě Bad Homburgu v Mariánských Lázních","P31":"http://www.wikidata.org/entity/Q12045520","P31^label:cs":"Plastika","P131^label:cs":"Mariánské Lázně","P6736":"39432"},"geometry":{"type":"Point","coordinates":[12.70385,49.97686]}},{"type":"Feature","properties":{"label:cs":"Plastika Who knows? na promenádě Bad Homburgu v Mariánských Lázních","P31":"http://www.wikidata.org/entity/Q12045520","P31^label:cs":"Plastika","P131^label:cs":"Mariánské Lázně","P6736":"39431"},"geometry":{"type":"Point","coordinates":[12.70346,49.97688]}},{"type":"Feature","properties":{"label:cs":"Pomník Karla Josefa Heidlera v Sadech Václava Skalníka v Mariánských Lázních","P31":"http://www.wikidata.org/entity/Q4989906","P31^label:cs":"Pomník","P131^label:cs":"Mariánské Lázně","P6736":"39428"},"geometry":{"type":"Point","coordinates":[12.70572,49.97555]}},{"type":"Feature","properties":{"label:cs":"Socha Zahradník v parku na Goethově náměstí v Mariánských Lázních","P31":"http://www.wikidata.org/entity/Q179700","P31^label:cs":"Socha","P131^label:cs":"Mariánské Lázně","P6736":"39427"},"geometry":{"type":"Point","coordinates":[12.70843,49.97553]}},{"type":"Feature","properties":{"label:cs":"Socha Torzo ženy u Karolininy kolonády v Mariánských Lázních","P31":"http://www.wikidata.org/entity/Q179700","P31^label:cs":"Socha","P131^label:cs":"Mariánské Lázně","P6736":"39424"},"geometry":{"type":"Point","coordinates":[12.70718,49.97588]}},{"type":"Feature","properties":{"label:cs":"Pomník Josefa Johanna Nehra ve vstupu do pavilonu Křížového pramene v Mariánských Lázních","P31":"http://www.wikidata.org/entity/Q4989906","P31^label:cs":"Pomník","P131^label:cs":"Mariánské Lázně","P6736":"39423"},"geometry":{"type":"Point","coordinates":[12.70661,49.9779]}},{"type":"Feature","properties":{"label:cs":"Pomník mariánskolázeňských pramenů u Hlavní kolonády v Mariánských Lázních","P31":"http://www.wikidata.org/entity/Q4989906","P31^label:cs":"Pomník","P131^label:cs":"Mariánské Lázně","P6736":"39422"},"geometry":{"type":"Point","coordinates":[12.7062,49.97761]}},{"type":"Feature","properties":{"label:cs":"Památník Václava Skalníka u Hlavní kolonády v Mariánských Lázních","P31":"http://www.wikidata.org/entity/Q5003624","P31^label:cs":"Památník","P131^label:cs":"Mariánské Lázně","P6736":"39421"},"geometry":{"type":"Point","coordinates":[12.70616,49.97738]}},{"type":"Feature","properties":{"label:cs":"Socha Sedící baletka v Sadech Václava Skalníka v Mariánských Lázních","P31":"http://www.wikidata.org/entity/Q179700","P31^label:cs":"Socha","P131^label:cs":"Mariánské Lázně","P6736":"39385"},"geometry":{"type":"Point","coordinates":[12.70415,49.97624]}},{"type":"Feature","properties":{"label:cs":"Socha Roční doby v parku Střed v Mariánských Lázních","P31":"http://www.wikidata.org/entity/Q179700","P31^label:cs":"Socha","P131^label:cs":"Mariánské Lázně","P6736":"39384"},"geometry":{"type":"Point","coordinates":[12.70334,49.97231]}},{"type":"Feature","properties":{"label:cs":"Pomník zaniklé synagogy v parku Střed v Mariánských Lázních","P31":"http://www.wikidata.org/entity/Q4989906","P31^label:cs":"Pomník","P131^label:cs":"Mariánské Lázně","P6736":"39370"},"geometry":{"type":"Point","coordinates":[12.70317,49.9713]}},{"type":"Feature","properties":{"label:cs":"Socha Pramen v jezírku v Sadech Václava Skalníka v Mariánských Lázních","P31":"http://www.wikidata.org/entity/Q179700","P31^label:cs":"Socha","P131^label:cs":"Mariánské Lázně","P6736":"39369"},"geometry":{"type":"Point","coordinates":[12.7038,49.97649]}},{"type":"Feature","properties":{"label:cs":"Pomník Václava Skalníka v Sadech Václava Skalníka v Mariánských Lázních","P31":"http://www.wikidata.org/entity/Q4989906","P31^label:cs":"Pomník","P131^label:cs":"Mariánské Lázně","P6736":"39368"},"geometry":{"type":"Point","coordinates":[12.70349,49.97596]}},{"type":"Feature","properties":{"label:cs":"Pomník Ernesta Waldstein-Wartenberga u Gioethovy cesty v lesoparku v Mariánských Lázních","P31":"http://www.wikidata.org/entity/Q4989906","P31^label:cs":"Pomník","P131^label:cs":"Mariánské Lázně","P6736":"39367"},"geometry":{"type":"Point","coordinates":[12.70746,49.97905]}},{"type":"Feature","properties":{"label:cs":"Pomník Fryderyka Chopina v Sadech Václava Skalníka v Mariánských Lázních","P31":"http://www.wikidata.org/entity/Q4989906","P31^label:cs":"Pomník","P131^label:cs":"Mariánské Lázně","P6736":"39363"},"geometry":{"type":"Point","coordinates":[12.70659,49.97556]}},{"type":"Feature","properties":{"label:cs":"Karlův kříž nad Novými lázněmi v Mariánských Lázních","P31":"http://www.wikidata.org/entity/Q2309609","P31^label:cs":"Pamětní kříž","P131^label:cs":"Mariánské Lázně","P6736":"39354"},"geometry":{"type":"Point","coordinates":[12.70643,49.97363]}},{"type":"Feature","properties":{"label:cs":"Socha svatého Jana Nepomuckého v parku u Nových lázní v Mariánských Lázních","P31":"http://www.wikidata.org/entity/Q179700","P31^label:cs":"Socha","P131^label:cs":"Mariánské Lázně","P6736":"39353"},"geometry":{"type":"Point","coordinates":[12.70439,49.97405]}},{"type":"Feature","properties":{"label:cs":"Kašna u kolonády Karolinina pramene v Mariánských Lázních","P31":"http://www.wikidata.org/entity/Q12029081","P31^label:cs":"Kašna","P131^label:cs":"Mariánské Lázně","P6736":"39352"},"geometry":{"type":"Point","coordinates":[12.70695,49.97567]}},{"type":"Feature","properties":{"label:cs":"Pomník Karla Kašpara Reitenbergera u Zpívající fontány v Mariánských Lázních","P31":"http://www.wikidata.org/entity/Q4989906","P31^label:cs":"Pomník","P131^label:cs":"Mariánské Lázně","P6736":"39350"},"geometry":{"type":"Point","coordinates":[12.70583,49.97656]}},{"type":"Feature","properties":{"label:cs":"Socha Petra Hapky u Zpívající fontány v Mariánských Lázních","P31":"http://www.wikidata.org/entity/Q179700","P31^label:cs":"Socha","P131^label:cs":"Mariánské Lázně","P6736":"39349"},"geometry":{"type":"Point","coordinates":[12.70644,49.9765]}},{"type":"Feature","properties":{"label:cs":"Kašna za pavilonem Křížového pramene v Mariánských Lázních","P31":"http://www.wikidata.org/entity/Q12029081","P31^label:cs":"Kašna","P131^label:cs":"Mariánské Lázně","P6736":"39348"},"geometry":{"type":"Point","coordinates":[12.70682,49.97799]}},{"type":"Feature","properties":{"label:cs":"Jubilejní kašna na Mírovém náměstí v Mariánských Lázních","P31":"http://www.wikidata.org/entity/Q12029081","P31^label:cs":"Kašna","P131^label:cs":"Mariánské Lázně","P6736":"39347"},"geometry":{"type":"Point","coordinates":[12.70395,49.97793]}},{"type":"Feature","properties":{"label:cs":"Kašna na Goethově náměstí v Mariánských Lázních","P31":"http://www.wikidata.org/entity/Q12029081","P31^label:cs":"Kašna","P131^label:cs":"Mariánské Lázně","P6736":"39346"},"geometry":{"type":"Point","coordinates":[12.70883,49.97639]}},{"type":"Feature","properties":{"label:cs":"Socha Johanna Wolfganga Goethe na Goethově náměstí v Mariánských Lázních","P31":"http://www.wikidata.org/entity/Q179700","P31^label:cs":"Socha","P131^label:cs":"Mariánské Lázně","P6736":"39345"},"geometry":{"type":"Point","coordinates":[12.70845,49.97671]}},{"type":"Feature","properties":{"label:cs":"Sousoší Františka Josefa I. a Edwarda VII. v Mariánských Lázních","P31":"http://www.wikidata.org/entity/Q179700","P31^label:cs":"Socha","P131^label:cs":"Mariánské Lázně","P6736":"39343"},"geometry":{"type":"Point","coordinates":[12.70366,49.97419]}},{"type":"Feature","properties":{"label:cs":"Pomník MUDr. Samuela Basche v Mariánských Lázních","P31":"http://www.wikidata.org/entity/Q4989906","P31^label:cs":"Pomník","P131^label:cs":"Mariánské Lázně","P6736":"9680"},"geometry":{"type":"Point","coordinates":[12.70859,49.97574]}},{"type":"Feature","properties":{"label:cs":"Zpívající fontána v Mariánských Lázních","P31":"http://www.wikidata.org/entity/Q12029081","P31^label:cs":"Kašna","P131^label:cs":"Mariánské Lázně","P6736":"9639"},"geometry":{"type":"Point","coordinates":[12.70617,49.97659]}},{"type":"Feature","properties":{"label:cs":"Pomník osvobození v Mariánských Lázních","P31":"http://www.wikidata.org/entity/Q575759","P31^label:cs":"Pomník padlým","P131^label:cs":"Mariánské Lázně","P6736":"9484"},"geometry":{"type":"Point","coordinates":[12.70451,49.9754]}}]}