{"type":"FeatureCollection","features":[{"type":"Feature","properties":{"label:cs":"Památník v Plané v parku pod školou II","P31":"Památník","P31^label:cs":"Památník","P131^label:cs":"Planá","P6736":"6586"},"geometry":{"type":"Point","coordinates":[12.73581,49.86646]}},{"type":"Feature","properties":{"label:cs":"Památník v Plané v parku pod školou","P31":"Památník","P31^label:cs":"Památník","P131^label:cs":"Planá","P6736":"6585"},"geometry":{"type":"Point","coordinates":[12.73546,49.86679]}},{"type":"Feature","properties":{"label:cs":"Socha Medvěda v Plané u ulice Na Příkopech","P31":"Socha","P31^label:cs":"Socha","P131^label:cs":"Planá","P6736":"6584"},"geometry":{"type":"Point","coordinates":[12.73665,49.86761]}},{"type":"Feature","properties":{"label:cs":"Kříž severozápadně od Plané u cesty","P31":"Pamětní kříž","P31^label:cs":"Pamětní kříž","P131^label:cs":"Planá","P6736":"6507"},"geometry":{"type":"Point","coordinates":[12.72989,49.87769]}},{"type":"Feature","properties":{"label:cs":"Kříž severozápadně od Plané","P31":"Pamětní kříž","P31^label:cs":"Pamětní kříž","P131^label:cs":"Planá","P6736":"6506"},"geometry":{"type":"Point","coordinates":[12.73168,49.8768]}},{"type":"Feature","properties":{"label:cs":"Kaplička severozápadně od Plané","P31":"Kaplička","P31^label:cs":"Kaplička","P131^label:cs":"Planá","P6736":"6505"},"geometry":{"type":"Point","coordinates":[12.73232,49.87639]}},{"type":"Feature","properties":{"label:cs":"Kaplička severně od Plané v lese","P31":"Kaplička","P31^label:cs":"Kaplička","P131^label:cs":"Planá","P6736":"6504"},"geometry":{"type":"Point","coordinates":[12.73905,49.87901]}},{"type":"Feature","properties":{"label:cs":"Kaplička v Plané v Zámecké ulici","P31":"Kaplička","P31^label:cs":"Kaplička","P131^label:cs":"Planá","P6736":"6502"},"geometry":{"type":"Point","coordinates":[12.73713,49.87233]}},{"type":"Feature","properties":{"label:cs":"Kříž severně od Plané","P31":"Pamětní kříž","P31^label:cs":"Pamětní kříž","P131^label:cs":"Planá","P6736":"6503"},"geometry":{"type":"Point","coordinates":[12.73843,49.87794]}},{"type":"Feature","properties":{"label:cs":"Kříž v Plané v Zámecké ulici","P31":"Pamětní kříž","P31^label:cs":"Pamětní kříž","P131^label:cs":"Planá","P6736":"6501"},"geometry":{"type":"Point","coordinates":[12.73642,49.87097]}},{"type":"Feature","properties":{"label:cs":"Socha svatého Jana Nepomuckého v Plané u Slepé ulice","P31":"Socha","P31^label:cs":"Socha","P131^label:cs":"Planá","P6736":"6500"},"geometry":{"type":"Point","coordinates":[12.73584,49.87097]}},{"type":"Feature","properties":{"label:cs":"Plastika v Plané u Mezibranské ulice","P31":"Plastika","P31^label:cs":"Plastika","P131^label:cs":"Planá","P6736":"6499"},"geometry":{"type":"Point","coordinates":[12.73612,49.86908]}},{"type":"Feature","properties":{"label:cs":"Kašna v Plané v Mezibranské ulici","P31":"Kašna","P31^label:cs":"Kašna","P131^label:cs":"Planá","P6736":"6498"},"geometry":{"type":"Point","coordinates":[12.73592,49.86896]}},{"type":"Feature","properties":{"label:cs":"Kašna v Plané na náměstí Svobody v parčíku","P31":"Kašna","P31^label:cs":"Kašna","P131^label:cs":"Planá","P6736":"6497"},"geometry":{"type":"Point","coordinates":[12.73767,49.86842]}},{"type":"Feature","properties":{"label:cs":"Socha svatého Jana Nepomuckého v Plané","P31":"Socha","P31^label:cs":"Socha","P131^label:cs":"Planá","P6736":"6496"},"geometry":{"type":"Point","coordinates":[12.73812,49.86836]}},{"type":"Feature","properties":{"label:cs":"Památník osvobození v Plané","P31":"Památník","P31^label:cs":"Památník","P131^label:cs":"Planá","P6736":"6495"},"geometry":{"type":"Point","coordinates":[12.73959,49.86814]}},{"type":"Feature","properties":{"label:cs":"Kašna v Plané na náměstí Svobody","P31":"Kašna","P31^label:cs":"Kašna","P131^label:cs":"Planá","P6736":"6494"},"geometry":{"type":"Point","coordinates":[12.73946,49.86823]}},{"type":"Feature","properties":{"label:cs":"Kříž v Plané v Revoluční ulici","P31":"Pamětní kříž","P31^label:cs":"Pamětní kříž","P131^label:cs":"Planá","P6736":"6493"},"geometry":{"type":"Point","coordinates":[12.74343,49.87206]}}]}