{"type":"FeatureCollection","features":[{"type":"Feature","properties":{"label:cs":"Hřbitovní kaple v Horní Blatné","P31":"http://www.wikidata.org/entity/Q108325","P31^label:cs":"Kaple","P131^label:cs":"Horní Blatná","P6736":"27728"},"geometry":{"type":"Point","coordinates":[12.76795,50.38863]}},{"type":"Feature","properties":{"label:cs":"Pamětní deska Adalberta Hahna na kapli svatého Kříže v Horní Blatné","P31":"http://www.wikidata.org/entity/Q721747","P31^label:cs":"Pamětní deska","P131^label:cs":"Horní Blatná","P6736":"27727"},"geometry":{"type":"Point","coordinates":[12.76863,50.38859]}},{"type":"Feature","properties":{"label:cs":"Kaple svatého Kříže u hřbitova v Horní Blatné","P31":"http://www.wikidata.org/entity/Q108325","P31^label:cs":"Kaple","P131^label:cs":"Horní Blatná","P6736":"27726"},"geometry":{"type":"Point","coordinates":[12.76858,50.38853]}},{"type":"Feature","properties":{"label:cs":"Kaplička na rohu ulic Perninská a U Kovárny v Horní Blatné","P31":"http://www.wikidata.org/entity/Q14552192","P31^label:cs":"Kaplička","P131^label:cs":"Horní Blatná","P6736":"27725"},"geometry":{"type":"Point","coordinates":[12.77141,50.38936]}},{"type":"Feature","properties":{"label:cs":"Kaple svaté Anny v ulici U Kapličky v Horní Blatné","P31":"http://www.wikidata.org/entity/Q108325","P31^label:cs":"Kaple","P131^label:cs":"Horní Blatná","P6736":"27724"},"geometry":{"type":"Point","coordinates":[12.76853,50.39185]}},{"type":"Feature","properties":{"label:cs":"Kříž na rozcestí Bezručovy a Tovární ulice v Horní Blatné","P31":"http://www.wikidata.org/entity/Q2309609","P31^label:cs":"Pamětní kříž","P131^label:cs":"Horní Blatná","P6736":"27722"},"geometry":{"type":"Point","coordinates":[12.77009,50.39373]}},{"type":"Feature","properties":{"label:cs":"Kašna na Náměstí svatého Vavřince v Horní Blatné","P31":"http://www.wikidata.org/entity/Q12029081","P31^label:cs":"Kašna","P131^label:cs":"Horní Blatná","P6736":"27721"},"geometry":{"type":"Point","coordinates":[12.77052,50.39061]}},{"type":"Feature","properties":{"label:cs":"Sloup svatého Jana Nepomuckého na Náměstí svatého Vavřince v Horní Blatné","P31":"http://www.wikidata.org/entity/Q4817","P31^label:cs":"Sloup","P131^label:cs":"Horní Blatná","P6736":"27720"},"geometry":{"type":"Point","coordinates":[12.77065,50.39049]}},{"type":"Feature","properties":{"label:cs":"Meteorologický sloup na Náměstí svatého Vavřince v Horní Blatné","P31":"http://www.wikidata.org/entity/Q1516537","P31^label:cs":"Technická památka","P131^label:cs":"Horní Blatná","P6736":"27719"},"geometry":{"type":"Point","coordinates":[12.77064,50.39037]}},{"type":"Feature","properties":{"label:cs":"Socha svatého Vojtěcha před kostelem svatého Vavřince v Horní Blatné","P31":"http://www.wikidata.org/entity/Q179700","P31^label:cs":"Socha","P131^label:cs":"Horní Blatná","P6736":"27718"},"geometry":{"type":"Point","coordinates":[12.77009,50.39001]}},{"type":"Feature","properties":{"label:cs":"Socha svatého Josefa před kostelem svatého Vavřince v Horní Blatné","P31":"http://www.wikidata.org/entity/Q179700","P31^label:cs":"Socha","P131^label:cs":"Horní Blatná","P6736":"27717"},"geometry":{"type":"Point","coordinates":[12.77003,50.39012]}},{"type":"Feature","properties":{"label:cs":"Památník vzniku první republiky v Horní Blatné","P31":"http://www.wikidata.org/entity/Q5003624","P31^label:cs":"Památník","P131^label:cs":"Horní Blatná","P6736":"9047"},"geometry":{"type":"Point","coordinates":[12.76974,50.39009]}}]}