{"type":"FeatureCollection","features":[{"type":"Feature","properties":{"label:cs":"Socha svatého Jana Nepomuckého v Bernarticích","P31":"http://www.wikidata.org/entity/Q179700","P31^label:cs":"Socha","P131^label:cs":"Stráž","P6736":"4904"},"geometry":{"type":"Point","coordinates":[12.79906,49.62834]}},{"type":"Feature","properties":{"label:cs":"Pomník padlým v Bernarticích","P31":"http://www.wikidata.org/entity/Q575759","P31^label:cs":"Pomník padlým","P131^label:cs":"Stráž","P6736":"3779"},"geometry":{"type":"Point","coordinates":[12.80099,49.6277]}},{"type":"Feature","properties":{"label:cs":"Kříž nad Bernarticemi u cesty k rozhledně","P31":"http://www.wikidata.org/entity/Q2309609","P31^label:cs":"Pamětní kříž","P131^label:cs":"Stráž","P6736":"1224"},"geometry":{"type":"Point","coordinates":[12.80303,49.62554]}},{"type":"Feature","properties":{"label:cs":"Socha svatého Vojtěcha nad Bernarticemi","P31":"http://www.wikidata.org/entity/Q179700","P31^label:cs":"Socha","P131^label:cs":"Stráž","P6736":"1223"},"geometry":{"type":"Point","coordinates":[12.80512,49.62962]}},{"type":"Feature","properties":{"label:cs":"Smírčí kříž západně od Bernartic","P31":"http://www.wikidata.org/entity/Q1640496","P31^label:cs":"Smírčí kříž","P131^label:cs":"Stráž","P6736":"1222"},"geometry":{"type":"Point","coordinates":[12.79763,49.62912]}}]}