{"type":"FeatureCollection","features":[{"type":"Feature","properties":{"label:cs":"Kříž severně od Zámělíče u železnice","P31":"Pamětní kříž","P31^label:cs":"Pamětní kříž","P131^label:cs":"Poběžovice","P6736":"4135"},"geometry":{"type":"Point","coordinates":[12.8262,49.51414]}},{"type":"Feature","properties":{"label:cs":"Kříž u Zámělíče u silnice do Poběžovic","P31":"Pamětní kříž","P31^label:cs":"Pamětní kříž","P131^label:cs":"Poběžovice","P6736":"2842"},"geometry":{"type":"Point","coordinates":[12.8297,49.51163]}},{"type":"Feature","properties":{"label:cs":"Kříž mezi Zámělíčí a Poběžovicemi","P31":"Pamětní kříž","P31^label:cs":"Pamětní kříž","P131^label:cs":"Poběžovice","P6736":"2840"},"geometry":{"type":"Point","coordinates":[12.82784,49.51173]}},{"type":"Feature","properties":{"label:cs":"Kříž východně od Poběžovic","P31":"Pamětní kříž","P31^label:cs":"Pamětní kříž","P131^label:cs":"Poběžovice","P6736":"2839"},"geometry":{"type":"Point","coordinates":[12.82413,49.51184]}},{"type":"Feature","properties":{"label:cs":"Kříž u Zámělíče v parku","P31":"Pamětní kříž","P31^label:cs":"Pamětní kříž","P131^label:cs":"Poběžovice","P6736":"2841"},"geometry":{"type":"Point","coordinates":[12.83181,49.51191]}}]}