{"type":"FeatureCollection","features":[{"type":"Feature","properties":{"label:cs":"Kaple svatého Jana západně od Bečova - nenalezeno","P31":"http://www.wikidata.org/entity/?","P31^label:cs":"Nenalezena","P131^label:cs":"Bečov nad Teplou","P6736":"40364"},"geometry":{"type":"Point","coordinates":[12.81889,50.08019]}},{"type":"Feature","properties":{"label:cs":"Plastika v botanické zahradě v Tovární ulici v Bečově nad Teplou","P31":"http://www.wikidata.org/entity/Q12045520","P31^label:cs":"Plastika","P131^label:cs":"Bečov nad Teplou","P6736":"15214"},"geometry":{"type":"Point","coordinates":[12.83014,50.08219]}},{"type":"Feature","properties":{"label:cs":"Plastiky v botanické zahradě v Tovární ulici v Bečově nad Teplou","P31":"http://www.wikidata.org/entity/Q12045520","P31^label:cs":"Plastika","P131^label:cs":"Bečov nad Teplou","P6736":"15213"},"geometry":{"type":"Point","coordinates":[12.82887,50.082]}},{"type":"Feature","properties":{"label:cs":"Plastiky Anděl a Květ v botanické zahradě v Tovární ulici v Bečově nad Teplou","P31":"http://www.wikidata.org/entity/Q12045520","P31^label:cs":"Plastika","P131^label:cs":"Bečov nad Teplou","P6736":"15212"},"geometry":{"type":"Point","coordinates":[12.82791,50.0817]}},{"type":"Feature","properties":{"label:cs":"Pomník na skále jihozápadně od Bečova nad Teplou","P31":"http://www.wikidata.org/entity/Q4989906","P31^label:cs":"Pomník","P131^label:cs":"Bečov nad Teplou","P6736":"15211"},"geometry":{"type":"Point","coordinates":[12.82744,50.07942]}}]}