{"type":"FeatureCollection","features":[{"type":"Feature","properties":{"label:cs":"Kříž v zahradě u Ždánova","P31":"http://www.wikidata.org/entity/Q2309609","P31^label:cs":"Pamětní kříž","P131^label:cs":"Ždánov","P6736":"3406"},"geometry":{"type":"Point","coordinates":[12.84839,49.46028]}},{"type":"Feature","properties":{"label:cs":"Kříž v lese u Červeného mlýna nedaleko Žďánova","P31":"http://www.wikidata.org/entity/Q2309609","P31^label:cs":"Pamětní kříž","P131^label:cs":"Ždánov","P6736":"2863"},"geometry":{"type":"Point","coordinates":[12.84481,49.45806]}},{"type":"Feature","properties":{"label:cs":"Kříž nedaleko lomu u Pařezova","P31":"http://www.wikidata.org/entity/Q2309609","P31^label:cs":"Pamětní kříž","P131^label:cs":"Ždánov","P6736":"2858"},"geometry":{"type":"Point","coordinates":[12.84788,49.46696]}},{"type":"Feature","properties":{"label:cs":"Kříž u silnice pod Žďánovem","P31":"http://www.wikidata.org/entity/Q2309609","P31^label:cs":"Pamětní kříž","P131^label:cs":"Ždánov","P6736":"2862"},"geometry":{"type":"Point","coordinates":[12.84901,49.46021]}},{"type":"Feature","properties":{"label:cs":"Kříž u silnice pod Pařezovem","P31":"http://www.wikidata.org/entity/Q2309609","P31^label:cs":"Pamětní kříž","P131^label:cs":"Ždánov","P6736":"2857"},"geometry":{"type":"Point","coordinates":[12.83893,49.46469]}}]}