{"type":"FeatureCollection","features":[{"type":"Feature","properties":{"label:cs":"Sousoší svatého Josefa a svaté Františky v Otročíně","P31":"http://www.wikidata.org/entity/Q179700","P31^label:cs":"Socha","P131^label:cs":"Otročín","P6736":"40317"},"geometry":{"type":"Point","coordinates":[12.89243,50.02985]}},{"type":"Feature","properties":{"label:cs":"Centrální kříž na hřbitově v Otročíně","P31":"http://www.wikidata.org/entity/Q2309609","P31^label:cs":"Pamětní kříž","P131^label:cs":"Otročín","P6736":"40316"},"geometry":{"type":"Point","coordinates":[12.89131,50.03466]}},{"type":"Feature","properties":{"label:cs":"Kříž u cesty západně od Otročína","P31":"http://www.wikidata.org/entity/Q2309609","P31^label:cs":"Pamětní kříž","P131^label:cs":"Otročín","P6736":"40314"},"geometry":{"type":"Point","coordinates":[12.87681,50.03519]}},{"type":"Feature","properties":{"label:cs":"Kříž u silnice západně od Otročína","P31":"http://www.wikidata.org/entity/Q2309609","P31^label:cs":"Pamětní kříž","P131^label:cs":"Otročín","P6736":"40313"},"geometry":{"type":"Point","coordinates":[12.88283,50.03448]}},{"type":"Feature","properties":{"label:cs":"Kříž na západním okraji Otročína","P31":"http://www.wikidata.org/entity/Q2309609","P31^label:cs":"Pamětní kříž","P131^label:cs":"Otročín","P6736":"40312"},"geometry":{"type":"Point","coordinates":[12.88662,50.03315]}},{"type":"Feature","properties":{"label:cs":"Kříž na rozcestí v Otročíně","P31":"http://www.wikidata.org/entity/Q2309609","P31^label:cs":"Pamětní kříž","P131^label:cs":"Otročín","P6736":"40311"},"geometry":{"type":"Point","coordinates":[12.88778,50.03231]}},{"type":"Feature","properties":{"label:cs":"Pomník Josefa II. v Otročíně","P31":"http://www.wikidata.org/entity/Q4989906","P31^label:cs":"Pomník","P131^label:cs":"Otročín","P6736":"40310"},"geometry":{"type":"Point","coordinates":[12.89163,50.03207]}},{"type":"Feature","properties":{"label:cs":"Sousoší Svaté rodiny v Otročíně","P31":"http://www.wikidata.org/entity/Q179700","P31^label:cs":"Socha","P131^label:cs":"Otročín","P6736":"11201"},"geometry":{"type":"Point","coordinates":[12.89013,50.03194]}},{"type":"Feature","properties":{"label:cs":"Pomník padlým v Otročíně","P31":"http://www.wikidata.org/entity/Q575759","P31^label:cs":"Pomník padlým","P131^label:cs":"Otročín","P6736":"11200"},"geometry":{"type":"Point","coordinates":[12.89099,50.03208]}}]}