{"type":"FeatureCollection","features":[{"type":"Feature","properties":{"label:cs":"Kaple v Němčicích","P31":"Kaple","P31^label:cs":"Kaple","P131^label:cs":"Meclov","P6736":"3079"},"geometry":{"type":"Point","coordinates":[12.91528,49.49189]}},{"type":"Feature","properties":{"label:cs":"Kříž u Němčic u silnice","P31":"Pamětní kříž","P31^label:cs":"Pamětní kříž","P131^label:cs":"Meclov","P6736":"3078"},"geometry":{"type":"Point","coordinates":[12.91471,49.49099]}},{"type":"Feature","properties":{"label:cs":"Kříž u Němčic","P31":"Pamětní kříž","P31^label:cs":"Pamětní kříž","P131^label:cs":"Meclov","P6736":"3077"},"geometry":{"type":"Point","coordinates":[12.91698,49.49061]}},{"type":"Feature","properties":{"label:cs":"Kříž jižně od Němčic","P31":"Pamětní kříž","P31^label:cs":"Pamětní kříž","P131^label:cs":"Meclov","P6736":"3076"},"geometry":{"type":"Point","coordinates":[12.91753,49.4898]}},{"type":"Feature","properties":{"label:cs":"Kaple západně od Němčic","P31":"Kaple","P31^label:cs":"Kaple","P131^label:cs":"Meclov","P6736":"2156"},"geometry":{"type":"Point","coordinates":[12.91529,49.49189]}}]}