{"type":"FeatureCollection","features":[{"type":"Feature","properties":{"label:cs":"Kříž na okraji pole jižně od Tlumačova","P31":"http://www.wikidata.org/entity/Q2309609","P31^label:cs":"Pamětní kříž","P131^label:cs":"Tlumačov","P6736":"2666"},"geometry":{"type":"Point","coordinates":[12.9296,49.39832]}},{"type":"Feature","properties":{"label:cs":"Kříž jižně od Tlumačova u silnice do Pasečnice","P31":"http://www.wikidata.org/entity/Q2309609","P31^label:cs":"Pamětní kříž","P131^label:cs":"Tlumačov","P6736":"2664"},"geometry":{"type":"Point","coordinates":[12.92656,49.3996]}},{"type":"Feature","properties":{"label:cs":"Kříž západně od Tlumačova u polní cesty","P31":"http://www.wikidata.org/entity/Q2309609","P31^label:cs":"Pamětní kříž","P131^label:cs":"Tlumačov","P6736":"2663"},"geometry":{"type":"Point","coordinates":[12.92257,49.40351]}},{"type":"Feature","properties":{"label:cs":"Kříž západně od Tlumačova u okraje lesa","P31":"http://www.wikidata.org/entity/Q2309609","P31^label:cs":"Pamětní kříž","P131^label:cs":"Tlumačov","P6736":"2662"},"geometry":{"type":"Point","coordinates":[12.92105,49.40359]}},{"type":"Feature","properties":{"label:cs":"Kříž v lesíku u Tlumačova","P31":"http://www.wikidata.org/entity/Q2309609","P31^label:cs":"Pamětní kříž","P131^label:cs":"Tlumačov","P6736":"2660"},"geometry":{"type":"Point","coordinates":[12.92396,49.40614]}},{"type":"Feature","properties":{"label:cs":"Kříž severně od Tlumačova u rozcestí","P31":"http://www.wikidata.org/entity/Q2309609","P31^label:cs":"Pamětní kříž","P131^label:cs":"Tlumačov","P6736":"2659"},"geometry":{"type":"Point","coordinates":[12.92673,49.40757]}},{"type":"Feature","properties":{"label:cs":"Obrázek v zatáčce nad Tlumačovem","P31":"http://www.wikidata.org/entity/Q478798","P31^label:cs":"Obrázek","P131^label:cs":"Tlumačov","P6736":"2658"},"geometry":{"type":"Point","coordinates":[12.92853,49.40756]}},{"type":"Feature","properties":{"label:cs":"Kříž v poli severně od Tlumačova ten jižní","P31":"http://www.wikidata.org/entity/Q2309609","P31^label:cs":"Pamětní kříž","P131^label:cs":"Tlumačov","P6736":"2657"},"geometry":{"type":"Point","coordinates":[12.93181,49.40778]}},{"type":"Feature","properties":{"label:cs":"Kříž v poli severně od Tlumačova ten severozápadní","P31":"http://www.wikidata.org/entity/Q2309609","P31^label:cs":"Pamětní kříž","P131^label:cs":"Tlumačov","P6736":"2656"},"geometry":{"type":"Point","coordinates":[12.92618,49.4101]}},{"type":"Feature","properties":{"label:cs":"Kříž u polní cesty východně od Tlumačova","P31":"http://www.wikidata.org/entity/Q2309609","P31^label:cs":"Pamětní kříž","P131^label:cs":"Tlumačov","P6736":"2655"},"geometry":{"type":"Point","coordinates":[12.9389,49.40629]}},{"type":"Feature","properties":{"label:cs":"Kříž východně od Tlumačova","P31":"http://www.wikidata.org/entity/Q2309609","P31^label:cs":"Pamětní kříž","P131^label:cs":"Tlumačov","P6736":"2654"},"geometry":{"type":"Point","coordinates":[12.9338,49.40356]}},{"type":"Feature","properties":{"label:cs":"Obrázek u potoka východně od Tlumačova","P31":"http://www.wikidata.org/entity/Q478798","P31^label:cs":"Obrázek","P131^label:cs":"Tlumačov","P6736":"2653"},"geometry":{"type":"Point","coordinates":[12.93956,49.40395]}},{"type":"Feature","properties":{"label:cs":"Kříž na poli mezi Tlumačovem a Mrákovem","P31":"http://www.wikidata.org/entity/Q2309609","P31^label:cs":"Pamětní kříž","P131^label:cs":"Tlumačov","P6736":"2652"},"geometry":{"type":"Point","coordinates":[12.93897,49.40105]}},{"type":"Feature","properties":{"label:cs":"kříž na svahu nad Tlumačovem","P31":"http://www.wikidata.org/entity/Q2309609","P31^label:cs":"Pamětní kříž","P131^label:cs":"Tlumačov","P6736":"2651"},"geometry":{"type":"Point","coordinates":[12.92834,49.40742]}},{"type":"Feature","properties":{"label:cs":"Kříž v poli severně od Tlumačova ten střední","P31":"http://www.wikidata.org/entity/Q2309609","P31^label:cs":"Pamětní kříž","P131^label:cs":"Nevolice","P6736":"2176"},"geometry":{"type":"Point","coordinates":[12.93128,49.40918]}},{"type":"Feature","properties":{"label:cs":"Kříž v poli severně od Tlumačova ten severní","P31":"http://www.wikidata.org/entity/Q2309609","P31^label:cs":"Pamětní kříž","P131^label:cs":"Nevolice","P6736":"2175"},"geometry":{"type":"Point","coordinates":[12.93073,49.41017]}}]}