{"type":"FeatureCollection","features":[{"type":"Feature","properties":{"label:cs":"Kříž východně od Horního Valdorfu","P31":"http://www.wikidata.org/entity/Q2309609","P31^label:cs":"Pamětní kříž","P131^label:cs":"Horšovský Týn","P6736":"3088"},"geometry":{"type":"Point","coordinates":[12.939,49.50611]}},{"type":"Feature","properties":{"label:cs":"Smírčí kříž severně od Jeníkovic","P31":"http://www.wikidata.org/entity/Q1640496","P31^label:cs":"Smírčí kříž","P131^label:cs":"Meclov","P6736":"3086"},"geometry":{"type":"Point","coordinates":[12.93967,49.50203]}},{"type":"Feature","properties":{"label:cs":"Kříž v Horním Valdorfu","P31":"http://www.wikidata.org/entity/Q2309609","P31^label:cs":"Pamětní kříž","P131^label:cs":"Horšovský Týn","P6736":"3085"},"geometry":{"type":"Point","coordinates":[12.93309,49.50418]}},{"type":"Feature","properties":{"label:cs":"Kříž severně od Horního Valdorfu","P31":"http://www.wikidata.org/entity/Q2309609","P31^label:cs":"Pamětní kříž","P131^label:cs":"Horšovský Týn","P6736":"3084"},"geometry":{"type":"Point","coordinates":[12.93313,49.51094]}},{"type":"Feature","properties":{"label:cs":"Kříž v Dolním Valdorfu v zahradě","P31":"http://www.wikidata.org/entity/Q2309609","P31^label:cs":"Pamětní kříž","P131^label:cs":"Horšovský Týn","P6736":"3081"},"geometry":{"type":"Point","coordinates":[12.92066,49.50259]}},{"type":"Feature","properties":{"label:cs":"Kříž západně od Valdorfu","P31":"http://www.wikidata.org/entity/Q2309609","P31^label:cs":"Pamětní kříž","P131^label:cs":"Horšovský Týn","P6736":"1577"},"geometry":{"type":"Point","coordinates":[12.9331,49.50418]}},{"type":"Feature","properties":{"label:cs":"Kříž na křižovatce západně od Valdorfu","P31":"http://www.wikidata.org/entity/Q2309609","P31^label:cs":"Pamětní kříž","P131^label:cs":"Horšovský Týn","P6736":"1576"},"geometry":{"type":"Point","coordinates":[12.92812,49.50499]}},{"type":"Feature","properties":{"label:cs":"Kříž u rybníka v Dolním Valdorfu","P31":"http://www.wikidata.org/entity/Q2309609","P31^label:cs":"Pamětní kříž","P131^label:cs":"Horšovský Týn","P6736":"1572"},"geometry":{"type":"Point","coordinates":[12.92004,49.50421]}}]}