{"type":"FeatureCollection","features":[{"type":"Feature","properties":{"label:cs":"Kříž u silnice do Lomečku ve Starém Klíčově","P31":"http://www.wikidata.org/entity/Q2309609","P31^label:cs":"Pamětní kříž","P131^label:cs":"Mrákov","P6736":"36771"},"geometry":{"type":"Point","coordinates":[12.96204,49.39256]}},{"type":"Feature","properties":{"label:cs":"Kříž v polích jižně od Mrákova","P31":"http://www.wikidata.org/entity/Q2309609","P31^label:cs":"Pamětní kříž","P131^label:cs":"Mrákov","P6736":"36546"},"geometry":{"type":"Point","coordinates":[12.95376,49.39513]}},{"type":"Feature","properties":{"label:cs":"Kříž u silnice Starý Klíčov - Mlýneček","P31":"http://www.wikidata.org/entity/Q2309609","P31^label:cs":"Pamětní kříž","P131^label:cs":"Mrákov","P6736":"26818"},"geometry":{"type":"Point","coordinates":[12.95731,49.38476]}},{"type":"Feature","properties":{"label:cs":"Kříž jižně od Mrákova u polní cesty ve svahu","P31":"http://www.wikidata.org/entity/Q2309609","P31^label:cs":"Pamětní kříž","P131^label:cs":"Mrákov","P6736":"1731"},"geometry":{"type":"Point","coordinates":[12.94632,49.39436]}},{"type":"Feature","properties":{"label:cs":"Kříž jižně od Mrákova u polní cesty","P31":"http://www.wikidata.org/entity/Q2309609","P31^label:cs":"Pamětní kříž","P131^label:cs":"Mrákov","P6736":"2107"},"geometry":{"type":"Point","coordinates":[12.948,49.39648]}}]}