{"type":"FeatureCollection","features":[{"type":"Feature","properties":{"label:cs":"Kříž východně od Chrastavic u polní cesty","P31":"http://www.wikidata.org/entity/Q2309609","P31^label:cs":"Pamětní kříž","P131^label:cs":"Chrastavice","P6736":"3420"},"geometry":{"type":"Point","coordinates":[12.96553,49.45818]}},{"type":"Feature","properties":{"label:cs":"Kříž západně od Milavčí","P31":"http://www.wikidata.org/entity/Q2309609","P31^label:cs":"Pamětní kříž","P131^label:cs":"Milavče","P6736":"3425"},"geometry":{"type":"Point","coordinates":[12.97721,49.46695]}},{"type":"Feature","properties":{"label:cs":"Kříž v Milavčích u silnice","P31":"http://www.wikidata.org/entity/Q2309609","P31^label:cs":"Pamětní kříž","P131^label:cs":"Milavče","P6736":"3424"},"geometry":{"type":"Point","coordinates":[12.97973,49.466]}},{"type":"Feature","properties":{"label:cs":"Kříž u kostela v Milavčích","P31":"http://www.wikidata.org/entity/Q2309609","P31^label:cs":"Pamětní kříž","P131^label:cs":"Milavče","P6736":"3423"},"geometry":{"type":"Point","coordinates":[12.98133,49.46661]}},{"type":"Feature","properties":{"label:cs":"Pomník padlým v Milavčích","P31":"http://www.wikidata.org/entity/Q575759","P31^label:cs":"Pomník padlým","P131^label:cs":"Milavče","P6736":"3422"},"geometry":{"type":"Point","coordinates":[12.98183,49.46668]}},{"type":"Feature","properties":{"label:cs":"Kříž jižně od Milavčí","P31":"http://www.wikidata.org/entity/Q2309609","P31^label:cs":"Pamětní kříž","P131^label:cs":"Milavče","P6736":"3421"},"geometry":{"type":"Point","coordinates":[12.9802,49.46452]}},{"type":"Feature","properties":{"label:cs":"Kříž jihozápadně od Milavčí","P31":"http://www.wikidata.org/entity/Q2309609","P31^label:cs":"Pamětní kříž","P131^label:cs":"Milavče","P6736":"2050"},"geometry":{"type":"Point","coordinates":[12.9769,49.46283]}}]}