{"type":"FeatureCollection","features":[{"type":"Feature","properties":{"label:cs":"Kaple jihovýchodně od Bezdružic","P31":"http://www.wikidata.org/entity/Q108325","P31^label:cs":"Kaple","P131^label:cs":"Bezdružice","P6736":"5625"},"geometry":{"type":"Point","coordinates":[12.97627,49.90392]}},{"type":"Feature","properties":{"label:cs":"Kříž východně od Bezdružic","P31":"http://www.wikidata.org/entity/Q2309609","P31^label:cs":"Pamětní kříž","P131^label:cs":"Bezdružice","P6736":"5624"},"geometry":{"type":"Point","coordinates":[12.97538,49.90718]}},{"type":"Feature","properties":{"label:cs":"Kříž u Bezdružic nad vlakovým nádražím","P31":"http://www.wikidata.org/entity/Q2309609","P31^label:cs":"Pamětní kříž","P131^label:cs":"Bezdružice","P6736":"5622"},"geometry":{"type":"Point","coordinates":[12.97007,49.90026]}},{"type":"Feature","properties":{"label:cs":"Kaple jižně od Bezdružic","P31":"http://www.wikidata.org/entity/Q108325","P31^label:cs":"Kaple","P131^label:cs":"Bezdružice","P6736":"5621"},"geometry":{"type":"Point","coordinates":[12.96416,49.90215]}},{"type":"Feature","properties":{"label:cs":"Kříž v Bezdružicích u křižovatky","P31":"http://www.wikidata.org/entity/Q2309609","P31^label:cs":"Pamětní kříž","P131^label:cs":"Bezdružice","P6736":"5620"},"geometry":{"type":"Point","coordinates":[12.96832,49.90437]}},{"type":"Feature","properties":{"label:cs":"Památník v Bezdružicích","P31":"http://www.wikidata.org/entity/Q5003624","P31^label:cs":"Památník","P131^label:cs":"Bezdružice","P6736":"5619"},"geometry":{"type":"Point","coordinates":[12.97001,49.90812]}},{"type":"Feature","properties":{"label:cs":"Sousoší svatého Floriána v Bezdružicích","P31":"http://www.wikidata.org/entity/Q179700","P31^label:cs":"Socha","P131^label:cs":"Bezdružice","P6736":"5618"},"geometry":{"type":"Point","coordinates":[12.96965,49.90794]}}]}