{"type":"FeatureCollection","features":[{"type":"Feature","properties":{"label:cs":"Kaplička u kočovského mlýna jihozápadně od Kladrub","P31":"http://www.wikidata.org/entity/Q14552192","P31^label:cs":"Kaplička","P131^label:cs":"Kostelec","P6736":"33107"},"geometry":{"type":"Point","coordinates":[12.97266,49.69946]}},{"type":"Feature","properties":{"label:cs":"Památný kříž jižně od Kladrub","P31":"http://www.wikidata.org/entity/Q38411643","P31^label:cs":"Křížový kámen","P131^label:cs":"Kostelec","P6736":"32737"},"geometry":{"type":"Point","coordinates":[12.9828,49.69941]}},{"type":"Feature","properties":{"label:cs":"Hraniční kámen jižně od Kladrub","P31":"http://www.wikidata.org/entity/Q921099","P31^label:cs":"Hraniční kámen","P131^label:cs":"Kostelec","P6736":"32736"},"geometry":{"type":"Point","coordinates":[12.98049,49.6998]}},{"type":"Feature","properties":{"label:cs":"Kaplička sv. Anny u Petrova mlýna jižně od Kladrub","P31":"http://www.wikidata.org/entity/Q14552192","P31^label:cs":"Kaplička","P131^label:cs":"Kladruby","P6736":"33108"},"geometry":{"type":"Point","coordinates":[12.97927,49.7058]}},{"type":"Feature","properties":{"label:cs":"Pamětní kříž (jen sokl) jižně od Petrova mlýna v Kladrubech","P31":"http://www.wikidata.org/entity/Q2309609","P31^label:cs":"Pamětní kříž","P131^label:cs":"Kladruby","P6736":"32166"},"geometry":{"type":"Point","coordinates":[12.97751,49.70454]}}]}