{"type":"FeatureCollection","features":[{"type":"Feature","properties":{"label:cs":"Boží muka jižně od Semošic","P31":"http://www.wikidata.org/entity/Q3395121","P31^label:cs":"Boží muka","P131^label:cs":"Horšovský Týn","P6736":"11460"},"geometry":{"type":"Point","coordinates":[12.9826,49.53447]}},{"type":"Feature","properties":{"label:cs":"Kaple v Semošicích","P31":"http://www.wikidata.org/entity/Q108325","P31^label:cs":"Kaple","P131^label:cs":"Horšovský Týn","P6736":"5356"},"geometry":{"type":"Point","coordinates":[12.98219,49.53815]}},{"type":"Feature","properties":{"label:cs":"Kříž západně od Semošic u plotu","P31":"http://www.wikidata.org/entity/Q2309609","P31^label:cs":"Pamětní kříž","P131^label:cs":"Horšovský Týn","P6736":"3973"},"geometry":{"type":"Point","coordinates":[12.98033,49.5389]}},{"type":"Feature","properties":{"label:cs":"Kříž západně od Semošic u polní cesty","P31":"http://www.wikidata.org/entity/Q2309609","P31^label:cs":"Pamětní kříž","P131^label:cs":"Horšovský Týn","P6736":"2473"},"geometry":{"type":"Point","coordinates":[12.97468,49.53774]}},{"type":"Feature","properties":{"label:cs":"Kříž východně od Horšovského Týna","P31":"http://www.wikidata.org/entity/Q2309609","P31^label:cs":"Pamětní kříž","P131^label:cs":"Horšovský Týn","P6736":"2474"},"geometry":{"type":"Point","coordinates":[12.96797,49.53634]}},{"type":"Feature","properties":{"label:cs":"Kříž západně od Semošic","P31":"http://www.wikidata.org/entity/Q2309609","P31^label:cs":"Pamětní kříž","P131^label:cs":"Horšovský Týn","P6736":"2472"},"geometry":{"type":"Point","coordinates":[12.97616,49.53803]}}]}