{"type":"FeatureCollection","features":[{"type":"Feature","properties":{"label:cs":"Kaple ve Zhoři","P31":"http://www.wikidata.org/entity/Q108325","P31^label:cs":"Kaple","P131^label:cs":"Zhoř","P6736":"3980"},"geometry":{"type":"Point","coordinates":[12.96893,49.66021]}},{"type":"Feature","properties":{"label:cs":"Kříž severně od Zhoře u cesty","P31":"http://www.wikidata.org/entity/Q2309609","P31^label:cs":"Pamětní kříž","P131^label:cs":"Zhoř","P6736":"3056"},"geometry":{"type":"Point","coordinates":[12.96425,49.6636]}},{"type":"Feature","properties":{"label:cs":"Kříž u Zhoře na rozcestí","P31":"http://www.wikidata.org/entity/Q2309609","P31^label:cs":"Pamětní kříž","P131^label:cs":"Zhoř","P6736":"3055"},"geometry":{"type":"Point","coordinates":[12.96714,49.66146]}},{"type":"Feature","properties":{"label:cs":"Pomník padlým u Zhoře","P31":"http://www.wikidata.org/entity/Q575759","P31^label:cs":"Pomník padlým","P131^label:cs":"Zhoř","P6736":"3054"},"geometry":{"type":"Point","coordinates":[12.97071,49.66108]}},{"type":"Feature","properties":{"label:cs":"Památník ve Zhoři","P31":"http://www.wikidata.org/entity/Q5003624","P31^label:cs":"Památník","P131^label:cs":"Zhoř","P6736":"3053"},"geometry":{"type":"Point","coordinates":[12.97038,49.65951]}},{"type":"Feature","properties":{"label:cs":"Kříž na rozcestí severně od Zhoře","P31":"http://www.wikidata.org/entity/Q2309609","P31^label:cs":"Pamětní kříž","P131^label:cs":"Zhoř","P6736":"2911"},"geometry":{"type":"Point","coordinates":[12.97048,49.66151]}},{"type":"Feature","properties":{"label:cs":"Kříž na svahu severovýchodně od Zhoře","P31":"http://www.wikidata.org/entity/Q2309609","P31^label:cs":"Pamětní kříž","P131^label:cs":"Zhoř","P6736":"2910"},"geometry":{"type":"Point","coordinates":[12.97193,49.66113]}},{"type":"Feature","properties":{"label:cs":"Kříž mezi Zhoří a Skapcemi","P31":"http://www.wikidata.org/entity/Q2309609","P31^label:cs":"Pamětní kříž","P131^label:cs":"Zhoř","P6736":"2909"},"geometry":{"type":"Point","coordinates":[12.98151,49.65998]}},{"type":"Feature","properties":{"label:cs":"Kříž severovýchodně od obce Zhoř","P31":"http://www.wikidata.org/entity/Q2309609","P31^label:cs":"Pamětní kříž","P131^label:cs":"Zhoř","P6736":"2898"},"geometry":{"type":"Point","coordinates":[12.97448,49.66107]}},{"type":"Feature","properties":{"label:cs":"Boží muka u Zhoře u silnice do Plzně","P31":"http://www.wikidata.org/entity/Q3395121","P31^label:cs":"Boží muka","P131^label:cs":"Zhoř","P6736":"2875"},"geometry":{"type":"Point","coordinates":[12.97105,49.66115]}}]}