{"type":"FeatureCollection","features":[{"type":"Feature","properties":{"label:cs":"Soška svatého Jana Nepomuckého ve výklenku domu 31 na náměstí Republiky v Kladrubech","P31":"Socha","P31^label:cs":"Socha","P131^label:cs":"Kladruby","P6736":"25444"},"geometry":{"type":"Point","coordinates":[12.98161,49.7153]}},{"type":"Feature","properties":{"label:cs":"Socha svatého Jakuba nad portálem kostela svatého Jakuba v Kladrubech u Stříbra","P31":"Socha","P31^label:cs":"Socha","P131^label:cs":"Kladruby","P6736":"25442"},"geometry":{"type":"Point","coordinates":[12.98189,49.71503]}},{"type":"Feature","properties":{"label:cs":"Kašna na náměstí Republiky v Kladrubech u Stříbra","P31":"Kašna","P31^label:cs":"Kašna","P131^label:cs":"Kladruby","P6736":"25441"},"geometry":{"type":"Point","coordinates":[12.98141,49.71513]}},{"type":"Feature","properties":{"label:cs":"Pomník Milník času Vladislava I. v Husově ulici v Kladrubech","P31":"Pomník","P31^label:cs":"Pomník","P131^label:cs":"Kladruby","P6736":"25436"},"geometry":{"type":"Point","coordinates":[12.98553,49.71566]}},{"type":"Feature","properties":{"label:cs":"Kříž v zahradě domu Hřbitovní 329 v Kladrubech","P31":"Pamětní kříž","P31^label:cs":"Pamětní kříž","P131^label:cs":"Kladruby","P6736":"25435"},"geometry":{"type":"Point","coordinates":[12.98379,49.71877]}},{"type":"Feature","properties":{"label:cs":"Smírčí kříž v Kladrubech II","P31":"Smírčí kříž","P31^label:cs":"Smírčí kříž","P131^label:cs":"Kladruby","P6736":"4900"},"geometry":{"type":"Point","coordinates":[12.98188,49.71497]}},{"type":"Feature","properties":{"label:cs":"Křížový kámen v Kladrubech III","P31":"Křížový kámen","P31^label:cs":"Křížový kámen","P131^label:cs":"Kladruby","P6736":"4899"},"geometry":{"type":"Point","coordinates":[12.98186,49.71499]}},{"type":"Feature","properties":{"label:cs":"Křížový kámen v Kladrubech II","P31":"Křížový kámen","P31^label:cs":"Křížový kámen","P131^label:cs":"Kladruby","P6736":"4898"},"geometry":{"type":"Point","coordinates":[12.98184,49.715]}},{"type":"Feature","properties":{"label:cs":"Křížový kámen v Kladrubech I","P31":"Křížový kámen","P31^label:cs":"Křížový kámen","P131^label:cs":"Kladruby","P6736":"4897"},"geometry":{"type":"Point","coordinates":[12.98185,49.71501]}},{"type":"Feature","properties":{"label:cs":"Smírčí kříž v Kladrubech I","P31":"Smírčí kříž","P31^label:cs":"Smírčí kříž","P131^label:cs":"Kladruby","P6736":"4896"},"geometry":{"type":"Point","coordinates":[12.98189,49.71502]}},{"type":"Feature","properties":{"label:cs":"Mariánský sloup v Kladrubech","P31":"Sloup","P31^label:cs":"Sloup","P131^label:cs":"Kladruby","P6736":"3931"},"geometry":{"type":"Point","coordinates":[12.98116,49.71515]}},{"type":"Feature","properties":{"label:cs":"Kříž u kostela v Kladrubech","P31":"Pamětní kříž","P31^label:cs":"Pamětní kříž","P131^label:cs":"Kladruby","P6736":"3932"},"geometry":{"type":"Point","coordinates":[12.98245,49.71506]}},{"type":"Feature","properties":{"label:cs":"Kříž západně od Kladrub u silnice do Benešovic","P31":"Pamětní kříž","P31^label:cs":"Pamětní kříž","P131^label:cs":"Kladruby","P6736":"1725"},"geometry":{"type":"Point","coordinates":[12.9722,49.71558]}},{"type":"Feature","properties":{"label:cs":"Kříž severně od Kladrub u silnice na Stříbro","P31":"Pamětní kříž","P31^label:cs":"Pamětní kříž","P131^label:cs":"Kladruby","P6736":"1724"},"geometry":{"type":"Point","coordinates":[12.98082,49.71854]}},{"type":"Feature","properties":{"label:cs":"Kříž nad Stříbrem u silnice na Kladruby","P31":"Pamětní kříž","P31^label:cs":"Pamětní kříž","P131^label:cs":"Kladruby","P6736":"1726"},"geometry":{"type":"Point","coordinates":[12.97567,49.72392]}}]}