{"type":"FeatureCollection","features":[{"type":"Feature","properties":{"label:cs":"Pamětní deska na kostele ve Vidžíně","P31":"http://www.wikidata.org/entity/Q721747","P31^label:cs":"Pamětní deska","P131^label:cs":"Úterý","P6736":"40447"},"geometry":{"type":"Point","coordinates":[12.98046,49.96585]}},{"type":"Feature","properties":{"label:cs":"Kříž u kostela ve Vidžíně","P31":"http://www.wikidata.org/entity/Q2309609","P31^label:cs":"Pamětní kříž","P131^label:cs":"Úterý","P6736":"40444"},"geometry":{"type":"Point","coordinates":[12.97993,49.96593]}},{"type":"Feature","properties":{"label:cs":"Památka západně od Vidžína - nenalezeno","P31":"http://www.wikidata.org/entity/?","P31^label:cs":"Nenalezena","P131^label:cs":"Úterý","P6736":"38969"},"geometry":{"type":"Point","coordinates":[12.97925,49.96586]}},{"type":"Feature","properties":{"label:cs":"Památka západně od Vidžína pod kopcem Hůrka - nenalezeno","P31":"http://www.wikidata.org/entity/?","P31^label:cs":"Nenalezena","P131^label:cs":"Úterý","P6736":"38821"},"geometry":{"type":"Point","coordinates":[12.96727,49.97006]}},{"type":"Feature","properties":{"label:cs":"Památka severně od Vidžína u Novomlýnské Chalupy - nenalezeno","P31":"http://www.wikidata.org/entity/?","P31^label:cs":"Nenalezena","P131^label:cs":"Úterý","P6736":"38769"},"geometry":{"type":"Point","coordinates":[12.97466,49.97725]}},{"type":"Feature","properties":{"label:cs":"Kříž u Vidžína","P31":"http://www.wikidata.org/entity/Q2309609","P31^label:cs":"Pamětní kříž","P131^label:cs":"Úterý","P6736":"38768"},"geometry":{"type":"Point","coordinates":[12.97944,49.9672]}},{"type":"Feature","properties":{"label:cs":"Kříž západně od Vidžína","P31":"http://www.wikidata.org/entity/Q2309609","P31^label:cs":"Pamětní kříž","P131^label:cs":"Úterý","P6736":"38767"},"geometry":{"type":"Point","coordinates":[12.97672,49.96753]}},{"type":"Feature","properties":{"label:cs":"Kříž na vrchu Hůrka západně od Vidžína","P31":"http://www.wikidata.org/entity/Q2309609","P31^label:cs":"Pamětní kříž","P131^label:cs":"Úterý","P6736":"36173"},"geometry":{"type":"Point","coordinates":[12.96977,49.97034]}},{"type":"Feature","properties":{"label:cs":"Památka západně od Vidžína - nenalezeno","P31":"http://www.wikidata.org/entity/?","P31^label:cs":"Nenalezena","P131^label:cs":"Úterý","P6736":"36168"},"geometry":{"type":"Point","coordinates":[12.97361,49.96784]}},{"type":"Feature","properties":{"label:cs":"Kříž ve Vidžíně u kostela","P31":"http://www.wikidata.org/entity/Q2309609","P31^label:cs":"Pamětní kříž","P131^label:cs":"Úterý","P6736":"4704"},"geometry":{"type":"Point","coordinates":[12.98064,49.96561]}},{"type":"Feature","properties":{"label:cs":"Pomník padlým ve Vidžíně","P31":"http://www.wikidata.org/entity/Q575759","P31^label:cs":"Pomník padlým","P131^label:cs":"Úterý","P6736":"4703"},"geometry":{"type":"Point","coordinates":[12.98157,49.96576]}},{"type":"Feature","properties":{"label:cs":"Kříž východně od Vidžína","P31":"http://www.wikidata.org/entity/Q2309609","P31^label:cs":"Pamětní kříž","P131^label:cs":"Úterý","P6736":"2752"},"geometry":{"type":"Point","coordinates":[12.98386,49.96629]}}]}