{"type":"FeatureCollection","features":[{"type":"Feature","properties":{"label:cs":"Pamětní deska Kašpara Prokopa Reitenbergra v Úterý","P31":"http://www.wikidata.org/entity/Q721747","P31^label:cs":"Pamětní deska","P131^label:cs":"Úterý","P6736":"40446"},"geometry":{"type":"Point","coordinates":[13.00447,49.94043]}},{"type":"Feature","properties":{"label:cs":"Památka západně od Úterý - nenalezeno","P31":"http://www.wikidata.org/entity/?","P31^label:cs":"Nenalezena","P131^label:cs":"Úterý","P6736":"38792"},"geometry":{"type":"Point","coordinates":[12.99643,49.94244]}},{"type":"Feature","properties":{"label:cs":"Památka severně od Úterý - nenalezeno","P31":"http://www.wikidata.org/entity/?","P31^label:cs":"Nenalezena","P131^label:cs":"Úterý","P6736":"36167"},"geometry":{"type":"Point","coordinates":[13.00389,49.94213]}},{"type":"Feature","properties":{"label:cs":"Památka severovýchodně od Úterý - nenalezeno","P31":"http://www.wikidata.org/entity/?","P31^label:cs":"Nenalezena","P131^label:cs":"Úterý","P6736":"36166"},"geometry":{"type":"Point","coordinates":[13.00681,49.9429]}},{"type":"Feature","properties":{"label:cs":"Kříž západně od Úterý - nenalezeno","P31":"http://www.wikidata.org/entity/?","P31^label:cs":"Nenalezena","P131^label:cs":"Úterý","P6736":"35538"},"geometry":{"type":"Point","coordinates":[12.98959,49.93941]}},{"type":"Feature","properties":{"label:cs":"Kříž severozápadně od Úterý","P31":"http://www.wikidata.org/entity/Q2309609","P31^label:cs":"Pamětní kříž","P131^label:cs":"Úterý","P6736":"8928"},"geometry":{"type":"Point","coordinates":[12.99026,49.94463]}},{"type":"Feature","properties":{"label:cs":"Kříž severně od Úterý pod kostelem","P31":"http://www.wikidata.org/entity/Q2309609","P31^label:cs":"Pamětní kříž","P131^label:cs":"Úterý","P6736":"8927"},"geometry":{"type":"Point","coordinates":[13.00141,49.94114]}},{"type":"Feature","properties":{"label:cs":"Kašna v Úterý u školy","P31":"http://www.wikidata.org/entity/Q12029081","P31^label:cs":"Kašna","P131^label:cs":"Úterý","P6736":"8926"},"geometry":{"type":"Point","coordinates":[13.00118,49.93913]}},{"type":"Feature","properties":{"label:cs":"Pomník u kostela v Úterý","P31":"http://www.wikidata.org/entity/Q4989906","P31^label:cs":"Pomník","P131^label:cs":"Úterý","P6736":"8925"},"geometry":{"type":"Point","coordinates":[13.00261,49.93924]}},{"type":"Feature","properties":{"label:cs":"Kříž u kostela v Úterý","P31":"http://www.wikidata.org/entity/Q2309609","P31^label:cs":"Pamětní kříž","P131^label:cs":"Úterý","P6736":"8924"},"geometry":{"type":"Point","coordinates":[13.00278,49.93924]}},{"type":"Feature","properties":{"label:cs":"Hraniční kámen v Úterý II","P31":"http://www.wikidata.org/entity/Q921099","P31^label:cs":"Hraniční kámen","P131^label:cs":"Úterý","P6736":"8923"},"geometry":{"type":"Point","coordinates":[13.00378,49.93998]}},{"type":"Feature","properties":{"label:cs":"Hraniční kámen v Úterý I","P31":"http://www.wikidata.org/entity/Q921099","P31^label:cs":"Hraniční kámen","P131^label:cs":"Úterý","P6736":"8922"},"geometry":{"type":"Point","coordinates":[13.00386,49.93996]}},{"type":"Feature","properties":{"label:cs":"Kašna v Úterý na náměstí","P31":"http://www.wikidata.org/entity/Q12029081","P31^label:cs":"Kašna","P131^label:cs":"Úterý","P6736":"5686"},"geometry":{"type":"Point","coordinates":[13.00428,49.9403]}},{"type":"Feature","properties":{"label:cs":"Kříž západně od Úterý u rozcestí","P31":"http://www.wikidata.org/entity/Q2309609","P31^label:cs":"Pamětní kříž","P131^label:cs":"Úterý","P6736":"5616"},"geometry":{"type":"Point","coordinates":[12.99325,49.94027]}},{"type":"Feature","properties":{"label:cs":"Kříž západně od Úterý","P31":"http://www.wikidata.org/entity/Q2309609","P31^label:cs":"Pamětní kříž","P131^label:cs":"Úterý","P6736":"5615"},"geometry":{"type":"Point","coordinates":[12.99815,49.94063]}},{"type":"Feature","properties":{"label:cs":"Mariánský sloup v Úterý u křižovatky","P31":"http://www.wikidata.org/entity/Q4817","P31^label:cs":"Sloup","P131^label:cs":"Úterý","P6736":"4702"},"geometry":{"type":"Point","coordinates":[13.00139,49.93921]}},{"type":"Feature","properties":{"label:cs":"Pomník padlým v Úterý","P31":"http://www.wikidata.org/entity/Q575759","P31^label:cs":"Pomník padlým","P131^label:cs":"Úterý","P6736":"4701"},"geometry":{"type":"Point","coordinates":[13.00149,49.93904]}},{"type":"Feature","properties":{"label:cs":"Kaple Smrtelných úzkostí v Úterý","P31":"http://www.wikidata.org/entity/Q108325","P31^label:cs":"Kaple","P131^label:cs":"Úterý","P6736":"4700"},"geometry":{"type":"Point","coordinates":[13.00315,49.93957]}},{"type":"Feature","properties":{"label:cs":"Mariánský sloup v Úterý","P31":"http://www.wikidata.org/entity/Q4817","P31^label:cs":"Sloup","P131^label:cs":"Úterý","P6736":"4699"},"geometry":{"type":"Point","coordinates":[13.00422,49.94035]}},{"type":"Feature","properties":{"label:cs":"Boží muka nad Úterým","P31":"http://www.wikidata.org/entity/Q3395121","P31^label:cs":"Boží muka","P131^label:cs":"Úterý","P6736":"2717"},"geometry":{"type":"Point","coordinates":[12.99382,49.9429]}},{"type":"Feature","properties":{"label:cs":"Kaple severně od Úterý","P31":"http://www.wikidata.org/entity/Q108325","P31^label:cs":"Kaple","P131^label:cs":"Úterý","P6736":"2716"},"geometry":{"type":"Point","coordinates":[13.00261,49.9412]}}]}