{"type":"FeatureCollection","features":[{"type":"Feature","properties":{"label:cs":"Kříž v Kladrubech v zahradě","P31":"http://www.wikidata.org/entity/Q2309609","P31^label:cs":"Pamětní kříž","P131^label:cs":"Kladruby","P6736":"3934"},"geometry":{"type":"Point","coordinates":[12.98913,49.71498]}},{"type":"Feature","properties":{"label:cs":"Pomník padlým v Kladrubech","P31":"http://www.wikidata.org/entity/Q575759","P31^label:cs":"Pomník padlým","P131^label:cs":"Kladruby","P6736":"3933"},"geometry":{"type":"Point","coordinates":[12.98691,49.71556]}},{"type":"Feature","properties":{"label:cs":"Pamětní kříž jihozápadně od Střížkova mlýna v Kladrubech","P31":"http://www.wikidata.org/entity/Q2309609","P31^label:cs":"Pamětní kříž","P131^label:cs":"Kladruby","P6736":"32303"},"geometry":{"type":"Point","coordinates":[12.9886,49.71763]}},{"type":"Feature","properties":{"label:cs":"Socha Kristus s křížem v lese východně od brány kláštera Kladruby","P31":"http://www.wikidata.org/entity/Q179700","P31^label:cs":"Socha","P131^label:cs":"Kladruby","P6736":"32134"},"geometry":{"type":"Point","coordinates":[12.99769,49.71216]}},{"type":"Feature","properties":{"label:cs":"Kříž na vyhlídce Kalvárie u Pozorky u Kladrub","P31":"http://www.wikidata.org/entity/Q2309609","P31^label:cs":"Pamětní kříž","P131^label:cs":"Kladruby","P6736":"25443"},"geometry":{"type":"Point","coordinates":[12.9958,49.71612]}},{"type":"Feature","properties":{"label:cs":"Kříž východně od Kladrub u okraje lesa","P31":"http://www.wikidata.org/entity/Q2309609","P31^label:cs":"Pamětní kříž","P131^label:cs":"Kladruby","P6736":"2379"},"geometry":{"type":"Point","coordinates":[13.00578,49.71229]}}]}