{"type":"FeatureCollection","features":[{"type":"Feature","properties":{"label:cs":"Pomník Karla Ludwiga Watzky v Pivovarské ulici ve Stříbře","P31":"Q4989906","P31^label:cs":"Pomník","P131^label:cs":"Stříbro","P6736":"25411"},"geometry":{"type":"Point","coordinates":[13.00686,49.75304]}},{"type":"Feature","properties":{"label:cs":"Mariánský sloup ve Stříbře","P31":"Q4817","P31^label:cs":"Sloup","P131^label:cs":"Stříbro","P6736":"9887"},"geometry":{"type":"Point","coordinates":[13.00529,49.753]}},{"type":"Feature","properties":{"label:cs":"Kašna ve Stříbru na Masarykově náměstí","P31":"Q12029081","P31^label:cs":"Kašna","P131^label:cs":"Stříbro","P6736":"9886"},"geometry":{"type":"Point","coordinates":[13.00445,49.75291]}},{"type":"Feature","properties":{"label:cs":"Kaplička ve Stříbře v ulici Na Výsluní","P31":"Q14552192","P31^label:cs":"Kaplička","P131^label:cs":"Stříbro","P6736":"9880"},"geometry":{"type":"Point","coordinates":[13.00018,49.75343]}},{"type":"Feature","properties":{"label:cs":"Památník osvobození ve Stříbře","P31":"Q5003624","P31^label:cs":"Památník","P131^label:cs":"Stříbro","P6736":"9879"},"geometry":{"type":"Point","coordinates":[13.00029,49.75401]}},{"type":"Feature","properties":{"label:cs":"Památník 13. poledníku ve Stříbře","P31":"Q5003624","P31^label:cs":"Památník","P131^label:cs":"Stříbro","P6736":"9878"},"geometry":{"type":"Point","coordinates":[12.99941,49.75409]}},{"type":"Feature","properties":{"label:cs":"Socha svatého Jana Nepomuckého ve Stříbře u mostu","P31":"Q179700","P31^label:cs":"Socha","P131^label:cs":"Stříbro","P6736":"4754"},"geometry":{"type":"Point","coordinates":[13.00167,49.75486]}}]}