{"type":"FeatureCollection","features":[{"type":"Feature","properties":{"label:cs":"Kříž na zdi v Olešovicích","P31":"http://www.wikidata.org/entity/Q2309609","P31^label:cs":"Pamětní kříž","P131^label:cs":"Úterý","P6736":"41867"},"geometry":{"type":"Point","coordinates":[13.01106,49.937]}},{"type":"Feature","properties":{"label:cs":"Památka východně od Olešovic - nenalezeno","P31":"http://www.wikidata.org/entity/?","P31^label:cs":"Nenalezena","P131^label:cs":"Úterý","P6736":"38803"},"geometry":{"type":"Point","coordinates":[13.01671,49.93577]}},{"type":"Feature","properties":{"label:cs":"Památka jižně od Olešovic - nenalezeno","P31":"http://www.wikidata.org/entity/?","P31^label:cs":"Nenalezena","P131^label:cs":"Úterý","P6736":"38802"},"geometry":{"type":"Point","coordinates":[13.01015,49.93614]}},{"type":"Feature","properties":{"label:cs":"Památka jižně od Olešovic - nenalezeno","P31":"http://www.wikidata.org/entity/?","P31^label:cs":"Nenalezena","P131^label:cs":"Úterý","P6736":"35810"},"geometry":{"type":"Point","coordinates":[13.01432,49.93429]}},{"type":"Feature","properties":{"label:cs":"Kříž jižně od Olešovic u rozcestí","P31":"http://www.wikidata.org/entity/Q2309609","P31^label:cs":"Pamětní kříž","P131^label:cs":"Úterý","P6736":"5688"},"geometry":{"type":"Point","coordinates":[13.01484,49.92797]}},{"type":"Feature","properties":{"label:cs":"Kříž východně od Olešovic u rybníka","P31":"http://www.wikidata.org/entity/Q2309609","P31^label:cs":"Pamětní kříž","P131^label:cs":"Úterý","P6736":"5687"},"geometry":{"type":"Point","coordinates":[13.01515,49.93609]}},{"type":"Feature","properties":{"label:cs":"Památka východně od Olešovic - nenalezeno","P31":"http://www.wikidata.org/entity/?","P31^label:cs":"Nenalezena","P131^label:cs":"Krsy","P6736":"36129"},"geometry":{"type":"Point","coordinates":[13.02299,49.93576]}}]}