{"type":"FeatureCollection","features":[{"type":"Feature","properties":{"label:cs":"Památka jihovýchodně od Nové Vísky - nenalezeno","P31":"http://www.wikidata.org/entity/?","P31^label:cs":"Nenalezena","P131^label:cs":"Bezvěrov","P6736":"38755"},"geometry":{"type":"Point","coordinates":[13.02236,49.9805]}},{"type":"Feature","properties":{"label:cs":"Kaple v Nové Vísce - nenalezeno","P31":"http://www.wikidata.org/entity/?","P31^label:cs":"Nenalezena","P131^label:cs":"Bezvěrov","P6736":"35814"},"geometry":{"type":"Point","coordinates":[13.0214,49.9812]}},{"type":"Feature","properties":{"label:cs":"Památka severně od Nové Vísky - nenalezeno","P31":"http://www.wikidata.org/entity/?","P31^label:cs":"Nenalezena","P131^label:cs":"Bezvěrov","P6736":"35808"},"geometry":{"type":"Point","coordinates":[13.01814,49.98293]}},{"type":"Feature","properties":{"label:cs":"Pomník padlým v Nové Vísce","P31":"http://www.wikidata.org/entity/Q575759","P31^label:cs":"Pomník padlým","P131^label:cs":"Bezvěrov","P6736":"5683"},"geometry":{"type":"Point","coordinates":[13.02205,49.98095]}},{"type":"Feature","properties":{"label:cs":"Kříž v Nové Vísce","P31":"http://www.wikidata.org/entity/Q2309609","P31^label:cs":"Pamětní kříž","P131^label:cs":"Bezvěrov","P6736":"5606"},"geometry":{"type":"Point","coordinates":[13.02143,49.9818]}}]}