{"type":"FeatureCollection","features":[{"type":"Feature","properties":{"label:cs":"Památník stromu svobody v Bezvěrově","P31":"http://www.wikidata.org/entity/Q5003624","P31^label:cs":"Památník","P131^label:cs":"Bezvěrov","P6736":"4511"},"geometry":{"type":"Point","coordinates":[13.0599,49.99432]}},{"type":"Feature","properties":{"label:cs":"Pomník padlým v Bezvěrově","P31":"http://www.wikidata.org/entity/Q575759","P31^label:cs":"Pomník padlým","P131^label:cs":"Bezvěrov","P6736":"4512"},"geometry":{"type":"Point","coordinates":[13.05935,49.99441]}},{"type":"Feature","properties":{"label:cs":"Kaple v Bezvěrově","P31":"http://www.wikidata.org/entity/Q108325","P31^label:cs":"Kaple","P131^label:cs":"Bezvěrov","P6736":"4513"},"geometry":{"type":"Point","coordinates":[13.058,49.99405]}},{"type":"Feature","properties":{"label:cs":"Pomník východně od Bezvěrova","P31":"http://www.wikidata.org/entity/Q4989906","P31^label:cs":"Pomník","P131^label:cs":"Bezvěrov","P6736":"5549"},"geometry":{"type":"Point","coordinates":[13.06564,49.99651]}},{"type":"Feature","properties":{"label:cs":"Kříž v Bezvěrově u rozcestí","P31":"http://www.wikidata.org/entity/Q2309609","P31^label:cs":"Pamětní kříž","P131^label:cs":"Bezvěrov","P6736":"5550"},"geometry":{"type":"Point","coordinates":[13.06167,49.99657]}},{"type":"Feature","properties":{"label:cs":"Kříž v Bezvěrově u rybníčku","P31":"http://www.wikidata.org/entity/Q2309609","P31^label:cs":"Pamětní kříž","P131^label:cs":"Bezvěrov","P6736":"5551"},"geometry":{"type":"Point","coordinates":[13.06087,49.99871]}}]}