{"type":"FeatureCollection","features":[{"type":"Feature","properties":{"label:cs":"Smírčí křiž jižně od Pakoslavi","P31":"http://www.wikidata.org/entity/Q1640496","P31^label:cs":"Smírčí kříž","P131^label:cs":"Křelovice","P6736":"8818"},"geometry":{"type":"Point","coordinates":[13.05422,49.86319]}},{"type":"Feature","properties":{"label:cs":"Památka jihovýchodně od Rozněvic - nenalezeno","P31":"http://www.wikidata.org/entity/?","P31^label:cs":"Nenalezena","P131^label:cs":"Křelovice","P6736":"38786"},"geometry":{"type":"Point","coordinates":[13.06965,49.85526]}},{"type":"Feature","properties":{"label:cs":"Kříž západně od Rozněvic - nenalezeno","P31":"http://www.wikidata.org/entity/?","P31^label:cs":"Nenalezena","P131^label:cs":"Křelovice","P6736":"35801"},"geometry":{"type":"Point","coordinates":[13.05699,49.85727]}},{"type":"Feature","properties":{"label:cs":"Kříž nedaleko kaple u Rozněvic - nenalezeno","P31":"http://www.wikidata.org/entity/?","P31^label:cs":"Nenalezena","P131^label:cs":"Křelovice","P6736":"35373"},"geometry":{"type":"Point","coordinates":[13.06449,49.85834]}},{"type":"Feature","properties":{"label:cs":"Kříž jihozápadně od Rozněvic u rozcestí - nenalezeno","P31":"http://www.wikidata.org/entity/?","P31^label:cs":"Nenalezena","P131^label:cs":"Křelovice","P6736":"35363"},"geometry":{"type":"Point","coordinates":[13.06198,49.8548]}},{"type":"Feature","properties":{"label:cs":"Kříž východně od Rozněvic","P31":"http://www.wikidata.org/entity/Q2309609","P31^label:cs":"Pamětní kříž","P131^label:cs":"Křelovice","P6736":"34986"},"geometry":{"type":"Point","coordinates":[13.07014,49.85588]}},{"type":"Feature","properties":{"label:cs":"Kříž v Rozněvicích","P31":"http://www.wikidata.org/entity/Q2309609","P31^label:cs":"Pamětní kříž","P131^label:cs":"Křelovice","P6736":"4925"},"geometry":{"type":"Point","coordinates":[13.06582,49.85779]}},{"type":"Feature","properties":{"label:cs":"Smírčí kříž západně od Rozněvic u cesty na Šipín","P31":"http://www.wikidata.org/entity/Q1640496","P31^label:cs":"Smírčí kříž","P131^label:cs":"Křelovice","P6736":"2459"},"geometry":{"type":"Point","coordinates":[13.05956,49.85711]}},{"type":"Feature","properties":{"label:cs":"Kaple v Rozněvicích","P31":"http://www.wikidata.org/entity/Q108325","P31^label:cs":"Kaple","P131^label:cs":"Křelovice","P6736":"2458"},"geometry":{"type":"Point","coordinates":[13.06436,49.85811]}}]}