{"type":"FeatureCollection","features":[{"type":"Feature","properties":{"label:cs":"Kříž jižně od Hlohové","P31":"Q2309609","P31^label:cs":"Pamětní kříž","P131^label:cs":"Hlohová","P6736":"3443"},"geometry":{"type":"Point","coordinates":[13.07273,49.53084]}},{"type":"Feature","properties":{"label:cs":"Kříž západně od Hlohové","P31":"Q2309609","P31^label:cs":"Pamětní kříž","P131^label:cs":"Hlohová","P6736":"3440"},"geometry":{"type":"Point","coordinates":[13.06991,49.53531]}},{"type":"Feature","properties":{"label:cs":"Kříž severně od Hlohové","P31":"Q2309609","P31^label:cs":"Pamětní kříž","P131^label:cs":"Hlohová","P6736":"3439"},"geometry":{"type":"Point","coordinates":[13.07096,49.53839]}},{"type":"Feature","properties":{"label:cs":"Kaple u Paseckého Mlýna","P31":"Q108325","P31^label:cs":"Kaple","P131^label:cs":"Hlohová","P6736":"3197"},"geometry":{"type":"Point","coordinates":[13.05987,49.5391]}},{"type":"Feature","properties":{"label:cs":"Kříž u lesa u Osvračína","P31":"Q2309609","P31^label:cs":"Pamětní kříž","P131^label:cs":"Hlohová","P6736":"1520"},"geometry":{"type":"Point","coordinates":[13.05398,49.53151]}}]}