{"type":"FeatureCollection","features":[{"type":"Feature","properties":{"label:cs":"Kříž v Popově","P31":"http://www.wikidata.org/entity/Q2309609","P31^label:cs":"Pamětní kříž","P131^label:cs":"Kostelec","P6736":"3935"},"geometry":{"type":"Point","coordinates":[13.06508,49.70041]}},{"type":"Feature","properties":{"label:cs":"Kříž u Radějovic","P31":"http://www.wikidata.org/entity/Q2309609","P31^label:cs":"Pamětní kříž","P131^label:cs":"Přehýšov","P6736":"2420"},"geometry":{"type":"Point","coordinates":[13.06814,49.69712]}},{"type":"Feature","properties":{"label:cs":"Kříž ve svahu u Popova","P31":"http://www.wikidata.org/entity/Q2309609","P31^label:cs":"Pamětní kříž","P131^label:cs":"Kostelec","P6736":"2358"},"geometry":{"type":"Point","coordinates":[13.06459,49.7017]}},{"type":"Feature","properties":{"label:cs":"Kříž u Popova","P31":"http://www.wikidata.org/entity/Q2309609","P31^label:cs":"Pamětní kříž","P131^label:cs":"Kostelec","P6736":"2357"},"geometry":{"type":"Point","coordinates":[13.06328,49.70327]}},{"type":"Feature","properties":{"label:cs":"Kříž u Popova ve směru na Ostrov u Stříbra","P31":"http://www.wikidata.org/entity/Q2309609","P31^label:cs":"Pamětní kříž","P131^label:cs":"Kostelec","P6736":"2356"},"geometry":{"type":"Point","coordinates":[13.0632,49.70325]}}]}