{"type":"FeatureCollection","features":[{"type":"Feature","properties":{"label:cs":"Kříž východně od Polínek u cesty","P31":"Pamětní kříž","P31^label:cs":"Pamětní kříž","P131^label:cs":"Krsy","P6736":"10127"},"geometry":{"type":"Point","coordinates":[13.0659,49.93633]}},{"type":"Feature","properties":{"label:cs":"Polední hodiny v Krsech","P31":"Něco jiného","P31^label:cs":"Něco jiného","P131^label:cs":"Krsy","P6736":"8934"},"geometry":{"type":"Point","coordinates":[13.05532,49.92569]}},{"type":"Feature","properties":{"label:cs":"Boží muka severně od Krsů","P31":"Boží muka","P31^label:cs":"Boží muka","P131^label:cs":"Krsy","P6736":"7934"},"geometry":{"type":"Point","coordinates":[13.05517,49.93021]}},{"type":"Feature","properties":{"label:cs":"Smírčí kříž severně od Krsů","P31":"Smírčí kříž","P31^label:cs":"Smírčí kříž","P131^label:cs":"Krsy","P6736":"5641"},"geometry":{"type":"Point","coordinates":[13.05482,49.93313]}},{"type":"Feature","properties":{"label:cs":"Kříž severovýchodně od Krsů","P31":"Pamětní kříž","P31^label:cs":"Pamětní kříž","P131^label:cs":"Krsy","P6736":"4691"},"geometry":{"type":"Point","coordinates":[13.06726,49.93113]}},{"type":"Feature","properties":{"label:cs":"Socha svatého Jana Nepomuckého v Krsech","P31":"Socha","P31^label:cs":"Socha","P131^label:cs":"Krsy","P6736":"4690"},"geometry":{"type":"Point","coordinates":[13.0552,49.92579]}},{"type":"Feature","properties":{"label:cs":"Socha svatého Jana Křtitele před kostelem v Krsech","P31":"Pamětní kříž","P31^label:cs":"Pamětní kříž","P131^label:cs":"Krsy","P6736":"4689"},"geometry":{"type":"Point","coordinates":[13.05488,49.92556]}},{"type":"Feature","properties":{"label:cs":"Kříž jižně od Polínek u cesty","P31":"Pamětní kříž","P31^label:cs":"Pamětní kříž","P131^label:cs":"Krsy","P6736":"2347"},"geometry":{"type":"Point","coordinates":[13.05849,49.9369]}},{"type":"Feature","properties":{"label:cs":"Kaplička jižně od Polínek","P31":"Kaplička","P31^label:cs":"Kaplička","P131^label:cs":"Krsy","P6736":"2346"},"geometry":{"type":"Point","coordinates":[13.05535,49.936]}},{"type":"Feature","properties":{"label:cs":"Kříž jižně od Polínek","P31":"Pamětní kříž","P31^label:cs":"Pamětní kříž","P131^label:cs":"Krsy","P6736":"2345"},"geometry":{"type":"Point","coordinates":[13.0555,49.93489]}},{"type":"Feature","properties":{"label:cs":"Kříž severozápadně od Krsů","P31":"Pamětní kříž","P31^label:cs":"Pamětní kříž","P131^label:cs":"Krsy","P6736":"1832"},"geometry":{"type":"Point","coordinates":[13.05698,49.92813]}}]}