{"type":"FeatureCollection","features":[{"type":"Feature","properties":{"label:cs":"Památka severovýchodně od Krs - nenalezeno","P31":"http://www.wikidata.org/entity/?","P31^label:cs":"Nenalezena","P131^label:cs":"Krsy","P6736":"38775"},"geometry":{"type":"Point","coordinates":[13.06419,49.931]}},{"type":"Feature","properties":{"label:cs":"Památka východně od Krs - nenalezeno","P31":"http://www.wikidata.org/entity/?","P31^label:cs":"Nenalezena","P131^label:cs":"Krsy","P6736":"36111"},"geometry":{"type":"Point","coordinates":[13.06214,49.92433]}},{"type":"Feature","properties":{"label:cs":"Kříž jihovýchodně od Krsova - nenalezeno","P31":"http://www.wikidata.org/entity/?","P31^label:cs":"Nenalezena","P131^label:cs":"Krsy","P6736":"35628"},"geometry":{"type":"Point","coordinates":[13.05887,49.92302]}},{"type":"Feature","properties":{"label:cs":"Kříž východně od Krs - nenalezeno","P31":"http://www.wikidata.org/entity/?","P31^label:cs":"Nenalezena","P131^label:cs":"Krsy","P6736":"35627"},"geometry":{"type":"Point","coordinates":[13.05783,49.92584]}},{"type":"Feature","properties":{"label:cs":"Kříž jihovýchodně od Krs u rozcestí - nenalezeno","P31":"http://www.wikidata.org/entity/?","P31^label:cs":"Nenalezena","P131^label:cs":"Krsy","P6736":"35626"},"geometry":{"type":"Point","coordinates":[13.05676,49.9252]}},{"type":"Feature","properties":{"label:cs":"Kříž západně od Krs u potoka - nenalezeno","P31":"http://www.wikidata.org/entity/?","P31^label:cs":"Nenalezena","P131^label:cs":"Krsy","P6736":"35624"},"geometry":{"type":"Point","coordinates":[13.05247,49.92643]}},{"type":"Feature","properties":{"label:cs":"Polední hodiny v Krsech","P31":"http://www.wikidata.org/entity/Q376","P31^label:cs":"Hodiny","P131^label:cs":"Krsy","P6736":"8934"},"geometry":{"type":"Point","coordinates":[13.05532,49.92569]}},{"type":"Feature","properties":{"label:cs":"Boží muka severně od Krs","P31":"http://www.wikidata.org/entity/Q3395121","P31^label:cs":"Boží muka","P131^label:cs":"Krsy","P6736":"7934"},"geometry":{"type":"Point","coordinates":[13.05517,49.93021]}},{"type":"Feature","properties":{"label:cs":"Smírčí kříž severně od Krs","P31":"http://www.wikidata.org/entity/Q1640496","P31^label:cs":"Smírčí kříž","P131^label:cs":"Krsy","P6736":"5641"},"geometry":{"type":"Point","coordinates":[13.05482,49.93313]}},{"type":"Feature","properties":{"label:cs":"Kříž severovýchodně od Krs","P31":"http://www.wikidata.org/entity/Q2309609","P31^label:cs":"Pamětní kříž","P131^label:cs":"Krsy","P6736":"4691"},"geometry":{"type":"Point","coordinates":[13.06726,49.93113]}},{"type":"Feature","properties":{"label:cs":"Socha svatého Jana Nepomuckého v Krsech","P31":"http://www.wikidata.org/entity/Q179700","P31^label:cs":"Socha","P131^label:cs":"Krsy","P6736":"4690"},"geometry":{"type":"Point","coordinates":[13.0552,49.92579]}},{"type":"Feature","properties":{"label:cs":"Socha svatého Jana Křtitele před kostelem v Krsech","P31":"http://www.wikidata.org/entity/Q2309609","P31^label:cs":"Pamětní kříž","P131^label:cs":"Krsy","P6736":"4689"},"geometry":{"type":"Point","coordinates":[13.05488,49.92556]}},{"type":"Feature","properties":{"label:cs":"Kříž severozápadně od Krs","P31":"http://www.wikidata.org/entity/Q2309609","P31^label:cs":"Pamětní kříž","P131^label:cs":"Krsy","P6736":"1832"},"geometry":{"type":"Point","coordinates":[13.05698,49.92813]}},{"type":"Feature","properties":{"label:cs":"Kříž východně od Polínek u cesty","P31":"http://www.wikidata.org/entity/Q2309609","P31^label:cs":"Pamětní kříž","P131^label:cs":"Krsy","P6736":"10127"},"geometry":{"type":"Point","coordinates":[13.0659,49.93633]}},{"type":"Feature","properties":{"label:cs":"Kříž jižně od Polínek u cesty","P31":"http://www.wikidata.org/entity/Q2309609","P31^label:cs":"Pamětní kříž","P131^label:cs":"Krsy","P6736":"2347"},"geometry":{"type":"Point","coordinates":[13.05849,49.9369]}},{"type":"Feature","properties":{"label:cs":"Kaplička jižně od Polínek","P31":"http://www.wikidata.org/entity/Q14552192","P31^label:cs":"Kaplička","P131^label:cs":"Krsy","P6736":"2346"},"geometry":{"type":"Point","coordinates":[13.05535,49.936]}},{"type":"Feature","properties":{"label:cs":"Kříž jižně od Polínek","P31":"http://www.wikidata.org/entity/Q2309609","P31^label:cs":"Pamětní kříž","P131^label:cs":"Krsy","P6736":"2345"},"geometry":{"type":"Point","coordinates":[13.0555,49.93489]}}]}