{"type":"FeatureCollection","features":[{"type":"Feature","properties":{"label:cs":"Plastika z kamene a kovu v parku na náměstí Jana Švermy v Kovářské","P31":"http://www.wikidata.org/entity/Q12045520","P31^label:cs":"Plastika","P131^label:cs":"Kovářská","P6736":"38526"},"geometry":{"type":"Point","coordinates":[13.05295,50.43807]}},{"type":"Feature","properties":{"label:cs":"Pomník padlým naproti kostelu v Kovářské","P31":"http://www.wikidata.org/entity/Q575759","P31^label:cs":"Pomník padlým","P131^label:cs":"Kovářská","P6736":"38522"},"geometry":{"type":"Point","coordinates":[13.05501,50.43969]}},{"type":"Feature","properties":{"label:cs":"Mariánský sloup u kostela v Kovářské","P31":"http://www.wikidata.org/entity/Q4817","P31^label:cs":"Sloup","P131^label:cs":"Kovářská","P6736":"38519"},"geometry":{"type":"Point","coordinates":[13.0545,50.43975]}},{"type":"Feature","properties":{"label:cs":"Betonová plastika u obchodu v na náměstí v Kovářské","P31":"http://www.wikidata.org/entity/Q12045520","P31^label:cs":"Plastika","P131^label:cs":"Kovářská","P6736":"38518"},"geometry":{"type":"Point","coordinates":[13.05391,50.4391]}},{"type":"Feature","properties":{"label:cs":"Památník letecké bitvy na náměstí Jana Švermy v Kovářské","P31":"http://www.wikidata.org/entity/Q5003624","P31^label:cs":"Památník","P131^label:cs":"Kovářská","P6736":"17583"},"geometry":{"type":"Point","coordinates":[13.05387,50.43851]}}]}