{"type":"FeatureCollection","features":[{"type":"Feature","properties":{"label:cs":"Kříž východně od Krsova - nenalezeno","P31":"http://www.wikidata.org/entity/?","P31^label:cs":"Nenalezena","P131^label:cs":"Ostrov u Bezdružic","P6736":"35630"},"geometry":{"type":"Point","coordinates":[13.05974,49.89344]}},{"type":"Feature","properties":{"label:cs":"Kříž západně od Krsova - nenalezeno","P31":"http://www.wikidata.org/entity/?","P31^label:cs":"Nenalezena","P131^label:cs":"Ostrov u Bezdružic","P6736":"35554"},"geometry":{"type":"Point","coordinates":[13.05311,49.89224]}},{"type":"Feature","properties":{"label:cs":"Kříž jihovýchodně od Krsova u rozcestí - nenalezeno","P31":"http://www.wikidata.org/entity/?","P31^label:cs":"Nenalezena","P131^label:cs":"Ostrov u Bezdružic","P6736":"35553"},"geometry":{"type":"Point","coordinates":[13.06693,49.88345]}},{"type":"Feature","properties":{"label:cs":"Kříž severně od Krsova na svahu - nenalezeno","P31":"http://www.wikidata.org/entity/?","P31^label:cs":"Nenalezena","P131^label:cs":"Ostrov u Bezdružic","P6736":"35552"},"geometry":{"type":"Point","coordinates":[13.05719,49.89411]}},{"type":"Feature","properties":{"label:cs":"Kříž jihovýchodně od Krsova - nenalezeno","P31":"http://www.wikidata.org/entity/?","P31^label:cs":"Nenalezena","P131^label:cs":"Ostrov u Bezdružic","P6736":"35332"},"geometry":{"type":"Point","coordinates":[13.06293,49.89115]}},{"type":"Feature","properties":{"label:cs":"Kříž v Krsově na návsi","P31":"http://www.wikidata.org/entity/Q2309609","P31^label:cs":"Pamětní kříž","P131^label:cs":"Ostrov u Bezdružic","P6736":"4723"},"geometry":{"type":"Point","coordinates":[13.05823,49.8927]}},{"type":"Feature","properties":{"label:cs":"Kaple Panny Marie v Krsově","P31":"http://www.wikidata.org/entity/Q108325","P31^label:cs":"Kaple","P131^label:cs":"Ostrov u Bezdružic","P6736":"4722"},"geometry":{"type":"Point","coordinates":[13.05831,49.89162]}}]}