{"type":"FeatureCollection","features":[{"type":"Feature","properties":{"label:cs":"Památka jižně od Kejšovic - nenalezeno","P31":"http://www.wikidata.org/entity/?","P31^label:cs":"Nenalezena","P131^label:cs":"Krsy","P6736":"38739"},"geometry":{"type":"Point","coordinates":[13.05227,49.94554]}},{"type":"Feature","properties":{"label:cs":"Památka severně od Kejšovic - nenalezeno","P31":"http://www.wikidata.org/entity/?","P31^label:cs":"Nenalezena","P131^label:cs":"Krsy","P6736":"35544"},"geometry":{"type":"Point","coordinates":[13.05211,49.94814]}},{"type":"Feature","properties":{"label:cs":"Kaple v Kejšovicích","P31":"http://www.wikidata.org/entity/Q108325","P31^label:cs":"Kaple","P131^label:cs":"Krsy","P6736":"4696"},"geometry":{"type":"Point","coordinates":[13.05306,49.947]}},{"type":"Feature","properties":{"label:cs":"Boží muka jižně od Kejšovic","P31":"http://www.wikidata.org/entity/Q3395121","P31^label:cs":"Boží muka","P131^label:cs":"Krsy","P6736":"4695"},"geometry":{"type":"Point","coordinates":[13.05418,49.94591]}},{"type":"Feature","properties":{"label:cs":"Kříž nad Kejšovicemi","P31":"http://www.wikidata.org/entity/Q2309609","P31^label:cs":"Pamětní kříž","P131^label:cs":"Krsy","P6736":"1716"},"geometry":{"type":"Point","coordinates":[13.05914,49.9488]}},{"type":"Feature","properties":{"label:cs":"Památka severně od Polínek - nenalezeno","P31":"http://www.wikidata.org/entity/?","P31^label:cs":"Nenalezena","P131^label:cs":"Krsy","P6736":"38953"},"geometry":{"type":"Point","coordinates":[13.05691,49.93959]}},{"type":"Feature","properties":{"label:cs":"Památka západně od Polínek - nenalezeno","P31":"http://www.wikidata.org/entity/?","P31^label:cs":"Nenalezena","P131^label:cs":"Krsy","P6736":"38738"},"geometry":{"type":"Point","coordinates":[13.05589,49.93768]}},{"type":"Feature","properties":{"label:cs":"Kříž v Polínkách - nenalezeno","P31":"http://www.wikidata.org/entity/?","P31^label:cs":"Nenalezena","P131^label:cs":"Krsy","P6736":"4694"},"geometry":{"type":"Point","coordinates":[13.05727,49.93898]}},{"type":"Feature","properties":{"label:cs":"Kaple v Polínkách","P31":"http://www.wikidata.org/entity/Q108325","P31^label:cs":"Kaple","P131^label:cs":"Krsy","P6736":"4692"},"geometry":{"type":"Point","coordinates":[13.05757,49.93784]}}]}