{"type":"FeatureCollection","features":[{"type":"Feature","properties":{"label:cs":"Obrázek u silnice z Němčic do Staré Hutě","P31":"http://www.wikidata.org/entity/Q478798","P31^label:cs":"Obrázek","P131^label:cs":"Němčice","P6736":"35691"},"geometry":{"type":"Point","coordinates":[13.07608,49.42795]}},{"type":"Feature","properties":{"label:cs":"Kříž u silnice z Němčic do Staré Hutě","P31":"http://www.wikidata.org/entity/Q2309609","P31^label:cs":"Pamětní kříž","P131^label:cs":"Němčice","P6736":"35690"},"geometry":{"type":"Point","coordinates":[13.07647,49.43049]}},{"type":"Feature","properties":{"label:cs":"Kříž severovýchodně od Němčic","P31":"http://www.wikidata.org/entity/Q2309609","P31^label:cs":"Pamětní kříž","P131^label:cs":"Němčice","P6736":"35269"},"geometry":{"type":"Point","coordinates":[13.08184,49.42607]}},{"type":"Feature","properties":{"label:cs":"Socha svatého Jana Nepomuckého v Němčicích","P31":"http://www.wikidata.org/entity/Q179700","P31^label:cs":"Socha","P131^label:cs":"Němčice","P6736":"35266"},"geometry":{"type":"Point","coordinates":[13.07632,49.42535]}},{"type":"Feature","properties":{"label:cs":"Kříž ve Staré Huti u silnice na Úboč","P31":"http://www.wikidata.org/entity/Q2309609","P31^label:cs":"Pamětní kříž","P131^label:cs":"Úboč","P6736":"35689"},"geometry":{"type":"Point","coordinates":[13.07951,49.4341]}},{"type":"Feature","properties":{"label:cs":"Obrázek u silnice z Němčic do Bezpravovic","P31":"http://www.wikidata.org/entity/Q478798","P31^label:cs":"Obrázek","P131^label:cs":"Úboč","P6736":"35271"},"geometry":{"type":"Point","coordinates":[13.09202,49.43176]}}]}