{"type":"FeatureCollection","features":[{"type":"Feature","properties":{"label:cs":"Kříž u hřbitova v Úboči","P31":"http://www.wikidata.org/entity/Q2309609","P31^label:cs":"Pamětní kříž","P131^label:cs":"Úboč","P6736":"35730"},"geometry":{"type":"Point","coordinates":[13.09064,49.44467]}},{"type":"Feature","properties":{"label:cs":"Kříž u silnice za Úbočí směrem na Všepadly","P31":"http://www.wikidata.org/entity/Q2309609","P31^label:cs":"Pamětní kříž","P131^label:cs":"Úboč","P6736":"35729"},"geometry":{"type":"Point","coordinates":[13.09559,49.44489]}},{"type":"Feature","properties":{"label:cs":"Kříž na návsi v Úboči","P31":"http://www.wikidata.org/entity/Q2309609","P31^label:cs":"Pamětní kříž","P131^label:cs":"Úboč","P6736":"35688"},"geometry":{"type":"Point","coordinates":[13.08681,49.44252]}},{"type":"Feature","properties":{"label:cs":"Pomník Jana Husa v Úboči","P31":"http://www.wikidata.org/entity/Q4989906","P31^label:cs":"Pomník","P131^label:cs":"Úboč","P6736":"35687"},"geometry":{"type":"Point","coordinates":[13.08705,49.44384]}},{"type":"Feature","properties":{"label:cs":"Kříž na severním okraji Úboče","P31":"http://www.wikidata.org/entity/Q2309609","P31^label:cs":"Pamětní kříž","P131^label:cs":"Úboč","P6736":"35517"},"geometry":{"type":"Point","coordinates":[13.08751,49.44646]}}]}