{"type":"FeatureCollection","features":[{"type":"Feature","properties":{"label:cs":"Kříž jihovýchodně od Horních Sekyřan - nenalezeno","P31":"http://www.wikidata.org/entity/?","P31^label:cs":"Nenalezena","P131^label:cs":"Přehýšov","P6736":"35302"},"geometry":{"type":"Point","coordinates":[13.09165,49.70242]}},{"type":"Feature","properties":{"label:cs":"Kaple severozápadně od Bítova - nenalezeno","P31":"http://www.wikidata.org/entity/?","P31^label:cs":"Nenalezena","P131^label:cs":"Přehýšov","P6736":"35280"},"geometry":{"type":"Point","coordinates":[13.09122,49.69728]}},{"type":"Feature","properties":{"label:cs":"Památka v Horních Sekyřanech - nenalezeno","P31":"http://www.wikidata.org/entity/?","P31^label:cs":"Nenalezena","P131^label:cs":"Heřmanova Huť","P6736":"38805"},"geometry":{"type":"Point","coordinates":[13.08747,49.70466]}},{"type":"Feature","properties":{"label:cs":"Kaple v Horních Sekyřanech - nenalezeno","P31":"http://www.wikidata.org/entity/?","P31^label:cs":"Nenalezena","P131^label:cs":"Heřmanova Huť","P6736":"38746"},"geometry":{"type":"Point","coordinates":[13.08827,49.70422]}},{"type":"Feature","properties":{"label:cs":"Kříž mezi Heřmanovou Hutí a Horními Sekyřany - nenalezeno","P31":"http://www.wikidata.org/entity/?","P31^label:cs":"Nenalezena","P131^label:cs":"Heřmanova Huť","P6736":"35369"},"geometry":{"type":"Point","coordinates":[13.08435,49.7085]}},{"type":"Feature","properties":{"label:cs":"Kříž u kostela v Horních Sekyřanech","P31":"http://www.wikidata.org/entity/Q2309609","P31^label:cs":"Pamětní kříž","P131^label:cs":"Heřmanova Huť","P6736":"8807"},"geometry":{"type":"Point","coordinates":[13.08808,49.7046]}},{"type":"Feature","properties":{"label:cs":"Boží muka východně od Horních Sekyřan","P31":"http://www.wikidata.org/entity/Q3395121","P31^label:cs":"Boží muka","P131^label:cs":"Heřmanova Huť","P6736":"8800"},"geometry":{"type":"Point","coordinates":[13.09336,49.70539]}},{"type":"Feature","properties":{"label:cs":"Kříž jihozápadně od Horních Sekyřan","P31":"http://www.wikidata.org/entity/Q2309609","P31^label:cs":"Pamětní kříž","P131^label:cs":"Heřmanova Huť","P6736":"6663"},"geometry":{"type":"Point","coordinates":[13.08493,49.70314]}},{"type":"Feature","properties":{"label:cs":"Pomník obětem II. světové války v Heřmanově Huti","P31":"http://www.wikidata.org/entity/Q575759","P31^label:cs":"Pomník padlým","P131^label:cs":"Heřmanova Huť","P6736":"5060"},"geometry":{"type":"Point","coordinates":[13.08914,49.70805]}},{"type":"Feature","properties":{"label:cs":"Kaple v Horních Sekyřanech","P31":"http://www.wikidata.org/entity/Q108325","P31^label:cs":"Kaple","P131^label:cs":"Heřmanova Huť","P6736":"4678"},"geometry":{"type":"Point","coordinates":[13.08764,49.70483]}},{"type":"Feature","properties":{"label:cs":"Památník Josefa II. v Horních Sekyřanech","P31":"http://www.wikidata.org/entity/Q5003624","P31^label:cs":"Památník","P131^label:cs":"Heřmanova Huť","P6736":"3940"},"geometry":{"type":"Point","coordinates":[13.08813,49.70439]}},{"type":"Feature","properties":{"label:cs":"Kříž v Horních Sekyřanech","P31":"http://www.wikidata.org/entity/Q2309609","P31^label:cs":"Pamětní kříž","P131^label:cs":"Heřmanova Huť","P6736":"3938"},"geometry":{"type":"Point","coordinates":[13.08725,49.70594]}},{"type":"Feature","properties":{"label:cs":"Kříž u Horních Sekyřan","P31":"http://www.wikidata.org/entity/Q2309609","P31^label:cs":"Pamětní kříž","P131^label:cs":"Heřmanova Huť","P6736":"1564"},"geometry":{"type":"Point","coordinates":[13.08513,49.70356]}},{"type":"Feature","properties":{"label:cs":"Křížový kámen u kapličky u Horních Sekyřan","P31":"http://www.wikidata.org/entity/Q38411643","P31^label:cs":"Křížový kámen","P131^label:cs":"Kostelec","P6736":"3939"},"geometry":{"type":"Point","coordinates":[13.08157,49.70282]}},{"type":"Feature","properties":{"label:cs":"Kaplička u Horních Sekyřan","P31":"http://www.wikidata.org/entity/Q14552192","P31^label:cs":"Kaplička","P131^label:cs":"Kostelec","P6736":"2355"},"geometry":{"type":"Point","coordinates":[13.08156,49.70285]}},{"type":"Feature","properties":{"label:cs":"Kaplička severně od Radějovic - nenalezeno","P31":"http://www.wikidata.org/entity/?","P31^label:cs":"Nenalezena","P131^label:cs":"Přehýšov","P6736":"35394"},"geometry":{"type":"Point","coordinates":[13.07577,49.70009]}},{"type":"Feature","properties":{"label:cs":"Kříž severovýchodně od Radějovic - nenalezeno","P31":"http://www.wikidata.org/entity/?","P31^label:cs":"Nenalezena","P131^label:cs":"Přehýšov","P6736":"35384"},"geometry":{"type":"Point","coordinates":[13.07593,49.69759]}}]}