{"type":"FeatureCollection","features":[{"type":"Feature","properties":{"label:cs":"Památka jihozápadně od Čestětína - nenalezeno","P31":"http://www.wikidata.org/entity/?","P31^label:cs":"Nenalezena","P131^label:cs":"Nečtiny","P6736":"38710"},"geometry":{"type":"Point","coordinates":[13.08974,49.96741]}},{"type":"Feature","properties":{"label:cs":"Památka západně od Čestětína u hranice katastru - nenalezeno","P31":"http://www.wikidata.org/entity/?","P31^label:cs":"Nenalezena","P131^label:cs":"Nečtiny","P6736":"38694"},"geometry":{"type":"Point","coordinates":[13.08857,49.97363]}},{"type":"Feature","properties":{"label:cs":"Památka západně od Čestětína - nenalezeno","P31":"http://www.wikidata.org/entity/?","P31^label:cs":"Nenalezena","P131^label:cs":"Nečtiny","P6736":"35779"},"geometry":{"type":"Point","coordinates":[13.09076,49.9729]}},{"type":"Feature","properties":{"label:cs":"Kříž západně od Čestětína","P31":"http://www.wikidata.org/entity/Q2309609","P31^label:cs":"Pamětní kříž","P131^label:cs":"Nečtiny","P6736":"5677"},"geometry":{"type":"Point","coordinates":[13.09521,49.97304]}},{"type":"Feature","properties":{"label:cs":"Kaple svatého Floriána v Chudči - nenalezeno","P31":"http://www.wikidata.org/entity/?","P31^label:cs":"Nenalezena","P131^label:cs":"Bezvěrov","P6736":"38701"},"geometry":{"type":"Point","coordinates":[13.08199,49.97625]}},{"type":"Feature","properties":{"label:cs":"Památka severně od Chudče - nenalezeno","P31":"http://www.wikidata.org/entity/?","P31^label:cs":"Nenalezena","P131^label:cs":"Bezvěrov","P6736":"36070"},"geometry":{"type":"Point","coordinates":[13.081,49.97682]}},{"type":"Feature","properties":{"label:cs":"Památka jihozápadně od Chudče - nenalezeno","P31":"http://www.wikidata.org/entity/?","P31^label:cs":"Nenalezena","P131^label:cs":"Bezvěrov","P6736":"35890"},"geometry":{"type":"Point","coordinates":[13.07708,49.97182]}},{"type":"Feature","properties":{"label:cs":"Památka jižně od Chudče - nenalezeno","P31":"http://www.wikidata.org/entity/?","P31^label:cs":"Nenalezena","P131^label:cs":"Bezvěrov","P6736":"35883"},"geometry":{"type":"Point","coordinates":[13.08185,49.97517]}},{"type":"Feature","properties":{"label:cs":"Památka západně od Chudče - nenalezeno","P31":"http://www.wikidata.org/entity/?","P31^label:cs":"Nenalezena","P131^label:cs":"Bezvěrov","P6736":"35882"},"geometry":{"type":"Point","coordinates":[13.07487,49.9754]}},{"type":"Feature","properties":{"label:cs":"Památka západně od Chudče - nenalezeno","P31":"http://www.wikidata.org/entity/?","P31^label:cs":"Nenalezena","P131^label:cs":"Bezvěrov","P6736":"35881"},"geometry":{"type":"Point","coordinates":[13.07741,49.97526]}},{"type":"Feature","properties":{"label:cs":"Kříž v Chudči","P31":"http://www.wikidata.org/entity/Q2309609","P31^label:cs":"Pamětní kříž","P131^label:cs":"Bezvěrov","P6736":"5586"},"geometry":{"type":"Point","coordinates":[13.08192,49.97595]}}]}