{"type":"FeatureCollection","features":[{"type":"Feature","properties":{"label:cs":"Kříž pod Křížovým vrchem u cesty z Chodské Lhoty do Pocinovic","P31":"http://www.wikidata.org/entity/Q2309609","P31^label:cs":"Pamětní kříž","P131^label:cs":"Chodská Lhota","P6736":"36625"},"geometry":{"type":"Point","coordinates":[13.09908,49.35473]}},{"type":"Feature","properties":{"label:cs":"Kříž u silnice z Hluboké do Loučimi u odbočky na Pocinovice","P31":"http://www.wikidata.org/entity/Q2309609","P31^label:cs":"Pamětní kříž","P131^label:cs":"Loučim","P6736":"36732"},"geometry":{"type":"Point","coordinates":[13.10017,49.36719]}},{"type":"Feature","properties":{"label:cs":"Socha svatého Jana Nepomuckého v Loučimi","P31":"http://www.wikidata.org/entity/Q179700","P31^label:cs":"Socha","P131^label:cs":"Loučim","P6736":"36731"},"geometry":{"type":"Point","coordinates":[13.1101,49.36593]}},{"type":"Feature","properties":{"label:cs":"Kříž na návsi v Loučimi","P31":"http://www.wikidata.org/entity/Q2309609","P31^label:cs":"Pamětní kříž","P131^label:cs":"Loučim","P6736":"36730"},"geometry":{"type":"Point","coordinates":[13.1119,49.36771]}},{"type":"Feature","properties":{"label:cs":"Pomník Jana Husa v Loučimi","P31":"http://www.wikidata.org/entity/Q4989906","P31^label:cs":"Pomník","P131^label:cs":"Loučim","P6736":"36729"},"geometry":{"type":"Point","coordinates":[13.11193,49.36743]}}]}