{"type":"FeatureCollection","features":[{"type":"Feature","properties":{"label:cs":"Kříž západně od Krašova u kostela","P31":"http://www.wikidata.org/entity/Q2309609","P31^label:cs":"Pamětní kříž","P131^label:cs":"Bezvěrov","P6736":"5546"},"geometry":{"type":"Point","coordinates":[13.09575,49.99632]}},{"type":"Feature","properties":{"label:cs":"Kaple svatého Jana Nepomuckého v Krašově","P31":"http://www.wikidata.org/entity/Q108325","P31^label:cs":"Kaple","P131^label:cs":"Bezvěrov","P6736":"4514"},"geometry":{"type":"Point","coordinates":[13.09774,49.99701]}},{"type":"Feature","properties":{"label:cs":"Kříž u Krašova","P31":"http://www.wikidata.org/entity/Q2309609","P31^label:cs":"Pamětní kříž","P131^label:cs":"Bezvěrov","P6736":"1793"},"geometry":{"type":"Point","coordinates":[13.10083,49.99659]}},{"type":"Feature","properties":{"label:cs":"Kříž v Potoku u cesty ke Krašovskému mlýnu","P31":"http://www.wikidata.org/entity/Q2309609","P31^label:cs":"Pamětní kříž","P131^label:cs":"Bezvěrov","P6736":"38189"},"geometry":{"type":"Point","coordinates":[13.11726,49.99801]}},{"type":"Feature","properties":{"label:cs":"Kříž západně od Potoka - nenalezeno","P31":"http://www.wikidata.org/entity/?","P31^label:cs":"Nenalezena","P131^label:cs":"Bezvěrov","P6736":"35543"},"geometry":{"type":"Point","coordinates":[13.10962,49.9973]}},{"type":"Feature","properties":{"label:cs":"Kaple svatého Jana Nepomuckého v Potoku","P31":"http://www.wikidata.org/entity/Q108325","P31^label:cs":"Kaple","P131^label:cs":"Bezvěrov","P6736":"4515"},"geometry":{"type":"Point","coordinates":[13.11669,49.99871]}},{"type":"Feature","properties":{"label:cs":"Kříž severovýchodně od Krašova - nenalezeno","P31":"http://www.wikidata.org/entity/?","P31^label:cs":"Nenalezena","P131^label:cs":"Bezvěrov","P6736":"35214"},"geometry":{"type":"Point","coordinates":[13.10534,50.00349]}}]}