{"type":"FeatureCollection","features":[{"type":"Feature","properties":{"label:cs":"Kříž nad Hradcem","P31":"http://www.wikidata.org/entity/Q2309609","P31^label:cs":"Pamětní kříž","P131^label:cs":"Hradec","P6736":"3955"},"geometry":{"type":"Point","coordinates":[13.11532,49.63318]}},{"type":"Feature","properties":{"label:cs":"Památník v Lisově","P31":"http://www.wikidata.org/entity/Q5003624","P31^label:cs":"Památník","P131^label:cs":"Lisov","P6736":"3958"},"geometry":{"type":"Point","coordinates":[13.10157,49.63846]}},{"type":"Feature","properties":{"label:cs":"Kaple v Lisově","P31":"http://www.wikidata.org/entity/Q108325","P31^label:cs":"Kaple","P131^label:cs":"Lisov","P6736":"3957"},"geometry":{"type":"Point","coordinates":[13.10145,49.63848]}},{"type":"Feature","properties":{"label:cs":"Kříž v Lisově","P31":"http://www.wikidata.org/entity/Q2309609","P31^label:cs":"Pamětní kříž","P131^label:cs":"Lisov","P6736":"3956"},"geometry":{"type":"Point","coordinates":[13.10115,49.6383]}},{"type":"Feature","properties":{"label:cs":"Kříž mezi Lisovem a Hradcem u Stodu","P31":"http://www.wikidata.org/entity/Q2309609","P31^label:cs":"Pamětní kříž","P131^label:cs":"Lisov","P6736":"1953"},"geometry":{"type":"Point","coordinates":[13.11257,49.63742]}},{"type":"Feature","properties":{"label:cs":"Kříž jihovýchodně od Lisova","P31":"http://www.wikidata.org/entity/Q2309609","P31^label:cs":"Pamětní kříž","P131^label:cs":"Lisov","P6736":"1952"},"geometry":{"type":"Point","coordinates":[13.10542,49.63572]}},{"type":"Feature","properties":{"label:cs":"Kříž nad Lisovem","P31":"http://www.wikidata.org/entity/Q2309609","P31^label:cs":"Pamětní kříž","P131^label:cs":"Lisov","P6736":"1951"},"geometry":{"type":"Point","coordinates":[13.0991,49.63447]}}]}