{"type":"FeatureCollection","features":[{"type":"Feature","properties":{"label:cs":"Památka v Březíně u křižovatky - nenalezeno","P31":"http://www.wikidata.org/entity/?","P31^label:cs":"Nenalezena","P131^label:cs":"Nečtiny","P6736":"38678"},"geometry":{"type":"Point","coordinates":[13.1321,49.96284]}},{"type":"Feature","properties":{"label:cs":"Památka severozápadně od Březína u Březínského potoka - nenalezeno","P31":"http://www.wikidata.org/entity/?","P31^label:cs":"Nenalezena","P131^label:cs":"Nečtiny","P6736":"36062"},"geometry":{"type":"Point","coordinates":[13.12375,49.9638]}},{"type":"Feature","properties":{"label:cs":"Kříž západně od Březína - nenalezeno","P31":"http://www.wikidata.org/entity/?","P31^label:cs":"Nenalezena","P131^label:cs":"Nečtiny","P6736":"36061"},"geometry":{"type":"Point","coordinates":[13.1197,49.956]}},{"type":"Feature","properties":{"label:cs":"Kříž jihovýchodně od Březína - nenalezeno","P31":"http://www.wikidata.org/entity/?","P31^label:cs":"Nenalezena","P131^label:cs":"Nečtiny","P6736":"35459"},"geometry":{"type":"Point","coordinates":[13.13771,49.95636]}},{"type":"Feature","properties":{"label:cs":"Památka jižně od Březína - nenalezeno","P31":"http://www.wikidata.org/entity/?","P31^label:cs":"Nenalezena","P131^label:cs":"Nečtiny","P6736":"35458"},"geometry":{"type":"Point","coordinates":[13.13598,49.95236]}},{"type":"Feature","properties":{"label:cs":"Zvonička v Březíně","P31":"http://www.wikidata.org/entity/Q10861631","P31^label:cs":"Zvonička","P131^label:cs":"Nečtiny","P6736":"10284"},"geometry":{"type":"Point","coordinates":[13.13367,49.96229]}},{"type":"Feature","properties":{"label:cs":"Plastika v Březíně na návsi","P31":"http://www.wikidata.org/entity/Q12045520","P31^label:cs":"Plastika","P131^label:cs":"Nečtiny","P6736":"7843"},"geometry":{"type":"Point","coordinates":[13.13451,49.9622]}},{"type":"Feature","properties":{"label:cs":"Plastika u křižovatky v Březíně","P31":"http://www.wikidata.org/entity/Q12045520","P31^label:cs":"Plastika","P131^label:cs":"Nečtiny","P6736":"7842"},"geometry":{"type":"Point","coordinates":[13.13431,49.96201]}},{"type":"Feature","properties":{"label:cs":"Novomlýnský kříž jihozápadně od Březína","P31":"http://www.wikidata.org/entity/Q2309609","P31^label:cs":"Pamětní kříž","P131^label:cs":"Nečtiny","P6736":"3481"},"geometry":{"type":"Point","coordinates":[13.12304,49.95792]}},{"type":"Feature","properties":{"label:cs":"Bitnerův Kříž západně od Březína","P31":"http://www.wikidata.org/entity/Q2309609","P31^label:cs":"Pamětní kříž","P131^label:cs":"Nečtiny","P6736":"1279"},"geometry":{"type":"Point","coordinates":[13.12541,49.95921]}}]}