{"type":"FeatureCollection","features":[{"type":"Feature","properties":{"label:cs":"Kříž západně od Džbánu - nenalezeno","P31":"http://www.wikidata.org/entity/?","P31^label:cs":"Nenalezena","P131^label:cs":"Úněšov","P6736":"35290"},"geometry":{"type":"Point","coordinates":[13.13832,49.91104]}},{"type":"Feature","properties":{"label:cs":"Památka u Melchiorovy Huti - nenalezeno","P31":"http://www.wikidata.org/entity/?","P31^label:cs":"Nenalezena","P131^label:cs":"Úněšov","P6736":"38732"},"geometry":{"type":"Point","coordinates":[13.12946,49.92124]}},{"type":"Feature","properties":{"label:cs":"Kříž v Melchiorově Huti u zahrady","P31":"http://www.wikidata.org/entity/Q2309609","P31^label:cs":"Pamětní kříž","P131^label:cs":"Úněšov","P6736":"10131"},"geometry":{"type":"Point","coordinates":[13.13037,49.92149]}},{"type":"Feature","properties":{"label:cs":"Kříž v Melchiorově Huti u budovy","P31":"http://www.wikidata.org/entity/Q2309609","P31^label:cs":"Pamětní kříž","P131^label:cs":"Úněšov","P6736":"10130"},"geometry":{"type":"Point","coordinates":[13.1302,49.92146]}},{"type":"Feature","properties":{"label:cs":"Boží muka u Melchiorovy Hutě","P31":"http://www.wikidata.org/entity/Q3395121","P31^label:cs":"Boží muka","P131^label:cs":"Úněšov","P6736":"3351"},"geometry":{"type":"Point","coordinates":[13.13254,49.92059]}}]}