{"type":"FeatureCollection","features":[{"type":"Feature","properties":{"label:cs":"Kříž jihovýchodně od Potoka - nenalezeno","P31":"http://www.wikidata.org/entity/?","P31^label:cs":"Nenalezena","P131^label:cs":"Bezvěrov","P6736":"35542"},"geometry":{"type":"Point","coordinates":[13.12979,49.99648]}},{"type":"Feature","properties":{"label:cs":"Kříž východně od Potoka - nenalezeno","P31":"http://www.wikidata.org/entity/?","P31^label:cs":"Nenalezena","P131^label:cs":"Bezvěrov","P6736":"35541"},"geometry":{"type":"Point","coordinates":[13.12358,49.99893]}},{"type":"Feature","properties":{"label:cs":"Kříž jihovýchodně od Vlkošova u potoka","P31":"http://www.wikidata.org/entity/Q2309609","P31^label:cs":"Pamětní kříž","P131^label:cs":"Bezvěrov","P6736":"5559"},"geometry":{"type":"Point","coordinates":[13.12071,50.00473]}},{"type":"Feature","properties":{"label:cs":"Kříž jihovýchodně od Vlkošova u okraje lesa","P31":"http://www.wikidata.org/entity/Q2309609","P31^label:cs":"Pamětní kříž","P131^label:cs":"Bezvěrov","P6736":"38764"},"geometry":{"type":"Point","coordinates":[13.11904,50.00542]}},{"type":"Feature","properties":{"label:cs":"Památka východně od Potoka - nenalezeno","P31":"http://www.wikidata.org/entity/?","P31^label:cs":"Nenalezena","P131^label:cs":"Manětín","P6736":"38813"},"geometry":{"type":"Point","coordinates":[13.1254,50.00068]}},{"type":"Feature","properties":{"label:cs":"Památka ve Zhořci - nenalezeno","P31":"http://www.wikidata.org/entity/?","P31^label:cs":"Nenalezena","P131^label:cs":"Manětín","P6736":"36116"},"geometry":{"type":"Point","coordinates":[13.13885,50.00713]}}]}