{"type":"FeatureCollection","features":[{"type":"Feature","properties":{"label:cs":"Smírčí kříž na rozcestí severozápadně od Černýše","P31":"http://www.wikidata.org/entity/Q1640496","P31^label:cs":"Smírčí kříž","P131^label:cs":"Perštejn","P6736":"24027"},"geometry":{"type":"Point","coordinates":[13.12008,50.37109]}},{"type":"Feature","properties":{"label:cs":"Kříž na rozcestí severozápadně od Černýše","P31":"http://www.wikidata.org/entity/Q2309609","P31^label:cs":"Pamětní kříž","P131^label:cs":"Perštejn","P6736":"24026"},"geometry":{"type":"Point","coordinates":[13.1201,50.37109]}},{"type":"Feature","properties":{"label:cs":"Pomník nejasného účelu v západní části Černýše","P31":"http://www.wikidata.org/entity/Q4989906","P31^label:cs":"Pomník","P131^label:cs":"Perštejn","P6736":"24025"},"geometry":{"type":"Point","coordinates":[13.12102,50.36953]}},{"type":"Feature","properties":{"label:cs":"Kaple v Černýši","P31":"http://www.wikidata.org/entity/Q108325","P31^label:cs":"Kaple","P131^label:cs":"Perštejn","P6736":"24024"},"geometry":{"type":"Point","coordinates":[13.1245,50.36954]}},{"type":"Feature","properties":{"label:cs":"Smírčí kříž na pastvině severně od Černýše","P31":"http://www.wikidata.org/entity/Q1640496","P31^label:cs":"Smírčí kříž","P131^label:cs":"Perštejn","P6736":"24023"},"geometry":{"type":"Point","coordinates":[13.12666,50.37318]}}]}