{"type":"FeatureCollection","features":[{"type":"Feature","properties":{"label:cs":"Kříž severně od Přehýšova","P31":"http://www.wikidata.org/entity/Q2309609","P31^label:cs":"Pamětní kříž","P131^label:cs":"Přehýšov","P6736":"4673"},"geometry":{"type":"Point","coordinates":[13.13403,49.70446]}},{"type":"Feature","properties":{"label:cs":"Kříž u kaple v Přehýšově","P31":"http://www.wikidata.org/entity/Q2309609","P31^label:cs":"Pamětní kříž","P131^label:cs":"Přehýšov","P6736":"4674"},"geometry":{"type":"Point","coordinates":[13.12601,49.70293]}},{"type":"Feature","properties":{"label:cs":"Kříž západně od Přehýšova I","P31":"http://www.wikidata.org/entity/Q2309609","P31^label:cs":"Pamětní kříž","P131^label:cs":"Přehýšov","P6736":"4675"},"geometry":{"type":"Point","coordinates":[13.12033,49.70517]}},{"type":"Feature","properties":{"label:cs":"Boží muka západně od Přehýšova","P31":"http://www.wikidata.org/entity/Q3395121","P31^label:cs":"Boží muka","P131^label:cs":"Přehýšov","P6736":"4676"},"geometry":{"type":"Point","coordinates":[13.12035,49.70517]}},{"type":"Feature","properties":{"label:cs":"Kříž západně od Přehýšova III","P31":"http://www.wikidata.org/entity/Q2309609","P31^label:cs":"Pamětní kříž","P131^label:cs":"Přehýšov","P6736":"4677"},"geometry":{"type":"Point","coordinates":[13.12038,49.70517]}},{"type":"Feature","properties":{"label:cs":"Kříž jižně od Přehýšova","P31":"http://www.wikidata.org/entity/Q2309609","P31^label:cs":"Pamětní kříž","P131^label:cs":"Přehýšov","P6736":"6174"},"geometry":{"type":"Point","coordinates":[13.1221,49.69617]}},{"type":"Feature","properties":{"label:cs":"Kaple v Přehýšově","P31":"http://www.wikidata.org/entity/Q108325","P31^label:cs":"Kaple","P131^label:cs":"Přehýšov","P6736":"6175"},"geometry":{"type":"Point","coordinates":[13.12615,49.70285]}},{"type":"Feature","properties":{"label:cs":"Kříž v Přehýšova u křižovatky","P31":"http://www.wikidata.org/entity/Q2309609","P31^label:cs":"Pamětní kříž","P131^label:cs":"Přehýšov","P6736":"6176"},"geometry":{"type":"Point","coordinates":[13.12473,49.70332]}},{"type":"Feature","properties":{"label:cs":"Památník v Přehýšově","P31":"http://www.wikidata.org/entity/Q5003624","P31^label:cs":"Památník","P131^label:cs":"Přehýšov","P6736":"6177"},"geometry":{"type":"Point","coordinates":[13.12357,49.70343]}},{"type":"Feature","properties":{"label:cs":"Pomník severozápadně od Přehýšova","P31":"http://www.wikidata.org/entity/Q4989906","P31^label:cs":"Pomník","P131^label:cs":"Přehýšov","P6736":"8803"},"geometry":{"type":"Point","coordinates":[13.12512,49.70482]}},{"type":"Feature","properties":{"label:cs":"Pomník v Přehýšově na návsi","P31":"http://www.wikidata.org/entity/Q4989906","P31^label:cs":"Pomník","P131^label:cs":"Přehýšov","P6736":"8802"},"geometry":{"type":"Point","coordinates":[13.12871,49.70189]}}]}