{"type":"FeatureCollection","features":[{"type":"Feature","properties":{"label:cs":"Pamětní deska rodu Linhartů v Hradci u Stoda","P31":"Q721747","P31^label:cs":"Pamětní deska","P131^label:cs":"Hradec","P6736":"14851"},"geometry":{"type":"Point","coordinates":[13.12219,49.63551]}},{"type":"Feature","properties":{"label:cs":"Podstavec u kostela v Hradci","P31":"?","P31^label:cs":"Neznámý","P131^label:cs":"Hradec","P6736":"3960"},"geometry":{"type":"Point","coordinates":[13.12118,49.6359]}},{"type":"Feature","properties":{"label:cs":"Kříž u kostela v Hradci","P31":"Q2309609","P31^label:cs":"Pamětní kříž","P131^label:cs":"Hradec","P6736":"3959"},"geometry":{"type":"Point","coordinates":[13.12136,49.63598]}},{"type":"Feature","properties":{"label:cs":"Kříž v Hradci","P31":"Q2309609","P31^label:cs":"Pamětní kříž","P131^label:cs":"Hradec","P6736":"3954"},"geometry":{"type":"Point","coordinates":[13.12026,49.63433]}},{"type":"Feature","properties":{"label:cs":"Kaplička ve Střelicích","P31":"Q14552192","P31^label:cs":"Kaplička","P131^label:cs":"Střelice","P6736":"3952"},"geometry":{"type":"Point","coordinates":[13.13366,49.63089]}},{"type":"Feature","properties":{"label:cs":"Kaplička v Hradci","P31":"Q14552192","P31^label:cs":"Kaplička","P131^label:cs":"Hradec","P6736":"3953"},"geometry":{"type":"Point","coordinates":[13.12094,49.63448]}},{"type":"Feature","properties":{"label:cs":"Kaple ve Střelicích","P31":"Q108325","P31^label:cs":"Kaple","P131^label:cs":"Střelice","P6736":"3951"},"geometry":{"type":"Point","coordinates":[13.1349,49.63057]}},{"type":"Feature","properties":{"label:cs":"Kříž ve Střelicích","P31":"Q2309609","P31^label:cs":"Pamětní kříž","P131^label:cs":"Střelice","P6736":"3950"},"geometry":{"type":"Point","coordinates":[13.1342,49.62909]}},{"type":"Feature","properties":{"label:cs":"Kříž jižně od Střelic u silnice","P31":"Q2309609","P31^label:cs":"Pamětní kříž","P131^label:cs":"Střelice","P6736":"2568"},"geometry":{"type":"Point","coordinates":[13.13403,49.62773]}},{"type":"Feature","properties":{"label:cs":"Kříž u okraje pole u Střelic","P31":"Q2309609","P31^label:cs":"Pamětní kříž","P131^label:cs":"Střelice","P6736":"2567"},"geometry":{"type":"Point","coordinates":[13.13913,49.62885]}},{"type":"Feature","properties":{"label:cs":"Kříž mezi Hradcem u Stodu a Stodem","P31":"Q2309609","P31^label:cs":"Pamětní kříž","P131^label:cs":"Hradec","P6736":"1583"},"geometry":{"type":"Point","coordinates":[13.13202,49.63769]}}]}