{"type":"FeatureCollection","features":[{"type":"Feature","properties":{"label:cs":"Siemerův kříž u Verušic","P31":"http://www.wikidata.org/entity/Q2309609","P31^label:cs":"Pamětní kříž","P131^label:cs":"Žlutice","P6736":"28100"},"geometry":{"type":"Point","coordinates":[13.13564,50.09799]}},{"type":"Feature","properties":{"label:cs":"Kaple svatého Mikuláše ve Verušicích","P31":"http://www.wikidata.org/entity/Q108325","P31^label:cs":"Kaple","P131^label:cs":"Žlutice","P6736":"28099"},"geometry":{"type":"Point","coordinates":[13.13404,50.09576]}},{"type":"Feature","properties":{"label:cs":"Kříž na jižním okraji Verušic","P31":"http://www.wikidata.org/entity/Q2309609","P31^label:cs":"Pamětní kříž","P131^label:cs":"Žlutice","P6736":"28098"},"geometry":{"type":"Point","coordinates":[13.13501,50.09451]}},{"type":"Feature","properties":{"label:cs":"Sousoší Nejsvětější Trojice ve Verušicích","P31":"http://www.wikidata.org/entity/Q179700","P31^label:cs":"Socha","P131^label:cs":"Žlutice","P6736":"28096"},"geometry":{"type":"Point","coordinates":[13.13399,50.09611]}},{"type":"Feature","properties":{"label:cs":"Tuchtova kaple ve Verušicích","P31":"http://www.wikidata.org/entity/Q14552192","P31^label:cs":"Kaplička","P131^label:cs":"Žlutice","P6736":"28095"},"geometry":{"type":"Point","coordinates":[13.13392,50.0974]}},{"type":"Feature","properties":{"label:cs":"Kunzova muka severozápadně od Žlutic","P31":"http://www.wikidata.org/entity/Q3395121","P31^label:cs":"Boží muka","P131^label:cs":"Žlutice","P6736":"28090"},"geometry":{"type":"Point","coordinates":[13.13874,50.09966]}}]}