{"type":"FeatureCollection","features":[{"type":"Feature","properties":{"label:cs":"Památka severozápadně od Přehýšova - nenalezeno","P31":"http://www.wikidata.org/entity/?","P31^label:cs":"Nenalezena","P131^label:cs":"Přehýšov","P6736":"38744"},"geometry":{"type":"Point","coordinates":[13.1251,49.70468]}},{"type":"Feature","properties":{"label:cs":"Kříž jihovýchodně od Přehýšova","P31":"http://www.wikidata.org/entity/Q2309609","P31^label:cs":"Pamětní kříž","P131^label:cs":"Přehýšov","P6736":"36158"},"geometry":{"type":"Point","coordinates":[13.13069,49.69872]}},{"type":"Feature","properties":{"label:cs":"Kříž severně od Přehýšova u rybníků - nenalezeno","P31":"http://www.wikidata.org/entity/?","P31^label:cs":"Nenalezena","P131^label:cs":"Přehýšov","P6736":"35450"},"geometry":{"type":"Point","coordinates":[13.13247,49.70892]}},{"type":"Feature","properties":{"label:cs":"Kříž jižně od Přehýšova - nenalezeno","P31":"http://www.wikidata.org/entity/?","P31^label:cs":"Nenalezena","P131^label:cs":"Přehýšov","P6736":"35398"},"geometry":{"type":"Point","coordinates":[13.12288,49.69883]}},{"type":"Feature","properties":{"label:cs":"Památka východně od Přehýšova - nenalezeno","P31":"http://www.wikidata.org/entity/?","P31^label:cs":"Nenalezena","P131^label:cs":"Přehýšov","P6736":"35395"},"geometry":{"type":"Point","coordinates":[13.13343,49.70124]}},{"type":"Feature","properties":{"label:cs":"Pomník severozápadně od Přehýšova","P31":"http://www.wikidata.org/entity/Q4989906","P31^label:cs":"Pomník","P131^label:cs":"Přehýšov","P6736":"8803"},"geometry":{"type":"Point","coordinates":[13.12512,49.70482]}},{"type":"Feature","properties":{"label:cs":"Pomník v Přehýšově na návsi","P31":"http://www.wikidata.org/entity/Q4989906","P31^label:cs":"Pomník","P131^label:cs":"Přehýšov","P6736":"8802"},"geometry":{"type":"Point","coordinates":[13.12871,49.70189]}},{"type":"Feature","properties":{"label:cs":"Památník výročí založení obce v Přehýšově","P31":"http://www.wikidata.org/entity/Q5003624","P31^label:cs":"Památník","P131^label:cs":"Přehýšov","P6736":"6177"},"geometry":{"type":"Point","coordinates":[13.12357,49.70343]}},{"type":"Feature","properties":{"label:cs":"Kříž v Přehýšova u křižovatky","P31":"http://www.wikidata.org/entity/Q2309609","P31^label:cs":"Pamětní kříž","P131^label:cs":"Přehýšov","P6736":"6176"},"geometry":{"type":"Point","coordinates":[13.12473,49.70332]}},{"type":"Feature","properties":{"label:cs":"Kaple Navštívení Panny Marie v Přehýšově","P31":"http://www.wikidata.org/entity/Q108325","P31^label:cs":"Kaple","P131^label:cs":"Přehýšov","P6736":"6175"},"geometry":{"type":"Point","coordinates":[13.12615,49.70285]}},{"type":"Feature","properties":{"label:cs":"Kříž jižně od Přehýšova","P31":"http://www.wikidata.org/entity/Q2309609","P31^label:cs":"Pamětní kříž","P131^label:cs":"Přehýšov","P6736":"6174"},"geometry":{"type":"Point","coordinates":[13.1221,49.69617]}},{"type":"Feature","properties":{"label:cs":"Sousoší kalvárie u Přehýšova","P31":"http://www.wikidata.org/entity/Q179700","P31^label:cs":"Socha","P131^label:cs":"Přehýšov","P6736":"4676"},"geometry":{"type":"Point","coordinates":[13.12035,49.70517]}},{"type":"Feature","properties":{"label:cs":"Kříž u kaple v Přehýšově","P31":"http://www.wikidata.org/entity/Q2309609","P31^label:cs":"Pamětní kříž","P131^label:cs":"Přehýšov","P6736":"4674"},"geometry":{"type":"Point","coordinates":[13.12601,49.70293]}},{"type":"Feature","properties":{"label:cs":"Kříž severně od Přehýšova","P31":"http://www.wikidata.org/entity/Q2309609","P31^label:cs":"Pamětní kříž","P131^label:cs":"Přehýšov","P6736":"4673"},"geometry":{"type":"Point","coordinates":[13.13403,49.70446]}}]}