{"type":"FeatureCollection","features":[{"type":"Feature","properties":{"label:cs":"Kříž v Luhově","P31":"Q2309609","P31^label:cs":"Pamětní kříž","P131^label:cs":"Líšťany","P6736":"4184"},"geometry":{"type":"Point","coordinates":[13.1446,49.81463]}},{"type":"Feature","properties":{"label:cs":"Památník v Luhově","P31":"Q5003624","P31^label:cs":"Památník","P131^label:cs":"Líšťany","P6736":"4183"},"geometry":{"type":"Point","coordinates":[13.14412,49.81486]}},{"type":"Feature","properties":{"label:cs":"Zvonička v Luhově","P31":"Q10861631","P31^label:cs":"Zvonička","P131^label:cs":"Líšťany","P6736":"4182"},"geometry":{"type":"Point","coordinates":[13.14441,49.81386]}},{"type":"Feature","properties":{"label:cs":"Sochy římských vojáků u Luhova","P31":"Q179700","P31^label:cs":"Socha","P131^label:cs":"Líšťany","P6736":"4181"},"geometry":{"type":"Point","coordinates":[13.14508,49.81284]}},{"type":"Feature","properties":{"label:cs":"Kaplička u Třebobuzi na rozcestí","P31":"Q14552192","P31^label:cs":"Kaplička","P131^label:cs":"Líšťany","P6736":"2675"},"geometry":{"type":"Point","coordinates":[13.15779,49.81877]}},{"type":"Feature","properties":{"label:cs":"Socha svatého Jana Nepomuckého u Luhova","P31":"Q179700","P31^label:cs":"Socha","P131^label:cs":"Líšťany","P6736":"1988"},"geometry":{"type":"Point","coordinates":[13.1497,49.81543]}}]}