{"type":"FeatureCollection","features":[{"type":"Feature","properties":{"label:cs":"Památník veteránů východně od Jezné","P31":"http://www.wikidata.org/entity/Q5003624","P31^label:cs":"Památník","P131^label:cs":"Úlice","P6736":"8816"},"geometry":{"type":"Point","coordinates":[13.1471,49.77386]}},{"type":"Feature","properties":{"label:cs":"Pomník pochodu smrti u Jezné","P31":"http://www.wikidata.org/entity/Q5003624","P31^label:cs":"Památník","P131^label:cs":"Úlice","P6736":"8815"},"geometry":{"type":"Point","coordinates":[13.14715,49.77397]}},{"type":"Feature","properties":{"label:cs":"Obrázek u Jezné","P31":"http://www.wikidata.org/entity/Q478798","P31^label:cs":"Obrázek","P131^label:cs":"Úlice","P6736":"8016"},"geometry":{"type":"Point","coordinates":[13.14568,49.77419]}},{"type":"Feature","properties":{"label:cs":"Kříž u kostela v Jezné","P31":"http://www.wikidata.org/entity/Q2309609","P31^label:cs":"Pamětní kříž","P131^label:cs":"Úlice","P6736":"8014"},"geometry":{"type":"Point","coordinates":[13.1443,49.77449]}},{"type":"Feature","properties":{"label:cs":"Kříž východně od Jezné","P31":"http://www.wikidata.org/entity/Q2309609","P31^label:cs":"Pamětní kříž","P131^label:cs":"Úlice","P6736":"7506"},"geometry":{"type":"Point","coordinates":[13.14678,49.77396]}},{"type":"Feature","properties":{"label:cs":"Kaplička u Jezné","P31":"http://www.wikidata.org/entity/Q14552192","P31^label:cs":"Kaplička","P131^label:cs":"Úlice","P6736":"2710"},"geometry":{"type":"Point","coordinates":[13.1453,49.7741]}},{"type":"Feature","properties":{"label:cs":"Kříž východně od Jezné","P31":"http://www.wikidata.org/entity/Q2309609","P31^label:cs":"Pamětní kříž","P131^label:cs":"Úlice","P6736":"2709"},"geometry":{"type":"Point","coordinates":[13.14639,49.77363]}},{"type":"Feature","properties":{"label:cs":"Kaplička nad Jeznou","P31":"http://www.wikidata.org/entity/Q14552192","P31^label:cs":"Kaplička","P131^label:cs":"Pňovany","P6736":"1398"},"geometry":{"type":"Point","coordinates":[13.14309,49.77985]}}]}