{"type":"FeatureCollection","features":[{"type":"Feature","properties":{"label:cs":"Zámecká kaple v Luhově","P31":"http://www.wikidata.org/entity/Q108325","P31^label:cs":"Kaple","P131^label:cs":"Líšťany","P6736":"40533"},"geometry":{"type":"Point","coordinates":[13.14452,49.81318]}},{"type":"Feature","properties":{"label:cs":"Památka východně od Luhova - nenalezeno","P31":"http://www.wikidata.org/entity/?","P31^label:cs":"Nenalezena","P131^label:cs":"Líšťany","P6736":"40532"},"geometry":{"type":"Point","coordinates":[13.14594,49.81492]}},{"type":"Feature","properties":{"label:cs":"Socha svatého Antonína Paduánského u zámku v Luhově","P31":"http://www.wikidata.org/entity/Q179700","P31^label:cs":"Socha","P131^label:cs":"Líšťany","P6736":"40531"},"geometry":{"type":"Point","coordinates":[13.14487,49.81283]}},{"type":"Feature","properties":{"label:cs":"Socha svatého Antonína poustevníka u zámku v Luhově","P31":"http://www.wikidata.org/entity/Q179700","P31^label:cs":"Socha","P131^label:cs":"Líšťany","P6736":"40530"},"geometry":{"type":"Point","coordinates":[13.14489,49.81277]}},{"type":"Feature","properties":{"label:cs":"Socha svaté Anny samotřetí jižně od Luhova - nenalezeno","P31":"http://www.wikidata.org/entity/?","P31^label:cs":"Nenalezena","P131^label:cs":"Líšťany","P6736":"40529"},"geometry":{"type":"Point","coordinates":[13.14514,49.81178]}},{"type":"Feature","properties":{"label:cs":"Kříž v západní části Luhova","P31":"http://www.wikidata.org/entity/Q2309609","P31^label:cs":"Pamětní kříž","P131^label:cs":"Líšťany","P6736":"34987"},"geometry":{"type":"Point","coordinates":[13.14031,49.81404]}},{"type":"Feature","properties":{"label:cs":"Kříž v Luhově","P31":"http://www.wikidata.org/entity/Q2309609","P31^label:cs":"Pamětní kříž","P131^label:cs":"Líšťany","P6736":"4184"},"geometry":{"type":"Point","coordinates":[13.1446,49.81463]}},{"type":"Feature","properties":{"label:cs":"Památník první písemné zmínky o sídle v Luhově","P31":"http://www.wikidata.org/entity/Q5003624","P31^label:cs":"Památník","P131^label:cs":"Líšťany","P6736":"4183"},"geometry":{"type":"Point","coordinates":[13.14412,49.81486]}},{"type":"Feature","properties":{"label:cs":"Zvonička v Luhově","P31":"http://www.wikidata.org/entity/Q10861631","P31^label:cs":"Zvonička","P131^label:cs":"Líšťany","P6736":"4182"},"geometry":{"type":"Point","coordinates":[13.14441,49.81386]}},{"type":"Feature","properties":{"label:cs":"Sochy římských vojáků u Luhova","P31":"http://www.wikidata.org/entity/Q179700","P31^label:cs":"Socha","P131^label:cs":"Líšťany","P6736":"4181"},"geometry":{"type":"Point","coordinates":[13.14508,49.81284]}},{"type":"Feature","properties":{"label:cs":"Socha svatého Jana Nepomuckého u Luhova","P31":"http://www.wikidata.org/entity/Q179700","P31^label:cs":"Socha","P131^label:cs":"Líšťany","P6736":"1988"},"geometry":{"type":"Point","coordinates":[13.1496,49.8154]}},{"type":"Feature","properties":{"label:cs":"Kaplička u Třebobuzi na rozcestí","P31":"http://www.wikidata.org/entity/Q14552192","P31^label:cs":"Kaplička","P131^label:cs":"Líšťany","P6736":"2675"},"geometry":{"type":"Point","coordinates":[13.15779,49.81877]}}]}