{"type":"FeatureCollection","features":[{"type":"Feature","properties":{"label:cs":"Kříž na farním dvoře v Lukách","P31":"http://www.wikidata.org/entity/Q2309609","P31^label:cs":"Pamětní kříž","P131^label:cs":"Verušičky","P6736":"29658"},"geometry":{"type":"Point","coordinates":[13.14983,50.1554]}},{"type":"Feature","properties":{"label:cs":"Kovový kříž u kostela v Lukách","P31":"http://www.wikidata.org/entity/Q2309609","P31^label:cs":"Pamětní kříž","P131^label:cs":"Verušičky","P6736":"29657"},"geometry":{"type":"Point","coordinates":[13.15047,50.15574]}},{"type":"Feature","properties":{"label:cs":"Dřevěný kříž u kostela v Lukách","P31":"http://www.wikidata.org/entity/Q2309609","P31^label:cs":"Pamětní kříž","P131^label:cs":"Verušičky","P6736":"29656"},"geometry":{"type":"Point","coordinates":[13.15064,50.15577]}},{"type":"Feature","properties":{"label:cs":"Kaple svaté Anny na hřbitově v Lukách","P31":"http://www.wikidata.org/entity/Q108325","P31^label:cs":"Kaple","P131^label:cs":"Verušičky","P6736":"29577"},"geometry":{"type":"Point","coordinates":[13.1482,50.15258]}},{"type":"Feature","properties":{"label:cs":"Socha Panny Marie na návsi v Lukách","P31":"http://www.wikidata.org/entity/Q179700","P31^label:cs":"Socha","P131^label:cs":"Verušičky","P6736":"29576"},"geometry":{"type":"Point","coordinates":[13.15052,50.15558]}},{"type":"Feature","properties":{"label:cs":"Pomník padlým v Lukách","P31":"http://www.wikidata.org/entity/Q575759","P31^label:cs":"Pomník padlým","P131^label:cs":"Verušičky","P6736":"29575"},"geometry":{"type":"Point","coordinates":[13.15085,50.15589]}}]}