{"type":"FeatureCollection","features":[{"type":"Feature","properties":{"label:cs":"Kaplička nad Jeznou","P31":"http://www.wikidata.org/entity/Q14552192","P31^label:cs":"Kaplička","P131^label:cs":"Pňovany","P6736":"1398"},"geometry":{"type":"Point","coordinates":[13.14309,49.77985]}},{"type":"Feature","properties":{"label:cs":"Památka jižně od Hracholusk - nenalezeno","P31":"http://www.wikidata.org/entity/?","P31^label:cs":"Nenalezena","P131^label:cs":"Úlice","P6736":"38957"},"geometry":{"type":"Point","coordinates":[13.15963,49.77851]}},{"type":"Feature","properties":{"label:cs":"Boží muka jihovýchodně od Jezné - nenalezeno","P31":"http://www.wikidata.org/entity/?","P31^label:cs":"Nenalezena","P131^label:cs":"Úlice","P6736":"35316"},"geometry":{"type":"Point","coordinates":[13.15299,49.76908]}},{"type":"Feature","properties":{"label:cs":"Kříž východně od Jezné - nenalezeno","P31":"http://www.wikidata.org/entity/?","P31^label:cs":"Nenalezena","P131^label:cs":"Úlice","P6736":"35315"},"geometry":{"type":"Point","coordinates":[13.15586,49.77436]}},{"type":"Feature","properties":{"label:cs":"Kříž u Jezné - nenalezeno","P31":"http://www.wikidata.org/entity/?","P31^label:cs":"Nenalezena","P131^label:cs":"Úlice","P6736":"35314"},"geometry":{"type":"Point","coordinates":[13.14293,49.77464]}},{"type":"Feature","properties":{"label:cs":"Památník veteránů východně od Jezné","P31":"http://www.wikidata.org/entity/Q5003624","P31^label:cs":"Památník","P131^label:cs":"Úlice","P6736":"8816"},"geometry":{"type":"Point","coordinates":[13.1471,49.77386]}},{"type":"Feature","properties":{"label:cs":"Pomník obětem pochodu smrti u Jezné","P31":"http://www.wikidata.org/entity/Q5003624","P31^label:cs":"Památník","P131^label:cs":"Úlice","P6736":"8815"},"geometry":{"type":"Point","coordinates":[13.14715,49.77397]}},{"type":"Feature","properties":{"label:cs":"Obrázek u Jezné","P31":"http://www.wikidata.org/entity/Q478798","P31^label:cs":"Obrázek","P131^label:cs":"Úlice","P6736":"8016"},"geometry":{"type":"Point","coordinates":[13.14568,49.77419]}},{"type":"Feature","properties":{"label:cs":"Kříž u kostela v Jezné","P31":"http://www.wikidata.org/entity/Q2309609","P31^label:cs":"Pamětní kříž","P131^label:cs":"Úlice","P6736":"8014"},"geometry":{"type":"Point","coordinates":[13.1443,49.77449]}},{"type":"Feature","properties":{"label:cs":"Kaplička u Jezné","P31":"http://www.wikidata.org/entity/Q14552192","P31^label:cs":"Kaplička","P131^label:cs":"Úlice","P6736":"2710"},"geometry":{"type":"Point","coordinates":[13.1453,49.7741]}},{"type":"Feature","properties":{"label:cs":"Kříž východně od Jezné","P31":"http://www.wikidata.org/entity/Q2309609","P31^label:cs":"Pamětní kříž","P131^label:cs":"Úlice","P6736":"2709"},"geometry":{"type":"Point","coordinates":[13.14633,49.77365]}}]}