{"type":"FeatureCollection","features":[{"type":"Feature","properties":{"label:cs":"Socha svatého Jana Nepomuckého v Hradu Nečtiny v zahradě","P31":"http://www.wikidata.org/entity/Q179700","P31^label:cs":"Socha","P131^label:cs":"Nečtiny","P6736":"10275"},"geometry":{"type":"Point","coordinates":[13.15757,49.95892]}},{"type":"Feature","properties":{"label:cs":"Kaplička u zámku Nečtiny","P31":"http://www.wikidata.org/entity/Q14552192","P31^label:cs":"Kaplička","P131^label:cs":"Nečtiny","P6736":"5537"},"geometry":{"type":"Point","coordinates":[13.15763,49.95924]}},{"type":"Feature","properties":{"label:cs":"Boží muka u zámku Nečtiny","P31":"http://www.wikidata.org/entity/Q3395121","P31^label:cs":"Boží muka","P131^label:cs":"Nečtiny","P6736":"5536"},"geometry":{"type":"Point","coordinates":[13.16049,49.95831]}},{"type":"Feature","properties":{"label:cs":"Kašna se sochou u zámku Nečtiny","P31":"http://www.wikidata.org/entity/Q12029081","P31^label:cs":"Kašna","P131^label:cs":"Nečtiny","P6736":"5535"},"geometry":{"type":"Point","coordinates":[13.15993,49.95881]}},{"type":"Feature","properties":{"label:cs":"Kaple svaté Terezie v Hradu Nečtiny","P31":"http://www.wikidata.org/entity/Q108325","P31^label:cs":"Kaple","P131^label:cs":"Nečtiny","P6736":"5534"},"geometry":{"type":"Point","coordinates":[13.15374,49.95811]}},{"type":"Feature","properties":{"label:cs":"Socha jelena u zámku Nečtiny","P31":"http://www.wikidata.org/entity/Q179700","P31^label:cs":"Socha","P131^label:cs":"Nečtiny","P6736":"4812"},"geometry":{"type":"Point","coordinates":[13.15931,49.95914]}},{"type":"Feature","properties":{"label:cs":"Kříž východně od Březína","P31":"http://www.wikidata.org/entity/Q2309609","P31^label:cs":"Pamětní kříž","P131^label:cs":"Nečtiny","P6736":"3482"},"geometry":{"type":"Point","coordinates":[13.13972,49.96301]}},{"type":"Feature","properties":{"label:cs":"Kříž jižně od Nečtin","P31":"http://www.wikidata.org/entity/Q2309609","P31^label:cs":"Pamětní kříž","P131^label:cs":"Nečtiny","P6736":"3362"},"geometry":{"type":"Point","coordinates":[13.15904,49.96281]}},{"type":"Feature","properties":{"label:cs":"Kříž u zámku Nečtiny","P31":"http://www.wikidata.org/entity/Q2309609","P31^label:cs":"Pamětní kříž","P131^label:cs":"Nečtiny","P6736":"3360"},"geometry":{"type":"Point","coordinates":[13.16044,49.95799]}},{"type":"Feature","properties":{"label:cs":"Socha svatého Floriána v Hradu Nečtiny","P31":"http://www.wikidata.org/entity/Q179700","P31^label:cs":"Socha","P131^label:cs":"Nečtiny","P6736":"3359"},"geometry":{"type":"Point","coordinates":[13.15566,49.95662]}},{"type":"Feature","properties":{"label:cs":"Socha svatého Vojtěcha v Hradě Nečtiny","P31":"http://www.wikidata.org/entity/Q179700","P31^label:cs":"Socha","P131^label:cs":"Nečtiny","P6736":"3358"},"geometry":{"type":"Point","coordinates":[13.15573,49.95672]}},{"type":"Feature","properties":{"label:cs":"Kříž na rozcestí východně od Březína","P31":"http://www.wikidata.org/entity/Q2309609","P31^label:cs":"Pamětní kříž","P131^label:cs":"Nečtiny","P6736":"1280"},"geometry":{"type":"Point","coordinates":[13.14527,49.96461]}}]}