{"type":"FeatureCollection","features":[{"type":"Feature","properties":{"label:cs":"Kříž jižně od Lukové","P31":"http://www.wikidata.org/entity/Q2309609","P31^label:cs":"Pamětní kříž","P131^label:cs":"Manětín","P6736":"35222"},"geometry":{"type":"Point","coordinates":[13.15645,50.01321]}},{"type":"Feature","properties":{"label:cs":"Kříž severozápadně od Lukové - nenalezeno","P31":"http://www.wikidata.org/entity/?","P31^label:cs":"Nenalezena","P131^label:cs":"Manětín","P6736":"35221"},"geometry":{"type":"Point","coordinates":[13.15229,50.01867]}},{"type":"Feature","properties":{"label:cs":"Kříž západně od Lukové v polích - nenalezeno","P31":"http://www.wikidata.org/entity/?","P31^label:cs":"Nenalezena","P131^label:cs":"Manětín","P6736":"35220"},"geometry":{"type":"Point","coordinates":[13.14623,50.01766]}},{"type":"Feature","properties":{"label:cs":"Kříž u kostela v Lukové","P31":"http://www.wikidata.org/entity/Q2309609","P31^label:cs":"Pamětní kříž","P131^label:cs":"Manětín","P6736":"4518"},"geometry":{"type":"Point","coordinates":[13.16041,50.01638]}},{"type":"Feature","properties":{"label:cs":"Pomník padlým v Lukové","P31":"http://www.wikidata.org/entity/Q575759","P31^label:cs":"Pomník padlým","P131^label:cs":"Manětín","P6736":"4517"},"geometry":{"type":"Point","coordinates":[13.16012,50.01611]}},{"type":"Feature","properties":{"label:cs":"Památka severně od Zhořce u pole - nenalezeno","P31":"http://www.wikidata.org/entity/?","P31^label:cs":"Nenalezena","P131^label:cs":"Manětín","P6736":"38959"},"geometry":{"type":"Point","coordinates":[13.14149,50.01022]}},{"type":"Feature","properties":{"label:cs":"Památka u křižovatky severně od Zhořce - nenalezeno","P31":"http://www.wikidata.org/entity/?","P31^label:cs":"Nenalezena","P131^label:cs":"Manětín","P6736":"38846"},"geometry":{"type":"Point","coordinates":[13.14019,50.00877]}},{"type":"Feature","properties":{"label:cs":"Kříž východně od Zhořce u Pstruhového potoka - nenalezeno","P31":"http://www.wikidata.org/entity/?","P31^label:cs":"Nenalezena","P131^label:cs":"Manětín","P6736":"35212"},"geometry":{"type":"Point","coordinates":[13.14865,50.01118]}},{"type":"Feature","properties":{"label:cs":"Kříž východně od Zhořce","P31":"http://www.wikidata.org/entity/Q2309609","P31^label:cs":"Pamětní kříž","P131^label:cs":"Manětín","P6736":"8191"},"geometry":{"type":"Point","coordinates":[13.14634,50.00837]}},{"type":"Feature","properties":{"label:cs":"Kříž severně od Zhořce u zatáčky","P31":"http://www.wikidata.org/entity/Q2309609","P31^label:cs":"Pamětní kříž","P131^label:cs":"Manětín","P6736":"5561"},"geometry":{"type":"Point","coordinates":[13.14204,50.01086]}},{"type":"Feature","properties":{"label:cs":"Kříž ve Zhořci u silnice na Vlkošov","P31":"http://www.wikidata.org/entity/Q2309609","P31^label:cs":"Pamětní kříž","P131^label:cs":"Manětín","P6736":"5560"},"geometry":{"type":"Point","coordinates":[13.13999,50.00863]}}]}