{"type":"FeatureCollection","features":[{"type":"Feature","properties":{"label:cs":"Kamenná nádrž na vodu v ulici Purkyňova ve Žluticích","P31":"http://www.wikidata.org/entity/Q12029081","P31^label:cs":"Kašna","P131^label:cs":"Žlutice","P6736":"13791"},"geometry":{"type":"Point","coordinates":[13.16307,50.0905]}},{"type":"Feature","properties":{"label:cs":"Kamenná nádrž na vodu v ulici Hradební ve Žluticích","P31":"http://www.wikidata.org/entity/Q12029081","P31^label:cs":"Kašna","P131^label:cs":"Žlutice","P6736":"13790"},"geometry":{"type":"Point","coordinates":[13.16489,50.09114]}},{"type":"Feature","properties":{"label:cs":"Kamenná nádrž na vodu v ulici 28.října ve Žluticích","P31":"http://www.wikidata.org/entity/Q12029081","P31^label:cs":"Kašna","P131^label:cs":"Žlutice","P6736":"13789"},"geometry":{"type":"Point","coordinates":[13.16437,50.09026]}},{"type":"Feature","properties":{"label:cs":"Kašna na náměstí ve Žluticích","P31":"http://www.wikidata.org/entity/Q12029081","P31^label:cs":"Kašna","P131^label:cs":"Žlutice","P6736":"13787"},"geometry":{"type":"Point","coordinates":[13.16293,50.09147]}},{"type":"Feature","properties":{"label:cs":"Kamenná nádrž na vodu u kostela ve Žluticích","P31":"http://www.wikidata.org/entity/Q12029081","P31^label:cs":"Kašna","P131^label:cs":"Žlutice","P6736":"13786"},"geometry":{"type":"Point","coordinates":[13.16385,50.08979]}},{"type":"Feature","properties":{"label:cs":"Pomník padlým ve Žluticích","P31":"http://www.wikidata.org/entity/Q575759","P31^label:cs":"Pomník padlým","P131^label:cs":"Žlutice","P6736":"10422"},"geometry":{"type":"Point","coordinates":[13.16385,50.08972]}},{"type":"Feature","properties":{"label:cs":"Sloup Nejsvětější Trojice ve Žluticích","P31":"http://www.wikidata.org/entity/Q4817","P31^label:cs":"Sloup","P131^label:cs":"Žlutice","P6736":"9687"},"geometry":{"type":"Point","coordinates":[13.16249,50.09176]}}]}