{"type":"FeatureCollection","features":[{"type":"Feature","properties":{"label:cs":"Kříž jihovýchodně od Blatnice - nenalezeno","P31":"http://www.wikidata.org/entity/?","P31^label:cs":"Nenalezena","P131^label:cs":"Blatnice","P6736":"35449"},"geometry":{"type":"Point","coordinates":[13.16958,49.71088]}},{"type":"Feature","properties":{"label:cs":"Obrázek na borovici v Kamenném Újezdu - nenalezeno","P31":"http://www.wikidata.org/entity/?","P31^label:cs":"Nenalezena","P131^label:cs":"Nýřany","P6736":"40523"},"geometry":{"type":"Point","coordinates":[13.18356,49.72134]}},{"type":"Feature","properties":{"label:cs":"Kříž v Kamenném Újezdu u křižovatky","P31":"http://www.wikidata.org/entity/Q2309609","P31^label:cs":"Pamětní kříž","P131^label:cs":"Nýřany","P6736":"6820"},"geometry":{"type":"Point","coordinates":[13.18269,49.72179]}},{"type":"Feature","properties":{"label:cs":"Kaple Nejsvětější Trojice v Kamenném Újezdu","P31":"http://www.wikidata.org/entity/Q108325","P31^label:cs":"Kaple","P131^label:cs":"Nýřany","P6736":"4620"},"geometry":{"type":"Point","coordinates":[13.18339,49.72251]}},{"type":"Feature","properties":{"label:cs":"Pomník padlým v Kamenném Újezdu","P31":"http://www.wikidata.org/entity/Q575759","P31^label:cs":"Pomník padlým","P131^label:cs":"Nýřany","P6736":"4619"},"geometry":{"type":"Point","coordinates":[13.18295,49.72121]}}]}