{"type":"FeatureCollection","features":[{"type":"Feature","properties":{"label:cs":"Památka západně od Hůrek - nenalezeno","P31":"http://www.wikidata.org/entity/?","P31^label:cs":"Nenalezena","P131^label:cs":"Zahrádka","P6736":"38820"},"geometry":{"type":"Point","coordinates":[13.16964,49.8858]}},{"type":"Feature","properties":{"label:cs":"Kříž západně od Hůrek - nenalezeno","P31":"http://www.wikidata.org/entity/?","P31^label:cs":"Nenalezena","P131^label:cs":"Zahrádka","P6736":"35305"},"geometry":{"type":"Point","coordinates":[13.17239,49.88648]}},{"type":"Feature","properties":{"label:cs":"Kříž severozápadně od Hůrek","P31":"http://www.wikidata.org/entity/Q2309609","P31^label:cs":"Pamětní kříž","P131^label:cs":"Zahrádka","P6736":"8293"},"geometry":{"type":"Point","coordinates":[13.17779,49.88829]}},{"type":"Feature","properties":{"label:cs":"Kříž v Hůrkách u křižovatky","P31":"http://www.wikidata.org/entity/Q2309609","P31^label:cs":"Pamětní kříž","P131^label:cs":"Zahrádka","P6736":"5513"},"geometry":{"type":"Point","coordinates":[13.18044,49.88301]}},{"type":"Feature","properties":{"label:cs":"Kaple Panny Marie Pomocnice křesťanů v Hůrkách","P31":"http://www.wikidata.org/entity/Q108325","P31^label:cs":"Kaple","P131^label:cs":"Zahrádka","P6736":"4816"},"geometry":{"type":"Point","coordinates":[13.18258,49.88409]}},{"type":"Feature","properties":{"label:cs":"Kříž u Stříbrného Mlýna - nenalezeno","P31":"http://www.wikidata.org/entity/?","P31^label:cs":"Nenalezena","P131^label:cs":"Úněšov","P6736":"35306"},"geometry":{"type":"Point","coordinates":[13.16393,49.88499]}},{"type":"Feature","properties":{"label:cs":"Kříž u Stříbrného Mlýna","P31":"http://www.wikidata.org/entity/Q2309609","P31^label:cs":"Pamětní kříž","P131^label:cs":"Úněšov","P6736":"5514"},"geometry":{"type":"Point","coordinates":[13.16439,49.88561]}}]}