{"type":"FeatureCollection","features":[{"type":"Feature","properties":{"label:cs":"Pomník padlým ve Žluticích","P31":"http://www.wikidata.org/entity/Q575759","P31^label:cs":"Pomník padlým","P131^label:cs":"Žlutice","P6736":"10422"},"geometry":{"type":"Point","coordinates":[13.16385,50.08972]}},{"type":"Feature","properties":{"label:cs":"Sloup Nejsvětější Trojice ve Žluticích","P31":"http://www.wikidata.org/entity/Q4817","P31^label:cs":"Sloup","P131^label:cs":"Žlutice","P6736":"9687"},"geometry":{"type":"Point","coordinates":[13.16249,50.09176]}},{"type":"Feature","properties":{"label:cs":"Kamenná nádrž na vodu u kostela ve Žluticích","P31":"http://www.wikidata.org/entity/Q12029081","P31^label:cs":"Kašna","P131^label:cs":"Žlutice","P6736":"13786"},"geometry":{"type":"Point","coordinates":[13.16375,50.09013]}},{"type":"Feature","properties":{"label:cs":"Kašna na náměstí ve Žluticích","P31":"http://www.wikidata.org/entity/Q12029081","P31^label:cs":"Kašna","P131^label:cs":"Žlutice","P6736":"13787"},"geometry":{"type":"Point","coordinates":[13.16293,50.09147]}},{"type":"Feature","properties":{"label:cs":"Kamenná nádrž na vodu v ulici 28. října ve Žluticích","P31":"http://www.wikidata.org/entity/Q12029081","P31^label:cs":"Kašna","P131^label:cs":"Žlutice","P6736":"13789"},"geometry":{"type":"Point","coordinates":[13.16437,50.09026]}},{"type":"Feature","properties":{"label:cs":"Kamenná nádrž na vodu v ulici Hradební ve Žluticích","P31":"http://www.wikidata.org/entity/Q12029081","P31^label:cs":"Kašna","P131^label:cs":"Žlutice","P6736":"13790"},"geometry":{"type":"Point","coordinates":[13.16489,50.09114]}},{"type":"Feature","properties":{"label:cs":"Kamenná nádrž na vodu v ulici Purkyňova ve Žluticích","P31":"http://www.wikidata.org/entity/Q12029081","P31^label:cs":"Kašna","P131^label:cs":"Žlutice","P6736":"13791"},"geometry":{"type":"Point","coordinates":[13.16307,50.0905]}},{"type":"Feature","properties":{"label:cs":"Kříž v Mlýnské ulici ve Žluticích","P31":"http://www.wikidata.org/entity/Q2309609","P31^label:cs":"Pamětní kříž","P131^label:cs":"Žlutice","P6736":"28209"},"geometry":{"type":"Point","coordinates":[13.16804,50.08985]}},{"type":"Feature","properties":{"label:cs":"Kaple svatého Kříže ve Žluticích","P31":"http://www.wikidata.org/entity/Q14552192","P31^label:cs":"Kaplička","P131^label:cs":"Žlutice","P6736":"28210"},"geometry":{"type":"Point","coordinates":[13.16242,50.08867]}},{"type":"Feature","properties":{"label:cs":"Smírčí kříž u kostela ve Žluticích","P31":"http://www.wikidata.org/entity/Q1640496","P31^label:cs":"Smírčí kříž","P131^label:cs":"Žlutice","P6736":"28211"},"geometry":{"type":"Point","coordinates":[13.16363,50.08977]}},{"type":"Feature","properties":{"label:cs":"Sloup se sochou svaté Alžběty ve Žluticích","P31":"http://www.wikidata.org/entity/Q4817","P31^label:cs":"Sloup","P131^label:cs":"Žlutice","P6736":"28214"},"geometry":{"type":"Point","coordinates":[13.16177,50.09236]}},{"type":"Feature","properties":{"label:cs":"Pamětní deska Johanna Hanse Gerstnera ve Žluticích","P31":"http://www.wikidata.org/entity/Q721747","P31^label:cs":"Pamětní deska","P131^label:cs":"Žlutice","P6736":"28215"},"geometry":{"type":"Point","coordinates":[13.16198,50.09149]}},{"type":"Feature","properties":{"label:cs":"Pamětní deska Oswalda Josefa Wendy ve Žluticích","P31":"http://www.wikidata.org/entity/Q721747","P31^label:cs":"Pamětní deska","P131^label:cs":"Žlutice","P6736":"28216"},"geometry":{"type":"Point","coordinates":[13.16178,50.09169]}},{"type":"Feature","properties":{"label:cs":"Deska z Chýšské brány ve Žluticích","P31":"http://www.wikidata.org/entity/Q245117","P31^label:cs":"Reliéf","P131^label:cs":"Žlutice","P6736":"28220"},"geometry":{"type":"Point","coordinates":[13.16575,50.09015]}}]}