{"type":"FeatureCollection","features":[{"type":"Feature","properties":{"label:cs":"Kaple v Lelově","P31":"http://www.wikidata.org/entity/Q108325","P31^label:cs":"Kaple","P131^label:cs":"Stod","P6736":"4798"},"geometry":{"type":"Point","coordinates":[13.16496,49.61972]}},{"type":"Feature","properties":{"label:cs":"Kříž severně od Lelova","P31":"http://www.wikidata.org/entity/Q2309609","P31^label:cs":"Pamětní kříž","P131^label:cs":"Stod","P6736":"3626"},"geometry":{"type":"Point","coordinates":[13.16651,49.62336]}},{"type":"Feature","properties":{"label:cs":"Kříž nad Líšinou v lese","P31":"http://www.wikidata.org/entity/Q2309609","P31^label:cs":"Pamětní kříž","P131^label:cs":"Líšina","P6736":"1949"},"geometry":{"type":"Point","coordinates":[13.18225,49.61163]}},{"type":"Feature","properties":{"label:cs":"kříž západně od Lelova u silnice do Stodu","P31":"http://www.wikidata.org/entity/Q2309609","P31^label:cs":"Pamětní kříž","P131^label:cs":"Stod","P6736":"1881"},"geometry":{"type":"Point","coordinates":[13.16367,49.62022]}},{"type":"Feature","properties":{"label:cs":"Kříž východně od Lelova u zaniklé cesty","P31":"http://www.wikidata.org/entity/Q2309609","P31^label:cs":"Pamětní kříž","P131^label:cs":"Stod","P6736":"1880"},"geometry":{"type":"Point","coordinates":[13.17126,49.61904]}},{"type":"Feature","properties":{"label:cs":"kříž západně od Lelova na rozcestí","P31":"http://www.wikidata.org/entity/Q2309609","P31^label:cs":"Pamětní kříž","P131^label:cs":"Stod","P6736":"1882"},"geometry":{"type":"Point","coordinates":[13.16393,49.61869]}}]}