{"type":"FeatureCollection","features":[{"type":"Feature","properties":{"label:cs":"Socha na hřbitovní zdi v Karlovarské ulici v Klášterci nad Ohří","P31":"http://www.wikidata.org/entity/Q179700","P31^label:cs":"Socha","P131^label:cs":"Klášterec nad Ohří","P6736":"31927"},"geometry":{"type":"Point","coordinates":[13.16839,50.38486]}},{"type":"Feature","properties":{"label:cs":"Socha anděla na hřbitovní zdi v Karlovarské ulici v Klášterci nad Ohří","P31":"http://www.wikidata.org/entity/Q179700","P31^label:cs":"Socha","P131^label:cs":"Klášterec nad Ohří","P6736":"31924"},"geometry":{"type":"Point","coordinates":[13.16875,50.38468]}},{"type":"Feature","properties":{"label:cs":"Socha svatého Kajetána na náměstí v Klášterci nad Ohří","P31":"http://www.wikidata.org/entity/Q179700","P31^label:cs":"Socha","P131^label:cs":"Klášterec nad Ohří","P6736":"31923"},"geometry":{"type":"Point","coordinates":[13.17064,50.38455]}},{"type":"Feature","properties":{"label:cs":"Socha svatého Antonína Paduánského na náměstí v Klášterci nad Ohří","P31":"http://www.wikidata.org/entity/Q179700","P31^label:cs":"Socha","P131^label:cs":"Klášterec nad Ohří","P6736":"31922"},"geometry":{"type":"Point","coordinates":[13.17058,50.3845]}},{"type":"Feature","properties":{"label:cs":"Socha svatého Jana Nepomuckého na náměstí v Klášterci nad Ohří","P31":"http://www.wikidata.org/entity/Q179700","P31^label:cs":"Socha","P131^label:cs":"Klášterec nad Ohří","P6736":"31921"},"geometry":{"type":"Point","coordinates":[13.17065,50.38447]}},{"type":"Feature","properties":{"label:cs":"Socha svatého Františka Xaverského na náměstí v Klášterci nad Ohří","P31":"http://www.wikidata.org/entity/Q179700","P31^label:cs":"Socha","P131^label:cs":"Klášterec nad Ohří","P6736":"31920"},"geometry":{"type":"Point","coordinates":[13.1707,50.38452]}},{"type":"Feature","properties":{"label:cs":"Socha putti na rohu Zahradní ulice v Klášterci nad Ohří","P31":"http://www.wikidata.org/entity/Q179700","P31^label:cs":"Socha","P131^label:cs":"Klášterec nad Ohří","P6736":"31919"},"geometry":{"type":"Point","coordinates":[13.17088,50.38416]}},{"type":"Feature","properties":{"label:cs":"Sloup Nejsvětější Trojice u kostela Nejsvětější Trojice v Klášterci nad Ohří","P31":"http://www.wikidata.org/entity/Q4817","P31^label:cs":"Sloup","P131^label:cs":"Klášterec nad Ohří","P6736":"31918"},"geometry":{"type":"Point","coordinates":[13.17157,50.38496]}},{"type":"Feature","properties":{"label:cs":"Socha svatého Jana Nepomuckého u kostela Nejsvětější Trojice v Klášterci nad Ohří","P31":"http://www.wikidata.org/entity/Q179700","P31^label:cs":"Socha","P131^label:cs":"Klášterec nad Ohří","P6736":"31917"},"geometry":{"type":"Point","coordinates":[13.17176,50.38484]}},{"type":"Feature","properties":{"label:cs":"Alegorická socha Zima na balustrádě saly terreny zámku v Klášterci nad Ohří","P31":"http://www.wikidata.org/entity/Q179700","P31^label:cs":"Socha","P131^label:cs":"Klášterec nad Ohří","P6736":"31914"},"geometry":{"type":"Point","coordinates":[13.17259,50.38473]}},{"type":"Feature","properties":{"label:cs":"Alegorická socha Léto na balustrádě saly terreny zámku v Klášterci nad Ohří","P31":"http://www.wikidata.org/entity/Q179700","P31^label:cs":"Socha","P131^label:cs":"Klášterec nad Ohří","P6736":"31913"},"geometry":{"type":"Point","coordinates":[13.17253,50.3847]}},{"type":"Feature","properties":{"label:cs":"Alegorická socha Jaro na balustrádě saly terreny zámku v Klášterci nad Ohří","P31":"http://www.wikidata.org/entity/Q179700","P31^label:cs":"Socha","P131^label:cs":"Klášterec nad Ohří","P6736":"31912"},"geometry":{"type":"Point","coordinates":[13.17246,50.38468]}},{"type":"Feature","properties":{"label:cs":"Alegorická socha Podzim na balustrádě saly terreny zámku v Klášterci nad Ohří","P31":"http://www.wikidata.org/entity/Q179700","P31^label:cs":"Socha","P131^label:cs":"Klášterec nad Ohří","P6736":"31911"},"geometry":{"type":"Point","coordinates":[13.17241,50.38464]}},{"type":"Feature","properties":{"label:cs":"Socha římského vojáka před salou terrenou zámku v Klášterci nad Ohří","P31":"http://www.wikidata.org/entity/Q179700","P31^label:cs":"Socha","P131^label:cs":"Klášterec nad Ohří","P6736":"31910"},"geometry":{"type":"Point","coordinates":[13.17285,50.38468]}},{"type":"Feature","properties":{"label:cs":"Alegorická socha Evropa před salou terrenou zámku v Klášterci nad Ohří","P31":"http://www.wikidata.org/entity/Q179700","P31^label:cs":"Socha","P131^label:cs":"Klášterec nad Ohří","P6736":"31909"},"geometry":{"type":"Point","coordinates":[13.1728,50.38465]}},{"type":"Feature","properties":{"label:cs":"Alegorická socha Asie před salou terrenou zámku v Klášterci nad Ohří","P31":"http://www.wikidata.org/entity/Q179700","P31^label:cs":"Socha","P131^label:cs":"Klášterec nad Ohří","P6736":"31908"},"geometry":{"type":"Point","coordinates":[13.17273,50.38462]}},{"type":"Feature","properties":{"label:cs":"Socha Odyseus před salou terrenou zámku v Klášterci nad Ohří","P31":"http://www.wikidata.org/entity/Q179700","P31^label:cs":"Socha","P131^label:cs":"Klášterec nad Ohří","P6736":"31907"},"geometry":{"type":"Point","coordinates":[13.17268,50.38459]}},{"type":"Feature","properties":{"label:cs":"Alegorická socha Amerika před salou terrenou zámku v Klášterci nad Ohří","P31":"http://www.wikidata.org/entity/Q179700","P31^label:cs":"Socha","P131^label:cs":"Klášterec nad Ohří","P6736":"31906"},"geometry":{"type":"Point","coordinates":[13.17262,50.38457]}},{"type":"Feature","properties":{"label:cs":"Alegorická socha Afrika před salou terrenou zámku v Klášterci nad Ohří","P31":"http://www.wikidata.org/entity/Q179700","P31^label:cs":"Socha","P131^label:cs":"Klášterec nad Ohří","P6736":"31905"},"geometry":{"type":"Point","coordinates":[13.17255,50.38454]}},{"type":"Feature","properties":{"label:cs":"Podstavec božích muk u V. zastavení cesty Sedmi bolestí Panny Marie v Klášterci nad Ohří","P31":"http://www.wikidata.org/entity/Q3395121","P31^label:cs":"Boží muka","P131^label:cs":"Klášterec nad Ohří","P6736":"31901"},"geometry":{"type":"Point","coordinates":[13.18015,50.38447]}},{"type":"Feature","properties":{"label:cs":"Kaplička I . zastavení cesty Sedmi bolestí Panny Marie v Klášterci nad Ohří","P31":"http://www.wikidata.org/entity/Q14552192","P31^label:cs":"Kaplička","P131^label:cs":"Klášterec nad Ohří","P6736":"31899"},"geometry":{"type":"Point","coordinates":[13.17605,50.38486]}},{"type":"Feature","properties":{"label:cs":"Kaplička III. zastavení cesty Sedmi bolestí Panny Marie v Klášterci nad Ohří","P31":"http://www.wikidata.org/entity/Q14552192","P31^label:cs":"Kaplička","P131^label:cs":"Klášterec nad Ohří","P6736":"31898"},"geometry":{"type":"Point","coordinates":[13.1775,50.3846]}},{"type":"Feature","properties":{"label:cs":"Kaplička IV. zastavení cesty Sedmi bolestí Panny Marie v Klášterci nad Ohří","P31":"http://www.wikidata.org/entity/Q14552192","P31^label:cs":"Kaplička","P131^label:cs":"Klášterec nad Ohří","P6736":"31897"},"geometry":{"type":"Point","coordinates":[13.17847,50.38454]}},{"type":"Feature","properties":{"label:cs":"Kaplička V. zastavení cesty Sedmi bolestí Panny Marie v Klášterci nad Ohří","P31":"http://www.wikidata.org/entity/Q14552192","P31^label:cs":"Kaplička","P131^label:cs":"Klášterec nad Ohří","P6736":"31896"},"geometry":{"type":"Point","coordinates":[13.18029,50.38451]}},{"type":"Feature","properties":{"label:cs":"Kaplička VI. zastavení cesty Sedmi bolestí Panny Marie v Klášterci nad Ohří","P31":"http://www.wikidata.org/entity/Q14552192","P31^label:cs":"Kaplička","P131^label:cs":"Klášterec nad Ohří","P6736":"31895"},"geometry":{"type":"Point","coordinates":[13.18153,50.38436]}},{"type":"Feature","properties":{"label:cs":"Kaplička VII. zastavení cesty Sedmi bolestí Panny Marie v Klášterci nad Ohří","P31":"http://www.wikidata.org/entity/Q14552192","P31^label:cs":"Kaplička","P131^label:cs":"Klášterec nad Ohří","P6736":"31894"},"geometry":{"type":"Point","coordinates":[13.18206,50.38404]}},{"type":"Feature","properties":{"label:cs":"Socha u lázeňské budovy lázní Evženie v Klášterci nad Ohří","P31":"http://www.wikidata.org/entity/Q179700","P31^label:cs":"Socha","P131^label:cs":"Klášterec nad Ohří","P6736":"13725"},"geometry":{"type":"Point","coordinates":[13.16977,50.37835]}},{"type":"Feature","properties":{"label:cs":"Socha v lázeňském parku lázní Evženie v Klášterci nad Ohří","P31":"http://www.wikidata.org/entity/Q179700","P31^label:cs":"Socha","P131^label:cs":"Klášterec nad Ohří","P6736":"13724"},"geometry":{"type":"Point","coordinates":[13.16934,50.37756]}},{"type":"Feature","properties":{"label:cs":"Socha v lázeňském parku lázní Evženie v Klášterci nad Ohří","P31":"http://www.wikidata.org/entity/Q179700","P31^label:cs":"Socha","P131^label:cs":"Klášterec nad Ohří","P6736":"13723"},"geometry":{"type":"Point","coordinates":[13.16885,50.37741]}},{"type":"Feature","properties":{"label:cs":"Socha Mimozemšťanka v lázeňském parku lázní Evženie v Klášterci nad Ohří","P31":"http://www.wikidata.org/entity/Q179700","P31^label:cs":"Socha","P131^label:cs":"Klášterec nad Ohří","P6736":"13722"},"geometry":{"type":"Point","coordinates":[13.16987,50.37787]}},{"type":"Feature","properties":{"label:cs":"Kašna u lázní Evženie v Klášterci nad Ohří","P31":"http://www.wikidata.org/entity/Q12029081","P31^label:cs":"Kašna","P131^label:cs":"Klášterec nad Ohří","P6736":"13721"},"geometry":{"type":"Point","coordinates":[13.17005,50.37807]}},{"type":"Feature","properties":{"label:cs":"Socha Dech anděla na hradbách v Klášterci nad Ohří","P31":"http://www.wikidata.org/entity/Q179700","P31^label:cs":"Socha","P131^label:cs":"Klášterec nad Ohří","P6736":"13719"},"geometry":{"type":"Point","coordinates":[13.17148,50.38392]}},{"type":"Feature","properties":{"label:cs":"Pomník sochařům Brokoffům na náměstí v Klášterci nad Ohří","P31":"http://www.wikidata.org/entity/Q4989906","P31^label:cs":"Pomník","P131^label:cs":"Klášterec nad Ohří","P6736":"13718"},"geometry":{"type":"Point","coordinates":[13.17024,50.38472]}},{"type":"Feature","properties":{"label:cs":"Mariánský sloup u kostela Nejsvětější Trojice v Klášterci nad Ohří","P31":"http://www.wikidata.org/entity/Q4817","P31^label:cs":"Sloup","P131^label:cs":"Klášterec nad Ohří","P6736":"13717"},"geometry":{"type":"Point","coordinates":[13.17219,50.38497]}},{"type":"Feature","properties":{"label:cs":"Socha svatého Antonína Paduánského u kostela Nejsvětější Trojice v Klášterci nad Ohří","P31":"http://www.wikidata.org/entity/Q179700","P31^label:cs":"Socha","P131^label:cs":"Klášterec nad Ohří","P6736":"13716"},"geometry":{"type":"Point","coordinates":[13.17185,50.3848]}},{"type":"Feature","properties":{"label:cs":"Socha svatého Floriána u kostela Nejsvětější Trojice v Klášterci nad Ohří","P31":"http://www.wikidata.org/entity/Q179700","P31^label:cs":"Socha","P131^label:cs":"Klášterec nad Ohří","P6736":"13715"},"geometry":{"type":"Point","coordinates":[13.17185,50.38477]}},{"type":"Feature","properties":{"label:cs":"Kašna na zámeckém nádvoří v Klášterci nad Ohří","P31":"http://www.wikidata.org/entity/Q12029081","P31^label:cs":"Kašna","P131^label:cs":"Klášterec nad Ohří","P6736":"13714"},"geometry":{"type":"Point","coordinates":[13.1736,50.38411]}},{"type":"Feature","properties":{"label:cs":"Hřbitovní kaple v Klášterci nad Ohří","P31":"http://www.wikidata.org/entity/Q108325","P31^label:cs":"Kaple","P131^label:cs":"Klášterec nad Ohří","P6736":"10291"},"geometry":{"type":"Point","coordinates":[13.16817,50.38491]}},{"type":"Feature","properties":{"label:cs":"Pomník padlým v I. sv. válce v Klášterci nad Ohří","P31":"http://www.wikidata.org/entity/Q575759","P31^label:cs":"Pomník padlým","P131^label:cs":"Klášterec nad Ohří","P6736":"10290"},"geometry":{"type":"Point","coordinates":[13.16856,50.38461]}},{"type":"Feature","properties":{"label:cs":"Pomník Obětem válek a násilí v Klášterci nad Ohří","P31":"http://www.wikidata.org/entity/Q4989906","P31^label:cs":"Pomník","P131^label:cs":"Klášterec nad Ohří","P6736":"10289"},"geometry":{"type":"Point","coordinates":[13.16756,50.38504]}},{"type":"Feature","properties":{"label:cs":"Pomník padlým v roce 1945 v Klášterci nad Ohří","P31":"http://www.wikidata.org/entity/Q575759","P31^label:cs":"Pomník padlým","P131^label:cs":"Klášterec nad Ohří","P6736":"10288"},"geometry":{"type":"Point","coordinates":[13.16761,50.38509]}},{"type":"Feature","properties":{"label:cs":"Výklenková kaplička v Klášterci nad Ohří v Cihlářské ulici","P31":"http://www.wikidata.org/entity/Q14552192","P31^label:cs":"Kaplička","P131^label:cs":"Klášterec nad Ohří","P6736":"10115"},"geometry":{"type":"Point","coordinates":[13.16766,50.3815]}},{"type":"Feature","properties":{"label:cs":"Lví fontána v Klášterci nad Ohří","P31":"http://www.wikidata.org/entity/Q12029081","P31^label:cs":"Kašna","P131^label:cs":"Klášterec nad Ohří","P6736":"9934"},"geometry":{"type":"Point","coordinates":[13.17083,50.38441]}},{"type":"Feature","properties":{"label:cs":"Sloup Nejsvětější Trojice na náměstí v Klášterci nad Ohří","P31":"http://www.wikidata.org/entity/Q4817","P31^label:cs":"Sloup","P131^label:cs":"Klášterec nad Ohří","P6736":"9933"},"geometry":{"type":"Point","coordinates":[13.17064,50.38452]}},{"type":"Feature","properties":{"label:cs":"Socha svatého Jana Nepomuckého v Klášterci nad Ohří - Kyselce","P31":"http://www.wikidata.org/entity/Q179700","P31^label:cs":"Socha","P131^label:cs":"Klášterec nad Ohří","P6736":"9932"},"geometry":{"type":"Point","coordinates":[13.17062,50.37838]}},{"type":"Feature","properties":{"label:cs":"Nosný sloup arkýře v Klášterci nad Ohří","P31":"http://www.wikidata.org/entity/Q4817","P31^label:cs":"Sloup","P131^label:cs":"Klášterec nad Ohří","P6736":"9931"},"geometry":{"type":"Point","coordinates":[13.17098,50.38396]}},{"type":"Feature","properties":{"label:cs":"Socha svatého Jana Nepomuckého na můstku v Klášterci nad Ohří","P31":"http://www.wikidata.org/entity/Q179700","P31^label:cs":"Socha","P131^label:cs":"Klášterec nad Ohří","P6736":"9930"},"geometry":{"type":"Point","coordinates":[13.17334,50.38557]}},{"type":"Feature","properties":{"label:cs":"Socha svatého Jana Nepomuckého v Klášterci nad Ohří u Třebízského ulice","P31":"http://www.wikidata.org/entity/Q179700","P31^label:cs":"Socha","P131^label:cs":"Klášterec nad Ohří","P6736":"9928"},"geometry":{"type":"Point","coordinates":[13.17007,50.38564]}},{"type":"Feature","properties":{"label:cs":"Socha svatého Jana Nepomuckého v Klášterci nad Ohří u ulice Svatopluka Čecha","P31":"http://www.wikidata.org/entity/Q179700","P31^label:cs":"Socha","P131^label:cs":"Klášterec nad Ohří","P6736":"9927"},"geometry":{"type":"Point","coordinates":[13.17042,50.38561]}},{"type":"Feature","properties":{"label:cs":"Socha svatého Prokopa v Klášterci nad Ohří","P31":"http://www.wikidata.org/entity/Q179700","P31^label:cs":"Socha","P131^label:cs":"Klášterec nad Ohří","P6736":"9926"},"geometry":{"type":"Point","coordinates":[13.1702,50.38565]}},{"type":"Feature","properties":{"label:cs":"Výklenková kaple Pieta v Klášterci nad Ohří","P31":"http://www.wikidata.org/entity/Q14552192","P31^label:cs":"Kaplička","P131^label:cs":"Klášterec nad Ohří","P6736":"9925"},"geometry":{"type":"Point","coordinates":[13.16751,50.3853]}},{"type":"Feature","properties":{"label:cs":"Mariánský sloupek v Klášterci nad Ohří","P31":"http://www.wikidata.org/entity/Q4817","P31^label:cs":"Sloup","P131^label:cs":"Klášterec nad Ohří","P6736":"9924"},"geometry":{"type":"Point","coordinates":[13.17603,50.38511]}},{"type":"Feature","properties":{"label:cs":"Socha svatého Jana Nepomuckého v Klášterci nad Ohří (ulice Kamenka)","P31":"http://www.wikidata.org/entity/Q179700","P31^label:cs":"Socha","P131^label:cs":"Klášterec nad Ohří","P6736":"9923"},"geometry":{"type":"Point","coordinates":[13.17567,50.38533]}},{"type":"Feature","properties":{"label:cs":"Sloup Panny Marie v Klášterci nad Ohří","P31":"http://www.wikidata.org/entity/Q4817","P31^label:cs":"Sloup","P131^label:cs":"Klášterec nad Ohří","P6736":"9922"},"geometry":{"type":"Point","coordinates":[13.17274,50.3852]}},{"type":"Feature","properties":{"label:cs":"Kaplička II. zastavení cesty Sedmi bolestí Panny Marie v Klášterci nad Ohří","P31":"http://www.wikidata.org/entity/Q14552192","P31^label:cs":"Kaplička","P131^label:cs":"Klášterec nad Ohří","P6736":"9921"},"geometry":{"type":"Point","coordinates":[13.17679,50.38476]}},{"type":"Feature","properties":{"label:cs":"Kašna před zámkem v Klášterci nad Ohří","P31":"http://www.wikidata.org/entity/Q12029081","P31^label:cs":"Kašna","P131^label:cs":"Klášterec nad Ohří","P6736":"9643"},"geometry":{"type":"Point","coordinates":[13.17321,50.38441]}},{"type":"Feature","properties":{"label:cs":"Socha na nádvoří zámku v Klášterci nad Ohří","P31":"http://www.wikidata.org/entity/Q179700","P31^label:cs":"Socha","P131^label:cs":"Klášterec nad Ohří","P6736":"9642"},"geometry":{"type":"Point","coordinates":[13.17363,50.38405]}}]}