{"type":"FeatureCollection","features":[{"type":"Feature","properties":{"label:cs":"Socha 'Víra naděje a Láska' na cestě andělů u Nečtin","P31":"http://www.wikidata.org/entity/Q179700","P31^label:cs":"Socha","P131^label:cs":"Nečtiny","P6736":"41120"},"geometry":{"type":"Point","coordinates":[13.16166,49.9717]}},{"type":"Feature","properties":{"label:cs":"Pomník neznámého důstojníka sovětské armády u Nečtin","P31":"http://www.wikidata.org/entity/Q4989906","P31^label:cs":"Pomník","P131^label:cs":"Nečtiny","P6736":"40771"},"geometry":{"type":"Point","coordinates":[13.16699,49.97452]}},{"type":"Feature","properties":{"label:cs":"Památka v Nýřanech u školy - nenalezeno","P31":"http://www.wikidata.org/entity/?","P31^label:cs":"Nenalezena","P131^label:cs":"Nečtiny","P6736":"38890"},"geometry":{"type":"Point","coordinates":[13.16581,49.97897]}},{"type":"Feature","properties":{"label:cs":"Plastika u bytových domů v Nečtinách","P31":"http://www.wikidata.org/entity/Q12045520","P31^label:cs":"Plastika","P131^label:cs":"Nečtiny","P6736":"10274"},"geometry":{"type":"Point","coordinates":[13.1655,49.97817]}},{"type":"Feature","properties":{"label:cs":"Socha školáka před školou v Nečtinách","P31":"http://www.wikidata.org/entity/Q179700","P31^label:cs":"Socha","P131^label:cs":"Nečtiny","P6736":"8186"},"geometry":{"type":"Point","coordinates":[13.16566,49.97883]}},{"type":"Feature","properties":{"label:cs":"Sochy v Nečtinách u hostince","P31":"http://www.wikidata.org/entity/Q179700","P31^label:cs":"Socha","P131^label:cs":"Nečtiny","P6736":"5578"},"geometry":{"type":"Point","coordinates":[13.16424,49.97567]}},{"type":"Feature","properties":{"label:cs":"Socha v Nečtinách před hasičárnou","P31":"http://www.wikidata.org/entity/Q179700","P31^label:cs":"Socha","P131^label:cs":"Nečtiny","P6736":"5577"},"geometry":{"type":"Point","coordinates":[13.16265,49.97223]}},{"type":"Feature","properties":{"label:cs":"Socha v Nečtinách pod zahradou","P31":"http://www.wikidata.org/entity/Q179700","P31^label:cs":"Socha","P131^label:cs":"Nečtiny","P6736":"5576"},"geometry":{"type":"Point","coordinates":[13.16351,49.97312]}},{"type":"Feature","properties":{"label:cs":"Socha v Nečtinách u zatáčky","P31":"http://www.wikidata.org/entity/Q179700","P31^label:cs":"Socha","P131^label:cs":"Nečtiny","P6736":"5575"},"geometry":{"type":"Point","coordinates":[13.16491,49.97396]}},{"type":"Feature","properties":{"label:cs":"Socha v Nečtinách u prodejny potravin","P31":"http://www.wikidata.org/entity/Q179700","P31^label:cs":"Socha","P131^label:cs":"Nečtiny","P6736":"5574"},"geometry":{"type":"Point","coordinates":[13.16472,49.97434]}},{"type":"Feature","properties":{"label:cs":"Socha v Nečtinách u křižovatky","P31":"http://www.wikidata.org/entity/Q179700","P31^label:cs":"Socha","P131^label:cs":"Nečtiny","P6736":"5573"},"geometry":{"type":"Point","coordinates":[13.16449,49.97507]}},{"type":"Feature","properties":{"label:cs":"Památník první písemné zmínky o obci a osvobození v Nečtinách","P31":"http://www.wikidata.org/entity/Q5003624","P31^label:cs":"Památník","P131^label:cs":"Nečtiny","P6736":"5572"},"geometry":{"type":"Point","coordinates":[13.1644,49.97515]}},{"type":"Feature","properties":{"label:cs":"Socha svatého Floriána v Nečtinách","P31":"http://www.wikidata.org/entity/Q179700","P31^label:cs":"Socha","P131^label:cs":"Nečtiny","P6736":"5571"},"geometry":{"type":"Point","coordinates":[13.16455,49.97575]}},{"type":"Feature","properties":{"label:cs":"Socha svatého Vendelína v Nečtinách","P31":"http://www.wikidata.org/entity/Q179700","P31^label:cs":"Socha","P131^label:cs":"Nečtiny","P6736":"5570"},"geometry":{"type":"Point","coordinates":[13.16456,49.97567]}},{"type":"Feature","properties":{"label:cs":"Kaple Piety v Nečtinách","P31":"http://www.wikidata.org/entity/Q108325","P31^label:cs":"Kaple","P131^label:cs":"Nečtiny","P6736":"5569"},"geometry":{"type":"Point","coordinates":[13.16204,49.97187]}},{"type":"Feature","properties":{"label:cs":"Socha u cesty ke kostelu v Nečtinách","P31":"http://www.wikidata.org/entity/Q179700","P31^label:cs":"Socha","P131^label:cs":"Nečtiny","P6736":"5541"},"geometry":{"type":"Point","coordinates":[13.1668,49.97696]}},{"type":"Feature","properties":{"label:cs":"Kříž u zdi kostela v Nečtinách","P31":"http://www.wikidata.org/entity/Q2309609","P31^label:cs":"Pamětní kříž","P131^label:cs":"Nečtiny","P6736":"5540"},"geometry":{"type":"Point","coordinates":[13.16644,49.97499]}},{"type":"Feature","properties":{"label:cs":"Kříž u kostela v Nečtinách","P31":"http://www.wikidata.org/entity/Q2309609","P31^label:cs":"Pamětní kříž","P131^label:cs":"Nečtiny","P6736":"5539"},"geometry":{"type":"Point","coordinates":[13.16645,49.97535]}},{"type":"Feature","properties":{"label:cs":"Socha svatého Michaela v Nečtinách","P31":"http://www.wikidata.org/entity/Q179700","P31^label:cs":"Socha","P131^label:cs":"Nečtiny","P6736":"3484"},"geometry":{"type":"Point","coordinates":[13.16437,49.97524]}},{"type":"Feature","properties":{"label:cs":"Hraniční kamenný kříž v Nečtinách","P31":"http://www.wikidata.org/entity/Q921099","P31^label:cs":"Hraniční kámen","P131^label:cs":"Nečtiny","P6736":"3483"},"geometry":{"type":"Point","coordinates":[13.16372,49.97322]}},{"type":"Feature","properties":{"label:cs":"Kaple Panny Marie severně od Nového Městečka","P31":"http://www.wikidata.org/entity/Q108325","P31^label:cs":"Kaple","P131^label:cs":"Nečtiny","P6736":"5538"},"geometry":{"type":"Point","coordinates":[13.16611,49.96709]}}]}