{"type":"FeatureCollection","features":[{"type":"Feature","properties":{"label:cs":"Kaplička svatého Jana Nepomuckého v Klášterci nad Ohří","P31":"http://www.wikidata.org/entity/Q14552192","P31^label:cs":"Kaplička","P131^label:cs":"Klášterec nad Ohří","P6736":"9929"},"geometry":{"type":"Point","coordinates":[13.16511,50.38911]}},{"type":"Feature","properties":{"label:cs":"Kaplička u Útočiště v Klášterci nad Ohři","P31":"http://www.wikidata.org/entity/Q14552192","P31^label:cs":"Kaplička","P131^label:cs":"Klášterec nad Ohří","P6736":"10287"},"geometry":{"type":"Point","coordinates":[13.17789,50.39943]}},{"type":"Feature","properties":{"label:cs":"Pomník osvobození na rohu Školní a Olšové ulice v Klášterci nad Ohří","P31":"http://www.wikidata.org/entity/Q4989906","P31^label:cs":"Pomník","P131^label:cs":"Klášterec nad Ohří","P6736":"31928"},"geometry":{"type":"Point","coordinates":[13.18005,50.38964]}},{"type":"Feature","properties":{"label:cs":"Plastika Jabloňhj s jablky u školky v Olšové ulici v Klášterci nad Ohří","P31":"http://www.wikidata.org/entity/Q12045520","P31^label:cs":"Plastika","P131^label:cs":"Klášterec nad Ohří","P6736":"31929"},"geometry":{"type":"Point","coordinates":[13.17871,50.39149]}},{"type":"Feature","properties":{"label:cs":"Socha dětí u školy v Krátké ulici v Klášterci nad Ohří","P31":"http://www.wikidata.org/entity/Q179700","P31^label:cs":"Socha","P131^label:cs":"Klášterec nad Ohří","P6736":"31930"},"geometry":{"type":"Point","coordinates":[13.18219,50.39191]}}]}