{"type":"FeatureCollection","features":[{"type":"Feature","properties":{"label:cs":"Kříž jižně od Klenovic - nenalezeno","P31":"http://www.wikidata.org/entity/?","P31^label:cs":"Nenalezena","P131^label:cs":"Všeruby","P6736":"35806"},"geometry":{"type":"Point","coordinates":[13.18415,49.8541]}},{"type":"Feature","properties":{"label:cs":"Kříž u Klenovic v zahradě","P31":"http://www.wikidata.org/entity/Q2309609","P31^label:cs":"Pamětní kříž","P131^label:cs":"Všeruby","P6736":"5509"},"geometry":{"type":"Point","coordinates":[13.19158,49.85545]}},{"type":"Feature","properties":{"label:cs":"Kříž východně od Klenovic","P31":"http://www.wikidata.org/entity/Q2309609","P31^label:cs":"Pamětní kříž","P131^label:cs":"Všeruby","P6736":"5508"},"geometry":{"type":"Point","coordinates":[13.1902,49.85485]}},{"type":"Feature","properties":{"label:cs":"Kříž východně od Klenovic u mlýna","P31":"http://www.wikidata.org/entity/Q2309609","P31^label:cs":"Pamětní kříž","P131^label:cs":"Všeruby","P6736":"4635"},"geometry":{"type":"Point","coordinates":[13.19345,49.85521]}},{"type":"Feature","properties":{"label:cs":"Kaplička u Radimovic","P31":"http://www.wikidata.org/entity/Q14552192","P31^label:cs":"Kaplička","P131^label:cs":"Všeruby","P6736":"2426"},"geometry":{"type":"Point","coordinates":[13.20131,49.85408]}}]}