{"type":"FeatureCollection","features":[{"type":"Feature","properties":{"label:cs":"Památka jižně od Doubravy - nenalezeno","P31":"http://www.wikidata.org/entity/?","P31^label:cs":"Nenalezena","P131^label:cs":"Nýřany","P6736":"38856"},"geometry":{"type":"Point","coordinates":[13.18784,49.74331]}},{"type":"Feature","properties":{"label:cs":"Památka v jižní části Doubravy - nenalezeno","P31":"http://www.wikidata.org/entity/?","P31^label:cs":"Nenalezena","P131^label:cs":"Nýřany","P6736":"38855"},"geometry":{"type":"Point","coordinates":[13.19199,49.74486]}},{"type":"Feature","properties":{"label:cs":"Památka východně od Doubravy - nenalezeno","P31":"http://www.wikidata.org/entity/?","P31^label:cs":"Nenalezena","P131^label:cs":"Nýřany","P6736":"35873"},"geometry":{"type":"Point","coordinates":[13.19163,49.74763]}},{"type":"Feature","properties":{"label:cs":"Památka v západní části Doubravy - nenalezeno","P31":"http://www.wikidata.org/entity/?","P31^label:cs":"Nenalezena","P131^label:cs":"Nýřany","P6736":"35872"},"geometry":{"type":"Point","coordinates":[13.18597,49.74588]}},{"type":"Feature","properties":{"label:cs":"Kříž východně od Doubravy - nenalezeno","P31":"http://www.wikidata.org/entity/?","P31^label:cs":"Nenalezena","P131^label:cs":"Nýřany","P6736":"35526"},"geometry":{"type":"Point","coordinates":[13.19816,49.74917]}},{"type":"Feature","properties":{"label:cs":"Kříž jihovýchodně od Doubravy - nenalezeno","P31":"http://www.wikidata.org/entity/?","P31^label:cs":"Nenalezena","P131^label:cs":"Nýřany","P6736":"35299"},"geometry":{"type":"Point","coordinates":[13.20278,49.74128]}},{"type":"Feature","properties":{"label:cs":"Kříž jihozápadně od kaple v Doubravě","P31":"http://www.wikidata.org/entity/Q2309609","P31^label:cs":"Pamětní kříž","P131^label:cs":"Nýřany","P6736":"23170"},"geometry":{"type":"Point","coordinates":[13.18796,49.74515]}},{"type":"Feature","properties":{"label:cs":"Křížový kámen v Doubravě","P31":"http://www.wikidata.org/entity/Q38411643","P31^label:cs":"Křížový kámen","P131^label:cs":"Nýřany","P6736":"4685"},"geometry":{"type":"Point","coordinates":[13.18979,49.74677]}},{"type":"Feature","properties":{"label:cs":"Socha svatého Jana Nepomuckého v Doubravě","P31":"http://www.wikidata.org/entity/Q179700","P31^label:cs":"Socha","P131^label:cs":"Nýřany","P6736":"4684"},"geometry":{"type":"Point","coordinates":[13.18983,49.7467]}},{"type":"Feature","properties":{"label:cs":"Kříž v Doubravě - nenalezeno","P31":"http://www.wikidata.org/entity/?","P31^label:cs":"Nenalezena","P131^label:cs":"Nýřany","P6736":"4683"},"geometry":{"type":"Point","coordinates":[13.18968,49.74595]}},{"type":"Feature","properties":{"label:cs":"Památník svobody v Doubravě","P31":"http://www.wikidata.org/entity/Q5003624","P31^label:cs":"Památník","P131^label:cs":"Nýřany","P6736":"4681"},"geometry":{"type":"Point","coordinates":[13.18921,49.74596]}},{"type":"Feature","properties":{"label:cs":"Kaple v Doubravě","P31":"http://www.wikidata.org/entity/Q108325","P31^label:cs":"Kaple","P131^label:cs":"Nýřany","P6736":"4680"},"geometry":{"type":"Point","coordinates":[13.18841,49.74554]}}]}