{"type":"FeatureCollection","features":[{"type":"Feature","properties":{"label:cs":"Památka u křižovatky v Újezdu nade Mží - nenalezeno","P31":"http://www.wikidata.org/entity/?","P31^label:cs":"Nenalezena","P131^label:cs":"Újezd nade Mží","P6736":"38941"},"geometry":{"type":"Point","coordinates":[13.1963,49.78802]}},{"type":"Feature","properties":{"label:cs":"Památka západně od Újezdu nade Mží - nenalezeno","P31":"http://www.wikidata.org/entity/?","P31^label:cs":"Nenalezena","P131^label:cs":"Újezd nade Mží","P6736":"35762"},"geometry":{"type":"Point","coordinates":[13.18976,49.78924]}},{"type":"Feature","properties":{"label:cs":"Socha svatého Jana Nepomuckého u Újezdu nade Mží","P31":"http://www.wikidata.org/entity/Q179700","P31^label:cs":"Socha","P131^label:cs":"Újezd nade Mží","P6736":"6828"},"geometry":{"type":"Point","coordinates":[13.19735,49.78614]}},{"type":"Feature","properties":{"label:cs":"Socha svatého Floriána v Újezdu nade Mží","P31":"http://www.wikidata.org/entity/Q179700","P31^label:cs":"Socha","P131^label:cs":"Újezd nade Mží","P6736":"6827"},"geometry":{"type":"Point","coordinates":[13.19528,49.78813]}},{"type":"Feature","properties":{"label:cs":"Kříž v Újezdu nade Mží u zámku","P31":"http://www.wikidata.org/entity/Q2309609","P31^label:cs":"Pamětní kříž","P131^label:cs":"Újezd nade Mží","P6736":"4943"},"geometry":{"type":"Point","coordinates":[13.19515,49.78834]}},{"type":"Feature","properties":{"label:cs":"Kříž u Újezdu nade Mží","P31":"http://www.wikidata.org/entity/Q2309609","P31^label:cs":"Pamětní kříž","P131^label:cs":"Újezd nade Mží","P6736":"4177"},"geometry":{"type":"Point","coordinates":[13.19622,49.7914]}},{"type":"Feature","properties":{"label:cs":"Kaple Panny Marie v Újezdu nade Mží","P31":"http://www.wikidata.org/entity/Q108325","P31^label:cs":"Kaple","P131^label:cs":"Újezd nade Mží","P6736":"4176"},"geometry":{"type":"Point","coordinates":[13.19538,49.78882]}},{"type":"Feature","properties":{"label:cs":"Boží muka u Újezdu nade Mží","P31":"http://www.wikidata.org/entity/Q3395121","P31^label:cs":"Boží muka","P131^label:cs":"Újezd nade Mží","P6736":"2701"},"geometry":{"type":"Point","coordinates":[13.20116,49.78814]}}]}