{"type":"FeatureCollection","features":[{"type":"Feature","properties":{"label:cs":"Socha svatého Jana Nepomuckého u Újezdu nade Mží","P31":"Q179700","P31^label:cs":"Socha","P131^label:cs":"Újezd nade Mží","P6736":"6828"},"geometry":{"type":"Point","coordinates":[13.19733,49.78616]}},{"type":"Feature","properties":{"label:cs":"Socha svatého Floriána v Újezdu nade Mží","P31":"Q179700","P31^label:cs":"Socha","P131^label:cs":"Újezd nade Mží","P6736":"6827"},"geometry":{"type":"Point","coordinates":[13.19528,49.78813]}},{"type":"Feature","properties":{"label:cs":"Kříž v Újezdu nade Mží u zámku","P31":"Q2309609","P31^label:cs":"Pamětní kříž","P131^label:cs":"Újezd nade Mží","P6736":"4943"},"geometry":{"type":"Point","coordinates":[13.19515,49.78834]}},{"type":"Feature","properties":{"label:cs":"Kříž u Újezdu nade Mží","P31":"Q2309609","P31^label:cs":"Pamětní kříž","P131^label:cs":"Újezd nade Mží","P6736":"4177"},"geometry":{"type":"Point","coordinates":[13.19624,49.79145]}},{"type":"Feature","properties":{"label:cs":"Kaple v Újezdu nade Mží","P31":"Q108325","P31^label:cs":"Kaple","P131^label:cs":"Újezd nade Mží","P6736":"4176"},"geometry":{"type":"Point","coordinates":[13.19538,49.78882]}},{"type":"Feature","properties":{"label:cs":"Boží muka u Újezdu nade Mží","P31":"Q3395121","P31^label:cs":"Boží muka","P131^label:cs":"Újezd nade Mží","P6736":"2701"},"geometry":{"type":"Point","coordinates":[13.20115,49.78812]}}]}