{"type":"FeatureCollection","features":[{"type":"Feature","properties":{"label:cs":"Kaplička východně od Merklína","P31":"Kaplička","P31^label:cs":"Kaplička","P131^label:cs":"Merklín","P6736":"3657"},"geometry":{"type":"Point","coordinates":[13.20155,49.56356]}},{"type":"Feature","properties":{"label:cs":"Tři kříže nad Merklínem","P31":"Pamětní kříž","P31^label:cs":"Pamětní kříž","P131^label:cs":"Merklín","P6736":"3656"},"geometry":{"type":"Point","coordinates":[13.20426,49.56152]}},{"type":"Feature","properties":{"label:cs":"Socha svatého Notburga u kostela v Merklíně","P31":"Socha","P31^label:cs":"Socha","P131^label:cs":"Merklín","P6736":"3655"},"geometry":{"type":"Point","coordinates":[13.19925,49.56186]}},{"type":"Feature","properties":{"label:cs":"Socha svatého Floriana u kostela v Merklíně","P31":"Socha","P31^label:cs":"Socha","P131^label:cs":"Merklín","P6736":"3654"},"geometry":{"type":"Point","coordinates":[13.19913,49.56183]}},{"type":"Feature","properties":{"label:cs":"Kaplička jižně od Merklína","P31":"Kaplička","P31^label:cs":"Kaplička","P131^label:cs":"Merklín","P6736":"3652"},"geometry":{"type":"Point","coordinates":[13.19974,49.55975]}},{"type":"Feature","properties":{"label:cs":"Socha svatého Jana Nepomuckého v Merklíně","P31":"Socha","P31^label:cs":"Socha","P131^label:cs":"Merklín","P6736":"3651"},"geometry":{"type":"Point","coordinates":[13.19942,49.55958]}},{"type":"Feature","properties":{"label:cs":"Pomník padlým v Merklíně","P31":"Pomník padlým","P31^label:cs":"Pomník padlým","P131^label:cs":"Merklín","P6736":"3650"},"geometry":{"type":"Point","coordinates":[13.19856,49.56039]}},{"type":"Feature","properties":{"label:cs":"Socha svatého Gotharda západně od Merklína","P31":"Socha","P31^label:cs":"Socha","P131^label:cs":"Merklín","P6736":"3649"},"geometry":{"type":"Point","coordinates":[13.19178,49.55606]}},{"type":"Feature","properties":{"label:cs":"Socha svaté Anny v Merklíně","P31":"Socha","P31^label:cs":"Socha","P131^label:cs":"Merklín","P6736":"3645"},"geometry":{"type":"Point","coordinates":[13.19696,49.56202]}},{"type":"Feature","properties":{"label:cs":"Kříž západně od Merklína","P31":"Pamětní kříž","P31^label:cs":"Pamětní kříž","P131^label:cs":"Merklín","P6736":"3641"},"geometry":{"type":"Point","coordinates":[13.18971,49.55728]}},{"type":"Feature","properties":{"label:cs":"Kříž v centru Merklína","P31":"Pamětní kříž","P31^label:cs":"Pamětní kříž","P131^label:cs":"Merklín","P6736":"3640"},"geometry":{"type":"Point","coordinates":[13.19747,49.56117]}},{"type":"Feature","properties":{"label:cs":"Socha svatého Vavřince v Merklíně","P31":"Socha","P31^label:cs":"Socha","P131^label:cs":"Merklín","P6736":"3639"},"geometry":{"type":"Point","coordinates":[13.19454,49.56501]}}]}