{"type":"FeatureCollection","features":[{"type":"Feature","properties":{"label:cs":"Kříž jihozápadně od kaple v Doubravě","P31":"Pamětní kříž","P31^label:cs":"Pamětní kříž","P131^label:cs":"Nýřany","P6736":"23170"},"geometry":{"type":"Point","coordinates":[13.18796,49.74515]}},{"type":"Feature","properties":{"label:cs":"Křížový kámen v Doubravě","P31":"Křížový kámen","P31^label:cs":"Křížový kámen","P131^label:cs":"Nýřany","P6736":"4685"},"geometry":{"type":"Point","coordinates":[13.18979,49.74677]}},{"type":"Feature","properties":{"label:cs":"Socha svatého Jana Nepomuckého v Doubravě","P31":"Socha","P31^label:cs":"Socha","P131^label:cs":"Nýřany","P6736":"4684"},"geometry":{"type":"Point","coordinates":[13.18982,49.74674]}},{"type":"Feature","properties":{"label:cs":"Kříž v Doubravě","P31":"Pamětní kříž","P31^label:cs":"Pamětní kříž","P131^label:cs":"Nýřany","P6736":"4683"},"geometry":{"type":"Point","coordinates":[13.18968,49.74595]}},{"type":"Feature","properties":{"label:cs":"Památník svobody v Doubravě","P31":"Památník","P31^label:cs":"Památník","P131^label:cs":"Nýřany","P6736":"4681"},"geometry":{"type":"Point","coordinates":[13.18921,49.74596]}},{"type":"Feature","properties":{"label:cs":"Kaple v Doubravě","P31":"Kaple","P31^label:cs":"Kaple","P131^label:cs":"Nýřany","P6736":"4680"},"geometry":{"type":"Point","coordinates":[13.18841,49.74554]}}]}