{"type":"FeatureCollection","features":[{"type":"Feature","properties":{"label:cs":"Kříž u Kámena","P31":"http://www.wikidata.org/entity/Q2309609","P31^label:cs":"Pamětní kříž","P131^label:cs":"Křenice","P6736":"3334"},"geometry":{"type":"Point","coordinates":[13.21207,49.49633]}},{"type":"Feature","properties":{"label:cs":"Kaple v Kámenu","P31":"http://www.wikidata.org/entity/Q108325","P31^label:cs":"Kaple","P131^label:cs":"Křenice","P6736":"3333"},"geometry":{"type":"Point","coordinates":[13.21311,49.49477]}},{"type":"Feature","properties":{"label:cs":"Kříž západně od Ježov","P31":"http://www.wikidata.org/entity/Q2309609","P31^label:cs":"Pamětní kříž","P131^label:cs":"Ježovy","P6736":"3331"},"geometry":{"type":"Point","coordinates":[13.22067,49.48783]}},{"type":"Feature","properties":{"label:cs":"Kříž v Ježovech","P31":"http://www.wikidata.org/entity/Q2309609","P31^label:cs":"Pamětní kříž","P131^label:cs":"Ježovy","P6736":"3330"},"geometry":{"type":"Point","coordinates":[13.2262,49.49123]}},{"type":"Feature","properties":{"label:cs":"Kříž severně od Ježov","P31":"http://www.wikidata.org/entity/Q2309609","P31^label:cs":"Pamětní kříž","P131^label:cs":"Ježovy","P6736":"3329"},"geometry":{"type":"Point","coordinates":[13.22579,49.49458]}}]}