{"type":"FeatureCollection","features":[{"type":"Feature","properties":{"label:cs":"Pamětní kříž u Vladořic","P31":"Q2309609","P31^label:cs":"Pamětní kříž","P131^label:cs":"Žlutice","P6736":"11885"},"geometry":{"type":"Point","coordinates":[13.21112,50.07315]}},{"type":"Feature","properties":{"label:cs":"Kříž východně od Vladořic u studánky Pod Vladařem","P31":"Q2309609","P31^label:cs":"Pamětní kříž","P131^label:cs":"Žlutice","P6736":"3598"},"geometry":{"type":"Point","coordinates":[13.21652,50.07322]}},{"type":"Feature","properties":{"label:cs":"Sousoší piety u Vladořic","P31":"Q179700","P31^label:cs":"Socha","P131^label:cs":"Žlutice","P6736":"3597"},"geometry":{"type":"Point","coordinates":[13.21279,50.0726]}},{"type":"Feature","properties":{"label:cs":"Kříž u křižovatky východně od Vladořic","P31":"Q2309609","P31^label:cs":"Pamětní kříž","P131^label:cs":"Žlutice","P6736":"3596"},"geometry":{"type":"Point","coordinates":[13.21376,50.07209]}},{"type":"Feature","properties":{"label:cs":"Socha svatého Jana Nepomuckého jižně od Vladořic","P31":"Q179700","P31^label:cs":"Socha","P131^label:cs":"Žlutice","P6736":"3595"},"geometry":{"type":"Point","coordinates":[13.21326,50.07132]}}]}