{"type":"FeatureCollection","features":[{"type":"Feature","properties":{"label:cs":"Kříž západně od Manětína","P31":"http://www.wikidata.org/entity/Q2309609","P31^label:cs":"Pamětní kříž","P131^label:cs":"Manětín","P6736":"2013"},"geometry":{"type":"Point","coordinates":[13.2197,49.99279]}},{"type":"Feature","properties":{"label:cs":"Kaplička u Manětína","P31":"http://www.wikidata.org/entity/Q14552192","P31^label:cs":"Kaplička","P131^label:cs":"Manětín","P6736":"2014"},"geometry":{"type":"Point","coordinates":[13.22434,49.99237]}},{"type":"Feature","properties":{"label:cs":"Kříž jihozápadně od Manětína","P31":"http://www.wikidata.org/entity/Q2309609","P31^label:cs":"Pamětní kříž","P131^label:cs":"Manětín","P6736":"4195"},"geometry":{"type":"Point","coordinates":[13.22183,49.98296]}},{"type":"Feature","properties":{"label:cs":"Socha Panny Marie v západní části Manětína","P31":"http://www.wikidata.org/entity/Q179700","P31^label:cs":"Socha","P131^label:cs":"Manětín","P6736":"5579"},"geometry":{"type":"Point","coordinates":[13.22689,49.99166]}},{"type":"Feature","properties":{"label:cs":"Socha svatého Vojtěcha v Manětíně","P31":"http://www.wikidata.org/entity/Q179700","P31^label:cs":"Socha","P131^label:cs":"Manětín","P6736":"5581"},"geometry":{"type":"Point","coordinates":[13.22667,49.99147]}},{"type":"Feature","properties":{"label:cs":"Socha svatého Martina v Manětíně","P31":"http://www.wikidata.org/entity/Q179700","P31^label:cs":"Socha","P131^label:cs":"Manětín","P6736":"5582"},"geometry":{"type":"Point","coordinates":[13.22661,49.99154]}},{"type":"Feature","properties":{"label:cs":"Kříž západně od Manětína","P31":"http://www.wikidata.org/entity/Q2309609","P31^label:cs":"Pamětní kříž","P131^label:cs":"Manětín","P6736":"7970"},"geometry":{"type":"Point","coordinates":[13.21133,49.99128]}},{"type":"Feature","properties":{"label:cs":"Kříž nad Manětínem","P31":"http://www.wikidata.org/entity/Q2309609","P31^label:cs":"Pamětní kříž","P131^label:cs":"Manětín","P6736":"2010"},"geometry":{"type":"Point","coordinates":[13.22753,49.9832]}}]}