{"type":"FeatureCollection","features":[{"type":"Feature","properties":{"label:cs":"Socha svatého Floriána v Bdeněvsi - nenalezeno","P31":"http://www.wikidata.org/entity/?","P31^label:cs":"Nenalezena","P131^label:cs":"Bdeněves","P6736":"40521"},"geometry":{"type":"Point","coordinates":[13.23495,49.76952]}},{"type":"Feature","properties":{"label:cs":"Socha svatého Jana Nepomuckého východně od Bdeněvsi - nenalezeno","P31":"http://www.wikidata.org/entity/?","P31^label:cs":"Nenalezena","P131^label:cs":"Bdeněves","P6736":"39034"},"geometry":{"type":"Point","coordinates":[13.24074,49.76785]}},{"type":"Feature","properties":{"label:cs":"Socha svatého Jiří v Bdeněvsi - nenalezeno","P31":"http://www.wikidata.org/entity/?","P31^label:cs":"Nenalezena","P131^label:cs":"Bdeněves","P6736":"38849"},"geometry":{"type":"Point","coordinates":[13.23815,49.76945]}},{"type":"Feature","properties":{"label:cs":"Kaple v Bdeněvsi","P31":"http://www.wikidata.org/entity/Q108325","P31^label:cs":"Kaple","P131^label:cs":"Bdeněves","P6736":"4025"},"geometry":{"type":"Point","coordinates":[13.2348,49.76952]}},{"type":"Feature","properties":{"label:cs":"Památník americké armády ve Městě Touškov","P31":"http://www.wikidata.org/entity/Q5003624","P31^label:cs":"Památník","P131^label:cs":"Město Touškov","P6736":"40366"},"geometry":{"type":"Point","coordinates":[13.24475,49.77837]}},{"type":"Feature","properties":{"label:cs":"Památka v západní části Města Touškov - nenalezeno","P31":"http://www.wikidata.org/entity/?","P31^label:cs":"Nenalezena","P131^label:cs":"Město Touškov","P6736":"39039"},"geometry":{"type":"Point","coordinates":[13.24277,49.77594]}},{"type":"Feature","properties":{"label:cs":"Pomník rudoarmějce ve Městě Touškov","P31":"http://www.wikidata.org/entity/Q4989906","P31^label:cs":"Pomník","P131^label:cs":"Město Touškov","P6736":"9401"},"geometry":{"type":"Point","coordinates":[13.24468,49.77838]}},{"type":"Feature","properties":{"label:cs":"Kaple Svatého Kříže ve Městě Touškov","P31":"http://www.wikidata.org/entity/Q108325","P31^label:cs":"Kaple","P131^label:cs":"Město Touškov","P6736":"8297"},"geometry":{"type":"Point","coordinates":[13.24398,49.77803]}},{"type":"Feature","properties":{"label:cs":"Kříž u kostela ve Městě Touškov","P31":"http://www.wikidata.org/entity/Q2309609","P31^label:cs":"Pamětní kříž","P131^label:cs":"Město Touškov","P6736":"8015"},"geometry":{"type":"Point","coordinates":[13.24771,49.77449]}},{"type":"Feature","properties":{"label:cs":"Sloup sousoší Nejsvětější Trojice ve Městě Touškov","P31":"http://www.wikidata.org/entity/Q4817","P31^label:cs":"Sloup","P131^label:cs":"Město Touškov","P6736":"4024"},"geometry":{"type":"Point","coordinates":[13.24934,49.77423]}},{"type":"Feature","properties":{"label:cs":"Památník obětem I. a II. odboje ve Městě Touškov","P31":"http://www.wikidata.org/entity/Q5003624","P31^label:cs":"Památník","P131^label:cs":"Město Touškov","P6736":"4022"},"geometry":{"type":"Point","coordinates":[13.24473,49.77842]}},{"type":"Feature","properties":{"label:cs":"Kaple Panny Marie ve Městě Touškov","P31":"http://www.wikidata.org/entity/Q108325","P31^label:cs":"Kaple","P131^label:cs":"Město Touškov","P6736":"2970"},"geometry":{"type":"Point","coordinates":[13.24732,49.77807]}},{"type":"Feature","properties":{"label:cs":"Socha svatého Jana Nepomuckého jižně od Města Touškov","P31":"http://www.wikidata.org/entity/Q179700","P31^label:cs":"Socha","P131^label:cs":"Město Touškov","P6736":"2037"},"geometry":{"type":"Point","coordinates":[13.24762,49.77165]}}]}