{"type":"FeatureCollection","features":[{"type":"Feature","properties":{"label:cs":"Pomník rudoarmějce ve Městě Touškov","P31":"Q4989906","P31^label:cs":"Pomník","P131^label:cs":"Město Touškov","P6736":"9401"},"geometry":{"type":"Point","coordinates":[13.24468,49.77838]}},{"type":"Feature","properties":{"label:cs":"Hřbitovní kaple ve Městě Touškov","P31":"Q108325","P31^label:cs":"Kaple","P131^label:cs":"Město Touškov","P6736":"8297"},"geometry":{"type":"Point","coordinates":[13.24398,49.77803]}},{"type":"Feature","properties":{"label:cs":"Kříž u kostela ve Městě Touškov","P31":"Q2309609","P31^label:cs":"Pamětní kříž","P131^label:cs":"Město Touškov","P6736":"8015"},"geometry":{"type":"Point","coordinates":[13.24771,49.77449]}},{"type":"Feature","properties":{"label:cs":"Kaple v Bdeněvsi","P31":"Q108325","P31^label:cs":"Kaple","P131^label:cs":"Bdeněves","P6736":"4025"},"geometry":{"type":"Point","coordinates":[13.2348,49.76952]}},{"type":"Feature","properties":{"label:cs":"Sloup sousoší Nejsvětější Trojice ve Městě Touškov","P31":"Q4817","P31^label:cs":"Sloup","P131^label:cs":"Město Touškov","P6736":"4024"},"geometry":{"type":"Point","coordinates":[13.24934,49.77423]}},{"type":"Feature","properties":{"label:cs":"Památník obětem I. a II. odboje ve Městě Touškov","P31":"Q5003624","P31^label:cs":"Památník","P131^label:cs":"Město Touškov","P6736":"4022"},"geometry":{"type":"Point","coordinates":[13.24473,49.77842]}},{"type":"Feature","properties":{"label:cs":"Kaple ve Městě Touškov v Partyzánské ulici","P31":"Q108325","P31^label:cs":"Kaple","P131^label:cs":"Město Touškov","P6736":"2970"},"geometry":{"type":"Point","coordinates":[13.24732,49.77807]}},{"type":"Feature","properties":{"label:cs":"Socha svatého Jana Nepomuckého jižně od Města Touškov","P31":"Q179700","P31^label:cs":"Socha","P131^label:cs":"Město Touškov","P6736":"2037"},"geometry":{"type":"Point","coordinates":[13.24762,49.77165]}}]}