{"type":"FeatureCollection","features":[{"type":"Feature","properties":{"label:cs":"Socha svatého Šebestiána v parku před zámkem v Chyši","P31":"Socha","P31^label:cs":"Socha","P131^label:cs":"Chyše","P6736":"13795"},"geometry":{"type":"Point","coordinates":[13.24735,50.10536]}},{"type":"Feature","properties":{"label:cs":"Socha svatého Josefa v parku před zámkem v Chyši","P31":"Socha","P31^label:cs":"Socha","P131^label:cs":"Chyše","P6736":"13794"},"geometry":{"type":"Point","coordinates":[13.24751,50.10528]}},{"type":"Feature","properties":{"label:cs":"Socha svatého Vojtěcha v parku před zámkem v Chyši","P31":"Socha","P31^label:cs":"Socha","P131^label:cs":"Chyše","P6736":"13793"},"geometry":{"type":"Point","coordinates":[13.24747,50.1053]}},{"type":"Feature","properties":{"label:cs":"Busta Karla Čapka v parku před zámkem Chyše","P31":"Socha","P31^label:cs":"Socha","P131^label:cs":"Chyše","P6736":"13792"},"geometry":{"type":"Point","coordinates":[13.2471,50.10546]}},{"type":"Feature","properties":{"label:cs":"Kaplička v Chyši západně od náměstí","P31":"Kaplička","P31^label:cs":"Kaplička","P131^label:cs":"Chyše","P6736":"7836"},"geometry":{"type":"Point","coordinates":[13.2443,50.10458]}},{"type":"Feature","properties":{"label:cs":"Kašna v Chyši na náměstí","P31":"Kašna","P31^label:cs":"Kašna","P131^label:cs":"Chyše","P6736":"7834"},"geometry":{"type":"Point","coordinates":[13.24849,50.10467]}},{"type":"Feature","properties":{"label:cs":"Kříž v Chyši na náměstí","P31":"Pamětní kříž","P31^label:cs":"Pamětní kříž","P131^label:cs":"Chyše","P6736":"7835"},"geometry":{"type":"Point","coordinates":[13.24821,50.10465]}}]}