{"type":"FeatureCollection","features":[{"type":"Feature","properties":{"label:cs":"Kříž v západní části Vodního Újezdu","P31":"http://www.wikidata.org/entity/Q2309609","P31^label:cs":"Pamětní kříž","P131^label:cs":"Dobřany","P6736":"34528"},"geometry":{"type":"Point","coordinates":[13.25418,49.65817]}},{"type":"Feature","properties":{"label:cs":"kříž u kaple ve Vodním Újezdu","P31":"http://www.wikidata.org/entity/Q2309609","P31^label:cs":"Pamětní kříž","P131^label:cs":"Dobřany","P6736":"34527"},"geometry":{"type":"Point","coordinates":[13.25842,49.65777]}},{"type":"Feature","properties":{"label:cs":"Kaple ve Vodním Újezdu","P31":"http://www.wikidata.org/entity/Q108325","P31^label:cs":"Kaple","P131^label:cs":"Dobřany","P6736":"34526"},"geometry":{"type":"Point","coordinates":[13.25848,49.65779]}},{"type":"Feature","properties":{"label:cs":"Boží muka ve Vodním Újezdu","P31":"http://www.wikidata.org/entity/Q3395121","P31^label:cs":"Boží muka","P131^label:cs":"Dobřany","P6736":"34525"},"geometry":{"type":"Point","coordinates":[13.26006,49.65717]}},{"type":"Feature","properties":{"label:cs":"Kříž u rozcestí ve Vodním Újezdu","P31":"http://www.wikidata.org/entity/Q2309609","P31^label:cs":"Pamětní kříž","P131^label:cs":"Dobřany","P6736":"34524"},"geometry":{"type":"Point","coordinates":[13.26149,49.65673]}}]}