{"type":"FeatureCollection","features":[{"type":"Feature","properties":{"label:cs":"Památka severozápadně od Lítého - nenalezeno","P31":"http://www.wikidata.org/entity/?","P31^label:cs":"Nenalezena","P131^label:cs":"Líté","P6736":"36101"},"geometry":{"type":"Point","coordinates":[13.25223,49.91837]}},{"type":"Feature","properties":{"label:cs":"Boží muka v Lítém","P31":"http://www.wikidata.org/entity/Q3395121","P31^label:cs":"Boží muka","P131^label:cs":"Líté","P6736":"10268"},"geometry":{"type":"Point","coordinates":[13.2606,49.91594]}},{"type":"Feature","properties":{"label:cs":"Kříž západně od kaple u Lítého","P31":"http://www.wikidata.org/entity/Q2309609","P31^label:cs":"Pamětní kříž","P131^label:cs":"Líté","P6736":"8318"},"geometry":{"type":"Point","coordinates":[13.26088,49.92094]}},{"type":"Feature","properties":{"label:cs":"Pomník padlým v Lítém","P31":"http://www.wikidata.org/entity/Q575759","P31^label:cs":"Pomník padlým","P131^label:cs":"Líté","P6736":"4408"},"geometry":{"type":"Point","coordinates":[13.26162,49.91446]}},{"type":"Feature","properties":{"label:cs":"Kříž u kaple severně od Lítého","P31":"http://www.wikidata.org/entity/Q2309609","P31^label:cs":"Pamětní kříž","P131^label:cs":"Líté","P6736":"3558"},"geometry":{"type":"Point","coordinates":[13.26122,49.92087]}},{"type":"Feature","properties":{"label:cs":"Kaple Františka Trylče severně od Lítého","P31":"http://www.wikidata.org/entity/Q108325","P31^label:cs":"Kaple","P131^label:cs":"Líté","P6736":"3557"},"geometry":{"type":"Point","coordinates":[13.26122,49.92093]}},{"type":"Feature","properties":{"label:cs":"Kříž v Lítém","P31":"http://www.wikidata.org/entity/Q2309609","P31^label:cs":"Pamětní kříž","P131^label:cs":"Líté","P6736":"3556"},"geometry":{"type":"Point","coordinates":[13.26367,49.915]}},{"type":"Feature","properties":{"label:cs":"Kaple v Lítém","P31":"http://www.wikidata.org/entity/Q108325","P31^label:cs":"Kaple","P131^label:cs":"Líté","P6736":"3555"},"geometry":{"type":"Point","coordinates":[13.26083,49.91374]}},{"type":"Feature","properties":{"label:cs":"Kříž v jižní části Lítého","P31":"http://www.wikidata.org/entity/Q2309609","P31^label:cs":"Pamětní kříž","P131^label:cs":"Líté","P6736":"3554"},"geometry":{"type":"Point","coordinates":[13.26027,49.91209]}},{"type":"Feature","properties":{"label:cs":"Kaple u obory západně od Lítého","P31":"http://www.wikidata.org/entity/Q108325","P31^label:cs":"Kaple","P131^label:cs":"Líté","P6736":"1958"},"geometry":{"type":"Point","coordinates":[13.25153,49.91084]}},{"type":"Feature","properties":{"label:cs":"Pomník severozápadně od Litého","P31":"http://www.wikidata.org/entity/Q4989906","P31^label:cs":"Pomník","P131^label:cs":"Manětín","P6736":"8317"},"geometry":{"type":"Point","coordinates":[13.25317,49.92063]}}]}