{"type":"FeatureCollection","features":[{"type":"Feature","properties":{"label:cs":"Goethova pamětní deska na hradě Hasištejn","P31":"http://www.wikidata.org/entity/Q721747","P31^label:cs":"Pamětní deska","P131^label:cs":"Místo","P6736":"39041"},"geometry":{"type":"Point","coordinates":[13.25735,50.44498]}},{"type":"Feature","properties":{"label:cs":"Mariánský sloup u hřbitova v Místě","P31":"http://www.wikidata.org/entity/Q4817","P31^label:cs":"Sloup","P131^label:cs":"Místo","P6736":"32401"},"geometry":{"type":"Point","coordinates":[13.26991,50.44527]}},{"type":"Feature","properties":{"label:cs":"Kamenný kříž u hřbitova v Místě","P31":"http://www.wikidata.org/entity/Q2309609","P31^label:cs":"Pamětní kříž","P131^label:cs":"Místo","P6736":"32400"},"geometry":{"type":"Point","coordinates":[13.26956,50.44578]}},{"type":"Feature","properties":{"label:cs":"Sloup božích muk u hřbitova v Místě","P31":"http://www.wikidata.org/entity/Q3395121","P31^label:cs":"Boží muka","P131^label:cs":"Místo","P6736":"32399"},"geometry":{"type":"Point","coordinates":[13.26945,50.44563]}},{"type":"Feature","properties":{"label:cs":"Sloup s ukřižovaným Ježíšem u hřbitova v Místě","P31":"http://www.wikidata.org/entity/Q4817","P31^label:cs":"Sloup","P131^label:cs":"Místo","P6736":"32398"},"geometry":{"type":"Point","coordinates":[13.26933,50.44552]}},{"type":"Feature","properties":{"label:cs":"Socha svatého Jana Nepomuckého u hřbitova v Místě","P31":"http://www.wikidata.org/entity/Q179700","P31^label:cs":"Socha","P131^label:cs":"Místo","P6736":"32397"},"geometry":{"type":"Point","coordinates":[13.26932,50.44538]}},{"type":"Feature","properties":{"label:cs":"Kříž u kostela v Místě","P31":"http://www.wikidata.org/entity/Q2309609","P31^label:cs":"Pamětní kříž","P131^label:cs":"Místo","P6736":"32378"},"geometry":{"type":"Point","coordinates":[13.26782,50.44621]}},{"type":"Feature","properties":{"label:cs":"Odpočivný kámen před hradem Hasištejn","P31":"http://www.wikidata.org/entity/Q11734477","P31^label:cs":"Památný kámen","P131^label:cs":"Místo","P6736":"32376"},"geometry":{"type":"Point","coordinates":[13.25766,50.44583]}},{"type":"Feature","properties":{"label:cs":"Sloup božích muk na severním okraji Místa","P31":"http://www.wikidata.org/entity/Q3395121","P31^label:cs":"Boží muka","P131^label:cs":"Místo","P6736":"32374"},"geometry":{"type":"Point","coordinates":[13.26037,50.45073]}},{"type":"Feature","properties":{"label:cs":"Boží muka před hradem Hasištejn","P31":"http://www.wikidata.org/entity/Q3395121","P31^label:cs":"Boží muka","P131^label:cs":"Místo","P6736":"13708"},"geometry":{"type":"Point","coordinates":[13.25743,50.44586]}},{"type":"Feature","properties":{"label:cs":"Kříž u parkoviště u Hasištejna","P31":"http://www.wikidata.org/entity/Q2309609","P31^label:cs":"Pamětní kříž","P131^label:cs":"Místo","P6736":"13707"},"geometry":{"type":"Point","coordinates":[13.25686,50.44704]}},{"type":"Feature","properties":{"label:cs":"Socha svatého Floriána v Místě","P31":"http://www.wikidata.org/entity/Q179700","P31^label:cs":"Socha","P131^label:cs":"Místo","P6736":"13706"},"geometry":{"type":"Point","coordinates":[13.26049,50.44775]}},{"type":"Feature","properties":{"label:cs":"Boží muka v Místě u rozcestí k Hasištejnu","P31":"http://www.wikidata.org/entity/Q3395121","P31^label:cs":"Boží muka","P131^label:cs":"Místo","P6736":"13705"},"geometry":{"type":"Point","coordinates":[13.26258,50.44796]}},{"type":"Feature","properties":{"label:cs":"Sloup s ukřižovaným Ježíšem u kostela v Místě","P31":"http://www.wikidata.org/entity/Q4817","P31^label:cs":"Sloup","P131^label:cs":"Místo","P6736":"13704"},"geometry":{"type":"Point","coordinates":[13.26752,50.44619]}},{"type":"Feature","properties":{"label:cs":"Sloup Nejsvětější Trojice u kostela v Místě","P31":"http://www.wikidata.org/entity/Q4817","P31^label:cs":"Sloup","P131^label:cs":"Místo","P6736":"13703"},"geometry":{"type":"Point","coordinates":[13.26768,50.44608]}},{"type":"Feature","properties":{"label:cs":"Pomník padlým z 2. světové války v Místě","P31":"http://www.wikidata.org/entity/Q575759","P31^label:cs":"Pomník padlým","P131^label:cs":"Místo","P6736":"9078"},"geometry":{"type":"Point","coordinates":[13.26659,50.44748]}},{"type":"Feature","properties":{"label:cs":"Kříž na jižním okraji Vysoké Jedle","P31":"http://www.wikidata.org/entity/Q2309609","P31^label:cs":"Pamětní kříž","P131^label:cs":"Místo","P6736":"32373"},"geometry":{"type":"Point","coordinates":[13.26306,50.45415]}},{"type":"Feature","properties":{"label:cs":"Kaple Panny Marie ve Vysoké Jedli","P31":"http://www.wikidata.org/entity/Q108325","P31^label:cs":"Kaple","P131^label:cs":"Místo","P6736":"32372"},"geometry":{"type":"Point","coordinates":[13.26412,50.45454]}}]}