{"type":"FeatureCollection","features":[{"type":"Feature","properties":{"label:cs":"Pamětní deska zrušení nevolnictví ve Valči","P31":"http://www.wikidata.org/entity/Q721747","P31^label:cs":"Pamětní deska","P131^label:cs":"Valeč","P6736":"38137"},"geometry":{"type":"Point","coordinates":[13.25396,50.17481]}},{"type":"Feature","properties":{"label:cs":"Sochy na schodišti k zámku ve Valči před východním průčelím","P31":"http://www.wikidata.org/entity/Q179700","P31^label:cs":"Socha","P131^label:cs":"Valeč","P6736":"38136"},"geometry":{"type":"Point","coordinates":[13.25185,50.17446]}},{"type":"Feature","properties":{"label:cs":"Socha na terase zámku ve Valči před východním průčelím","P31":"http://www.wikidata.org/entity/Q179700","P31^label:cs":"Socha","P131^label:cs":"Valeč","P6736":"38135"},"geometry":{"type":"Point","coordinates":[13.25172,50.17452]}},{"type":"Feature","properties":{"label:cs":"Socha v zámeckém parku ve Valči u bývalého pivovaru","P31":"http://www.wikidata.org/entity/Q179700","P31^label:cs":"Socha","P131^label:cs":"Valeč","P6736":"38134"},"geometry":{"type":"Point","coordinates":[13.25136,50.17469]}},{"type":"Feature","properties":{"label:cs":"Socha v dolní části vodní kaskády v zámeckém parku ve Valči","P31":"http://www.wikidata.org/entity/Q179700","P31^label:cs":"Socha","P131^label:cs":"Valeč","P6736":"38133"},"geometry":{"type":"Point","coordinates":[13.24994,50.17603]}},{"type":"Feature","properties":{"label:cs":"Barokní podstavec v zámeckém parku ve Valči","P31":"http://www.wikidata.org/entity/?","P31^label:cs":"Neznámý","P131^label:cs":"Valeč","P6736":"38033"},"geometry":{"type":"Point","coordinates":[13.25072,50.17447]}},{"type":"Feature","properties":{"label:cs":"Socha Siléna v zámeckém parku ve Valči","P31":"http://www.wikidata.org/entity/Q179700","P31^label:cs":"Socha","P131^label:cs":"Valeč","P6736":"37991"},"geometry":{"type":"Point","coordinates":[13.25048,50.17478]}},{"type":"Feature","properties":{"label:cs":"Socha Olympa v zámeckém parku ve Valči","P31":"http://www.wikidata.org/entity/Q179700","P31^label:cs":"Socha","P131^label:cs":"Valeč","P6736":"37990"},"geometry":{"type":"Point","coordinates":[13.25062,50.17495]}},{"type":"Feature","properties":{"label:cs":"Socha Satyra v zámeckém parku ve Valči","P31":"http://www.wikidata.org/entity/Q179700","P31^label:cs":"Socha","P131^label:cs":"Valeč","P6736":"37989"},"geometry":{"type":"Point","coordinates":[13.25059,50.17498]}},{"type":"Feature","properties":{"label:cs":"Socha Davida v zámeckém parku ve Valči","P31":"http://www.wikidata.org/entity/Q179700","P31^label:cs":"Socha","P131^label:cs":"Valeč","P6736":"37988"},"geometry":{"type":"Point","coordinates":[13.2505,50.17506]}},{"type":"Feature","properties":{"label:cs":"Socha Árese v zámeckém parku ve Valči","P31":"http://www.wikidata.org/entity/Q179700","P31^label:cs":"Socha","P131^label:cs":"Valeč","P6736":"37987"},"geometry":{"type":"Point","coordinates":[13.25044,50.17507]}},{"type":"Feature","properties":{"label:cs":"Socha Herakla v zámeckém parku ve Valči","P31":"http://www.wikidata.org/entity/Q179700","P31^label:cs":"Socha","P131^label:cs":"Valeč","P6736":"37986"},"geometry":{"type":"Point","coordinates":[13.25038,50.17508]}},{"type":"Feature","properties":{"label:cs":"Socha Didó v zámeckém parku ve Valči","P31":"http://www.wikidata.org/entity/Q179700","P31^label:cs":"Socha","P131^label:cs":"Valeč","P6736":"37985"},"geometry":{"type":"Point","coordinates":[13.25032,50.17502]}},{"type":"Feature","properties":{"label:cs":"Socha Atys a Ia v zámeckém parku ve Valči","P31":"http://www.wikidata.org/entity/Q179700","P31^label:cs":"Socha","P131^label:cs":"Valeč","P6736":"37984"},"geometry":{"type":"Point","coordinates":[13.25033,50.17502]}},{"type":"Feature","properties":{"label:cs":"Socha Chronos a Éros v zámeckém parku ve Valči","P31":"http://www.wikidata.org/entity/Q179700","P31^label:cs":"Socha","P131^label:cs":"Valeč","P6736":"37983"},"geometry":{"type":"Point","coordinates":[13.25029,50.17498]}},{"type":"Feature","properties":{"label:cs":"Socha Chronos a Selené v zámeckém parku ve Valči","P31":"http://www.wikidata.org/entity/Q179700","P31^label:cs":"Socha","P131^label:cs":"Valeč","P6736":"37982"},"geometry":{"type":"Point","coordinates":[13.25021,50.17494]}},{"type":"Feature","properties":{"label:cs":"Socha Meleagros a Atalanta v zámeckém parku ve Valči","P31":"http://www.wikidata.org/entity/Q179700","P31^label:cs":"Socha","P131^label:cs":"Valeč","P6736":"37981"},"geometry":{"type":"Point","coordinates":[13.25021,50.1749]}},{"type":"Feature","properties":{"label:cs":"Socha Hermes a Afrodita v zámeckém parku ve Valči","P31":"http://www.wikidata.org/entity/Q179700","P31^label:cs":"Socha","P131^label:cs":"Valeč","P6736":"37980"},"geometry":{"type":"Point","coordinates":[13.25026,50.17487]}},{"type":"Feature","properties":{"label:cs":"Socha Afrodity v zámeckém parku ve Valči","P31":"http://www.wikidata.org/entity/Q179700","P31^label:cs":"Socha","P131^label:cs":"Valeč","P6736":"37979"},"geometry":{"type":"Point","coordinates":[13.25029,50.17481]}},{"type":"Feature","properties":{"label:cs":"Socha Deméter v zámeckém parku ve Valči","P31":"http://www.wikidata.org/entity/Q179700","P31^label:cs":"Socha","P131^label:cs":"Valeč","P6736":"37978"},"geometry":{"type":"Point","coordinates":[13.25044,50.17476]}},{"type":"Feature","properties":{"label:cs":"Podstavec v zámeckém parku ve Valči","P31":"http://www.wikidata.org/entity/?","P31^label:cs":"Neznámý","P131^label:cs":"Valeč","P6736":"37977"},"geometry":{"type":"Point","coordinates":[13.25021,50.17452]}},{"type":"Feature","properties":{"label:cs":"Socha svatého Jana Nepomuckého ve Valči","P31":"http://www.wikidata.org/entity/Q179700","P31^label:cs":"Socha","P131^label:cs":"Valeč","P6736":"37967"},"geometry":{"type":"Point","coordinates":[13.25501,50.1717]}},{"type":"Feature","properties":{"label:cs":"Fischerova kaplička u Valče","P31":"http://www.wikidata.org/entity/Q14552192","P31^label:cs":"Kaplička","P131^label:cs":"Valeč","P6736":"37965"},"geometry":{"type":"Point","coordinates":[13.25687,50.17581]}},{"type":"Feature","properties":{"label:cs":"Pomník padlým v I. světové válce ve Valči","P31":"http://www.wikidata.org/entity/Q575759","P31^label:cs":"Pomník padlým","P131^label:cs":"Valeč","P6736":"29680"},"geometry":{"type":"Point","coordinates":[13.25946,50.1725]}},{"type":"Feature","properties":{"label:cs":"Pomník obětem pochodu smrti ve Valči","P31":"http://www.wikidata.org/entity/Q4989906","P31^label:cs":"Pomník","P131^label:cs":"Valeč","P6736":"29679"},"geometry":{"type":"Point","coordinates":[13.25913,50.17278]}},{"type":"Feature","properties":{"label:cs":"Kašna na Karlovarské ulici ve Valči","P31":"http://www.wikidata.org/entity/Q12029081","P31^label:cs":"Kašna","P131^label:cs":"Valeč","P6736":"29674"},"geometry":{"type":"Point","coordinates":[13.2524,50.17379]}},{"type":"Feature","properties":{"label:cs":"Výklenková kaple Nejsvětější Trojice ve Valči","P31":"http://www.wikidata.org/entity/Q14552192","P31^label:cs":"Kaplička","P131^label:cs":"Valeč","P6736":"29673"},"geometry":{"type":"Point","coordinates":[13.25106,50.17324]}},{"type":"Feature","properties":{"label:cs":"Kaple Panny Marie Bolestné ve Valči","P31":"http://www.wikidata.org/entity/Q108325","P31^label:cs":"Kaple","P131^label:cs":"Valeč","P6736":"29672"},"geometry":{"type":"Point","coordinates":[13.25933,50.17249]}},{"type":"Feature","properties":{"label:cs":"Pomník na Náměstí ve Valeči","P31":"http://www.wikidata.org/entity/Q4989906","P31^label:cs":"Pomník","P131^label:cs":"Valeč","P6736":"25376"},"geometry":{"type":"Point","coordinates":[13.25436,50.17463]}},{"type":"Feature","properties":{"label:cs":"Kaple svatého Jana Nepomuckého v Husově ulici ve Valeči","P31":"http://www.wikidata.org/entity/Q14552192","P31^label:cs":"Kaplička","P131^label:cs":"Valeč","P6736":"25375"},"geometry":{"type":"Point","coordinates":[13.25406,50.1758]}},{"type":"Feature","properties":{"label:cs":"Sochy Pana a Dionýsa v zámeckém parku ve Valči","P31":"http://www.wikidata.org/entity/Q179700","P31^label:cs":"Socha","P131^label:cs":"Valeč","P6736":"20893"},"geometry":{"type":"Point","coordinates":[13.25054,50.17484]}},{"type":"Feature","properties":{"label:cs":"Socha atleta v zámeckém parku ve Valči","P31":"http://www.wikidata.org/entity/Q179700","P31^label:cs":"Socha","P131^label:cs":"Valeč","P6736":"17983"},"geometry":{"type":"Point","coordinates":[13.25016,50.1757]}},{"type":"Feature","properties":{"label:cs":"Mariánský sloup na náměstí ve Valči","P31":"http://www.wikidata.org/entity/Q4817","P31^label:cs":"Sloup","P131^label:cs":"Valeč","P6736":"13808"},"geometry":{"type":"Point","coordinates":[13.25385,50.17438]}},{"type":"Feature","properties":{"label:cs":"Socha svatého Jana z Boha ve Valči","P31":"http://www.wikidata.org/entity/Q179700","P31^label:cs":"Socha","P131^label:cs":"Valeč","P6736":"13807"},"geometry":{"type":"Point","coordinates":[13.25433,50.17417]}},{"type":"Feature","properties":{"label:cs":"Socha svatého Jana Křtitele na náměstí ve Valči","P31":"http://www.wikidata.org/entity/Q179700","P31^label:cs":"Socha","P131^label:cs":"Valeč","P6736":"13806"},"geometry":{"type":"Point","coordinates":[13.25444,50.17419]}},{"type":"Feature","properties":{"label:cs":"Socha svatého Jana Nepomuckého na náměstí ve Valči","P31":"http://www.wikidata.org/entity/Q179700","P31^label:cs":"Socha","P131^label:cs":"Valeč","P6736":"13805"},"geometry":{"type":"Point","coordinates":[13.25425,50.17417]}},{"type":"Feature","properties":{"label:cs":"Kříž na náměstí ve Valči","P31":"http://www.wikidata.org/entity/Q2309609","P31^label:cs":"Pamětní kříž","P131^label:cs":"Valeč","P6736":"13804"},"geometry":{"type":"Point","coordinates":[13.25421,50.17442]}},{"type":"Feature","properties":{"label:cs":"Kašna na náměstí ve Valči","P31":"http://www.wikidata.org/entity/Q12029081","P31^label:cs":"Kašna","P131^label:cs":"Valeč","P6736":"13803"},"geometry":{"type":"Point","coordinates":[13.2543,50.17452]}},{"type":"Feature","properties":{"label:cs":"Sloup nejsvětější Trojice v Karlovarské ulici ve Valči","P31":"http://www.wikidata.org/entity/Q4817","P31^label:cs":"Sloup","P131^label:cs":"Valeč","P6736":"13802"},"geometry":{"type":"Point","coordinates":[13.25,50.17299]}},{"type":"Feature","properties":{"label:cs":"Kašna v parku u zámku ve Valči","P31":"http://www.wikidata.org/entity/Q12029081","P31^label:cs":"Kašna","P131^label:cs":"Valeč","P6736":"13800"},"geometry":{"type":"Point","coordinates":[13.25049,50.17493]}}]}