{"type":"FeatureCollection","features":[{"type":"Feature","properties":{"label:cs":"Památka severně od Dražně - nenalezeno","P31":"http://www.wikidata.org/entity/?","P31^label:cs":"Nenalezena","P131^label:cs":"Dražeň","P6736":"36278"},"geometry":{"type":"Point","coordinates":[13.27092,49.94361]}},{"type":"Feature","properties":{"label:cs":"Socha Archanděla Michaela u Hvozdu","P31":"http://www.wikidata.org/entity/Q179700","P31^label:cs":"Socha","P131^label:cs":"Dražeň","P6736":"1464"},"geometry":{"type":"Point","coordinates":[13.26654,49.94456]}},{"type":"Feature","properties":{"label:cs":"Památka severně od Hvozdu - nenalezeno","P31":"http://www.wikidata.org/entity/?","P31^label:cs":"Nenalezena","P131^label:cs":"Hvozd","P6736":"39284"},"geometry":{"type":"Point","coordinates":[13.26041,49.94353]}},{"type":"Feature","properties":{"label:cs":"Obrázek severně od Hvozdu","P31":"http://www.wikidata.org/entity/Q478798","P31^label:cs":"Obrázek","P131^label:cs":"Hvozd","P6736":"35950"},"geometry":{"type":"Point","coordinates":[13.26033,49.95115]}},{"type":"Feature","properties":{"label:cs":"Kříž ve Hvozdu v zahradě","P31":"http://www.wikidata.org/entity/Q2309609","P31^label:cs":"Pamětní kříž","P131^label:cs":"Hvozd","P6736":"8323"},"geometry":{"type":"Point","coordinates":[13.26297,49.93832]}},{"type":"Feature","properties":{"label:cs":"Křížový kámen ve Hvozdu u křižovatky","P31":"http://www.wikidata.org/entity/Q38411643","P31^label:cs":"Křížový kámen","P131^label:cs":"Hvozd","P6736":"8322"},"geometry":{"type":"Point","coordinates":[13.2635,49.94043]}},{"type":"Feature","properties":{"label:cs":"Kříž západně od Hvozdu","P31":"http://www.wikidata.org/entity/Q2309609","P31^label:cs":"Pamětní kříž","P131^label:cs":"Hvozd","P6736":"5568"},"geometry":{"type":"Point","coordinates":[13.26036,49.94166]}},{"type":"Feature","properties":{"label:cs":"Kříž ve Hvozdu","P31":"http://www.wikidata.org/entity/Q2309609","P31^label:cs":"Pamětní kříž","P131^label:cs":"Hvozd","P6736":"3561"},"geometry":{"type":"Point","coordinates":[13.26301,49.9396]}},{"type":"Feature","properties":{"label:cs":"Kaple svatého Jana Křtitele ve Hvozdu","P31":"http://www.wikidata.org/entity/Q108325","P31^label:cs":"Kaple","P131^label:cs":"Hvozd","P6736":"3560"},"geometry":{"type":"Point","coordinates":[13.26285,49.93969]}},{"type":"Feature","properties":{"label:cs":"Pomník padlým ve Hvozdu","P31":"http://www.wikidata.org/entity/Q575759","P31^label:cs":"Pomník padlým","P131^label:cs":"Hvozd","P6736":"3559"},"geometry":{"type":"Point","coordinates":[13.26254,49.93964]}},{"type":"Feature","properties":{"label:cs":"Křížový kámen u Hvozdu","P31":"http://www.wikidata.org/entity/Q38411643","P31^label:cs":"Křížový kámen","P131^label:cs":"Hvozd","P6736":"1612"},"geometry":{"type":"Point","coordinates":[13.2593,49.93764]}}]}