{"type":"FeatureCollection","features":[{"type":"Feature","properties":{"label:cs":"Kašna v parku u zámku ve Valči","P31":"http://www.wikidata.org/entity/Q12029081","P31^label:cs":"Kašna","P131^label:cs":"Valeč","P6736":"13800"},"geometry":{"type":"Point","coordinates":[13.25049,50.17493]}},{"type":"Feature","properties":{"label:cs":"Sloup nejsvětější Trojice v Karlovarské ulici ve Valči","P31":"http://www.wikidata.org/entity/Q4817","P31^label:cs":"Sloup","P131^label:cs":"Valeč","P6736":"13802"},"geometry":{"type":"Point","coordinates":[13.25,50.17299]}},{"type":"Feature","properties":{"label:cs":"Kašna na náměstí ve Valči","P31":"http://www.wikidata.org/entity/Q12029081","P31^label:cs":"Kašna","P131^label:cs":"Valeč","P6736":"13803"},"geometry":{"type":"Point","coordinates":[13.2543,50.17452]}},{"type":"Feature","properties":{"label:cs":"Kříž na náměstí ve Valči","P31":"http://www.wikidata.org/entity/Q2309609","P31^label:cs":"Pamětní kříž","P131^label:cs":"Valeč","P6736":"13804"},"geometry":{"type":"Point","coordinates":[13.25421,50.17442]}},{"type":"Feature","properties":{"label:cs":"Socha svatého Jana Nepomuckého na náměstí ve Valči","P31":"http://www.wikidata.org/entity/Q179700","P31^label:cs":"Socha","P131^label:cs":"Valeč","P6736":"13805"},"geometry":{"type":"Point","coordinates":[13.25425,50.17417]}},{"type":"Feature","properties":{"label:cs":"Socha svatého Jana Křtitele na náměstí ve Valči","P31":"http://www.wikidata.org/entity/Q179700","P31^label:cs":"Socha","P131^label:cs":"Valeč","P6736":"13806"},"geometry":{"type":"Point","coordinates":[13.25444,50.17419]}},{"type":"Feature","properties":{"label:cs":"Socha svatého Jana z Boha ve Valči","P31":"http://www.wikidata.org/entity/Q179700","P31^label:cs":"Socha","P131^label:cs":"Valeč","P6736":"13807"},"geometry":{"type":"Point","coordinates":[13.25433,50.17417]}},{"type":"Feature","properties":{"label:cs":"Mariánský sloup na náměstí ve Valči","P31":"http://www.wikidata.org/entity/Q4817","P31^label:cs":"Sloup","P131^label:cs":"Valeč","P6736":"13808"},"geometry":{"type":"Point","coordinates":[13.25385,50.17438]}},{"type":"Feature","properties":{"label:cs":"Socha atleta v zámeckém parku ve Valči","P31":"http://www.wikidata.org/entity/Q179700","P31^label:cs":"Socha","P131^label:cs":"Valeč","P6736":"17983"},"geometry":{"type":"Point","coordinates":[13.25016,50.1757]}},{"type":"Feature","properties":{"label:cs":"Sochy Pana a Dionýsa v zámeckém parku ve Valči","P31":"http://www.wikidata.org/entity/Q179700","P31^label:cs":"Socha","P131^label:cs":"Valeč","P6736":"20893"},"geometry":{"type":"Point","coordinates":[13.25054,50.17484]}},{"type":"Feature","properties":{"label:cs":"Kaplička v Husově ulici ve Valeči","P31":"http://www.wikidata.org/entity/Q14552192","P31^label:cs":"Kaplička","P131^label:cs":"Valeč","P6736":"25375"},"geometry":{"type":"Point","coordinates":[13.25406,50.1758]}},{"type":"Feature","properties":{"label:cs":"Pomník na Náměstí ve Valeči","P31":"http://www.wikidata.org/entity/Q4989906","P31^label:cs":"Pomník","P131^label:cs":"Valeč","P6736":"25376"},"geometry":{"type":"Point","coordinates":[13.25436,50.17463]}},{"type":"Feature","properties":{"label:cs":"Pomník padlým v I. světové válce ve Valči","P31":"http://www.wikidata.org/entity/Q575759","P31^label:cs":"Pomník padlým","P131^label:cs":"Valeč","P6736":"29680"},"geometry":{"type":"Point","coordinates":[13.25946,50.1725]}},{"type":"Feature","properties":{"label:cs":"Pomník obětem pochodu smrti ve Valči","P31":"http://www.wikidata.org/entity/Q4989906","P31^label:cs":"Pomník","P131^label:cs":"Valeč","P6736":"29679"},"geometry":{"type":"Point","coordinates":[13.25913,50.17278]}},{"type":"Feature","properties":{"label:cs":"Socha Panny Marie na fasádě kostela Nejsvětější Trojice ve Valči","P31":"http://www.wikidata.org/entity/Q179700","P31^label:cs":"Socha","P131^label:cs":"Valeč","P6736":"29671"},"geometry":{"type":"Point","coordinates":[13.25032,50.17294]}},{"type":"Feature","properties":{"label:cs":"Kaple Panny Marie Bolestné ve Valči","P31":"http://www.wikidata.org/entity/Q108325","P31^label:cs":"Kaple","P131^label:cs":"Valeč","P6736":"29672"},"geometry":{"type":"Point","coordinates":[13.25933,50.17249]}},{"type":"Feature","properties":{"label:cs":"Výklenková kaple Nejsvětější Trojice ve Valči","P31":"http://www.wikidata.org/entity/Q14552192","P31^label:cs":"Kaplička","P131^label:cs":"Valeč","P6736":"29673"},"geometry":{"type":"Point","coordinates":[13.25106,50.17324]}},{"type":"Feature","properties":{"label:cs":"Kašna na Karlovarské ulici ve Valči","P31":"http://www.wikidata.org/entity/Q12029081","P31^label:cs":"Kašna","P131^label:cs":"Valeč","P6736":"29674"},"geometry":{"type":"Point","coordinates":[13.2524,50.17379]}},{"type":"Feature","properties":{"label:cs":"Socha svatého Vavřince na kostele Nejsvětější Trojice ve Valči","P31":"http://www.wikidata.org/entity/Q179700","P31^label:cs":"Socha","P131^label:cs":"Valeč","P6736":"29675"},"geometry":{"type":"Point","coordinates":[13.25038,50.17299]}},{"type":"Feature","properties":{"label:cs":"Socha svatého Josefa na kostele Nejsvětější Trojice ve Valči","P31":"http://www.wikidata.org/entity/Q179700","P31^label:cs":"Socha","P131^label:cs":"Valeč","P6736":"29676"},"geometry":{"type":"Point","coordinates":[13.25031,50.17287]}},{"type":"Feature","properties":{"label:cs":"Obrázek Ježíše Krista ve Valči v Podbořanské ulici","P31":"http://www.wikidata.org/entity/Q478798","P31^label:cs":"Obrázek","P131^label:cs":"Valeč","P6736":"29677"},"geometry":{"type":"Point","coordinates":[13.25602,50.17382]}},{"type":"Feature","properties":{"label:cs":"Socha svaté Barbory na průčelí kaple Panny Marie Bolestné ve Valči","P31":"http://www.wikidata.org/entity/Q179700","P31^label:cs":"Socha","P131^label:cs":"Valeč","P6736":"29678"},"geometry":{"type":"Point","coordinates":[13.25925,50.17251]}}]}