{"type":"FeatureCollection","features":[{"type":"Feature","properties":{"label:cs":"Boží muka v Lítém","P31":"Boží muka","P31^label:cs":"Boží muka","P131^label:cs":"Líté","P6736":"10268"},"geometry":{"type":"Point","coordinates":[13.2606,49.91594]}},{"type":"Feature","properties":{"label:cs":"Podstavec na zdi v Lítém","P31":"Neznámý","P31^label:cs":"Neznámý","P131^label:cs":"Líté","P6736":"10267"},"geometry":{"type":"Point","coordinates":[13.25995,49.91143]}},{"type":"Feature","properties":{"label:cs":"Kříž západně od kaple u Litého","P31":"Pamětní kříž","P31^label:cs":"Pamětní kříž","P131^label:cs":"Líté","P6736":"8318"},"geometry":{"type":"Point","coordinates":[13.26088,49.92094]}},{"type":"Feature","properties":{"label:cs":"Pomník severozápadně od Litého","P31":"Pomník","P31^label:cs":"Pomník","P131^label:cs":"Manětín","P6736":"8317"},"geometry":{"type":"Point","coordinates":[13.25317,49.92063]}},{"type":"Feature","properties":{"label:cs":"Pomník padlým v Lítém","P31":"Pomník padlým","P31^label:cs":"Pomník padlým","P131^label:cs":"Líté","P6736":"4408"},"geometry":{"type":"Point","coordinates":[13.26162,49.91446]}},{"type":"Feature","properties":{"label:cs":"Kříž u kaple severně od Líté","P31":"Pamětní kříž","P31^label:cs":"Pamětní kříž","P131^label:cs":"Líté","P6736":"3558"},"geometry":{"type":"Point","coordinates":[13.26122,49.92087]}},{"type":"Feature","properties":{"label:cs":"Kaple severně od Lítého","P31":"Kaple","P31^label:cs":"Kaple","P131^label:cs":"Líté","P6736":"3557"},"geometry":{"type":"Point","coordinates":[13.26122,49.92093]}},{"type":"Feature","properties":{"label:cs":"Kříž v Lítém","P31":"Pamětní kříž","P31^label:cs":"Pamětní kříž","P131^label:cs":"Líté","P6736":"3556"},"geometry":{"type":"Point","coordinates":[13.26367,49.915]}},{"type":"Feature","properties":{"label:cs":"Kaple v Líté","P31":"Kaple","P31^label:cs":"Kaple","P131^label:cs":"Líté","P6736":"3555"},"geometry":{"type":"Point","coordinates":[13.26083,49.91374]}},{"type":"Feature","properties":{"label:cs":"Kříž v jižní části Lítého","P31":"Pamětní kříž","P31^label:cs":"Pamětní kříž","P131^label:cs":"Líté","P6736":"3554"},"geometry":{"type":"Point","coordinates":[13.26027,49.91209]}},{"type":"Feature","properties":{"label:cs":"Kaple u obory západně od Lítého","P31":"Kaple","P31^label:cs":"Kaple","P131^label:cs":"Líté","P6736":"1958"},"geometry":{"type":"Point","coordinates":[13.25153,49.91084]}}]}