{"type":"FeatureCollection","features":[{"type":"Feature","properties":{"label:cs":"Boží muka u domu 63 v Úhošťanech","P31":"http://www.wikidata.org/entity/Q3395121","P31^label:cs":"Boží muka","P131^label:cs":"Kadaň","P6736":"36315"},"geometry":{"type":"Point","coordinates":[13.25972,50.35558]}},{"type":"Feature","properties":{"label:cs":"Pomník zemřelých v Úhošťanech a okolí na západním okraji Úhošťan","P31":"http://www.wikidata.org/entity/Q4989906","P31^label:cs":"Pomník","P131^label:cs":"Kadaň","P6736":"36314"},"geometry":{"type":"Point","coordinates":[13.25595,50.35458]}},{"type":"Feature","properties":{"label:cs":"Pomník zaniklého hřbitova na západním okraji Úhošťan","P31":"http://www.wikidata.org/entity/Q4989906","P31^label:cs":"Pomník","P131^label:cs":"Kadaň","P6736":"36313"},"geometry":{"type":"Point","coordinates":[13.25611,50.35456]}},{"type":"Feature","properties":{"label:cs":"Socha svatého Jana Nepomuckého u kostela v Úhošťanech","P31":"http://www.wikidata.org/entity/Q179700","P31^label:cs":"Socha","P131^label:cs":"Kadaň","P6736":"36312"},"geometry":{"type":"Point","coordinates":[13.25874,50.35442]}},{"type":"Feature","properties":{"label:cs":"Kříž u kostela v Úhošťanech","P31":"http://www.wikidata.org/entity/Q2309609","P31^label:cs":"Pamětní kříž","P131^label:cs":"Kadaň","P6736":"36311"},"geometry":{"type":"Point","coordinates":[13.25864,50.35434]}},{"type":"Feature","properties":{"label:cs":"Socha spoutaného Ježíše u kostela v Úhošťanech","P31":"http://www.wikidata.org/entity/Q179700","P31^label:cs":"Socha","P131^label:cs":"Kadaň","P6736":"36310"},"geometry":{"type":"Point","coordinates":[13.25875,50.35453]}},{"type":"Feature","properties":{"label:cs":"Pomník padlým u kostela v Úhošťanech","P31":"http://www.wikidata.org/entity/Q575759","P31^label:cs":"Pomník padlým","P131^label:cs":"Kadaň","P6736":"36309"},"geometry":{"type":"Point","coordinates":[13.25892,50.35444]}},{"type":"Feature","properties":{"label:cs":"Sloup Nejsvětější Trojice u domu 25 v Úhošťanech","P31":"http://www.wikidata.org/entity/Q4817","P31^label:cs":"Sloup","P131^label:cs":"Kadaň","P6736":"36308"},"geometry":{"type":"Point","coordinates":[13.25941,50.35217]}},{"type":"Feature","properties":{"label:cs":"Socha svatého Antonína Paduánského u domu 59 v Úhošťanech","P31":"http://www.wikidata.org/entity/Q179700","P31^label:cs":"Socha","P131^label:cs":"Kadaň","P6736":"36307"},"geometry":{"type":"Point","coordinates":[13.25976,50.35196]}}]}