{"type":"FeatureCollection","features":[{"type":"Feature","properties":{"label:cs":"Plastika v Dobřanech u Mánesovy ulice","P31":"Plastika","P31^label:cs":"Plastika","P131^label:cs":"Dobřany","P6736":"10828"},"geometry":{"type":"Point","coordinates":[13.28865,49.65655]}},{"type":"Feature","properties":{"label:cs":"Kašna v Dobřanech na náměstí","P31":"Kašna","P31^label:cs":"Kašna","P131^label:cs":"Dobřany","P6736":"10825"},"geometry":{"type":"Point","coordinates":[13.29083,49.65526]}},{"type":"Feature","properties":{"label:cs":"Dřevěný kříž Smíření severně od Dobřánek","P31":"Pamětní kříž","P31^label:cs":"Pamětní kříž","P131^label:cs":"Dobřany","P6736":"10121"},"geometry":{"type":"Point","coordinates":[13.28106,49.6613]}},{"type":"Feature","properties":{"label:cs":"Kaplička na Kamínku v Dobřánkách","P31":"Kaplička","P31^label:cs":"Kaplička","P131^label:cs":"Dobřany","P6736":"10120"},"geometry":{"type":"Point","coordinates":[13.2824,49.66045]}},{"type":"Feature","properties":{"label:cs":"Kříž u kostela svatého Víta v Dobřanech","P31":"Pamětní kříž","P31^label:cs":"Pamětní kříž","P131^label:cs":"Dobřany","P6736":"9605"},"geometry":{"type":"Point","coordinates":[13.28977,49.65585]}},{"type":"Feature","properties":{"label:cs":"Kříž u Kamenného mostu v Dobřanech","P31":"Pamětní kříž","P31^label:cs":"Pamětní kříž","P131^label:cs":"Dobřany","P6736":"9603"},"geometry":{"type":"Point","coordinates":[13.28845,49.65648]}},{"type":"Feature","properties":{"label:cs":"Podstavec u stromů přátelství v Dobřanech","P31":"Neznámý","P31^label:cs":"Neznámý","P131^label:cs":"Dobřany","P6736":"9601"},"geometry":{"type":"Point","coordinates":[13.28866,49.65664]}},{"type":"Feature","properties":{"label:cs":"Kameny u stromů přátelství v Dobřanech","P31":"Památný kámen","P31^label:cs":"Památný kámen","P131^label:cs":"Dobřany","P6736":"9600"},"geometry":{"type":"Point","coordinates":[13.2887,49.65658]}}]}