{"type":"FeatureCollection","features":[{"type":"Feature","properties":{"label:cs":"Socha v Kostelní ulici v Mašťově","P31":"http://www.wikidata.org/entity/Q179700","P31^label:cs":"Socha","P131^label:cs":"Mašťov","P6736":"23802"},"geometry":{"type":"Point","coordinates":[13.2772,50.26209]}},{"type":"Feature","properties":{"label:cs":"Pamětní kříž západně od Mašťova","P31":"http://www.wikidata.org/entity/Q2309609","P31^label:cs":"Pamětní kříž","P131^label:cs":"Mašťov","P6736":"23801"},"geometry":{"type":"Point","coordinates":[13.27238,50.26247]}},{"type":"Feature","properties":{"label:cs":"Křížový kámen západně od Mašťova","P31":"http://www.wikidata.org/entity/Q38411643","P31^label:cs":"Křížový kámen","P131^label:cs":"Mašťov","P6736":"23800"},"geometry":{"type":"Point","coordinates":[13.27202,50.26262]}},{"type":"Feature","properties":{"label:cs":"Pomník padlým v Kostelní ulici v Mašťově","P31":"http://www.wikidata.org/entity/Q575759","P31^label:cs":"Pomník padlým","P131^label:cs":"Mašťov","P6736":"23799"},"geometry":{"type":"Point","coordinates":[13.27675,50.26204]}},{"type":"Feature","properties":{"label:cs":"Boží muka v Kostelní ulici v Mašťově","P31":"http://www.wikidata.org/entity/Q3395121","P31^label:cs":"Boží muka","P131^label:cs":"Mašťov","P6736":"23798"},"geometry":{"type":"Point","coordinates":[13.27702,50.26212]}},{"type":"Feature","properties":{"label:cs":"Plastika na domě na náměstí v Mašťově","P31":"http://www.wikidata.org/entity/Q12045520","P31^label:cs":"Plastika","P131^label:cs":"Mašťov","P6736":"23797"},"geometry":{"type":"Point","coordinates":[13.28124,50.26266]}},{"type":"Feature","properties":{"label:cs":"Sluneční hodiny na domě na náměstí v Mašťově","P31":"http://www.wikidata.org/entity/Q376","P31^label:cs":"Hodiny","P131^label:cs":"Mašťov","P6736":"23796"},"geometry":{"type":"Point","coordinates":[13.28009,50.26265]}},{"type":"Feature","properties":{"label:cs":"Socha na náměstí v Mašťově","P31":"http://www.wikidata.org/entity/Q179700","P31^label:cs":"Socha","P131^label:cs":"Mašťov","P6736":"23795"},"geometry":{"type":"Point","coordinates":[13.28127,50.26246]}},{"type":"Feature","properties":{"label:cs":"Socha na náměstí v Mašťově","P31":"http://www.wikidata.org/entity/Q179700","P31^label:cs":"Socha","P131^label:cs":"Mašťov","P6736":"23794"},"geometry":{"type":"Point","coordinates":[13.28002,50.26246]}},{"type":"Feature","properties":{"label:cs":"Kašna na náměstí v Mašťově","P31":"http://www.wikidata.org/entity/Q12029081","P31^label:cs":"Kašna","P131^label:cs":"Mašťov","P6736":"23793"},"geometry":{"type":"Point","coordinates":[13.2802,50.26245]}}]}