{"type":"FeatureCollection","features":[{"type":"Feature","properties":{"label:cs":"Kříž západně od Balkové - nenalezeno","P31":"http://www.wikidata.org/entity/?","P31^label:cs":"Nenalezena","P131^label:cs":"Tis u Blatna","P6736":"35821"},"geometry":{"type":"Point","coordinates":[13.2914,50.0813]}},{"type":"Feature","properties":{"label:cs":"Památka v lese severozápadně od Kračína - nenalezeno","P31":"http://www.wikidata.org/entity/?","P31^label:cs":"Nenalezena","P131^label:cs":"Tis u Blatna","P6736":"35617"},"geometry":{"type":"Point","coordinates":[13.29068,50.0875]}},{"type":"Feature","properties":{"label:cs":"Kříž východně od Lub","P31":"http://www.wikidata.org/entity/Q2309609","P31^label:cs":"Pamětní kříž","P131^label:cs":"Tis u Blatna","P6736":"8142"},"geometry":{"type":"Point","coordinates":[13.28204,50.08223]}},{"type":"Feature","properties":{"label:cs":"Kříž jižně od Lub","P31":"http://www.wikidata.org/entity/Q2309609","P31^label:cs":"Pamětní kříž","P131^label:cs":"Chyše","P6736":"8144"},"geometry":{"type":"Point","coordinates":[13.27324,50.07973]}},{"type":"Feature","properties":{"label:cs":"Kříž v Lubech","P31":"http://www.wikidata.org/entity/Q2309609","P31^label:cs":"Pamětní kříž","P131^label:cs":"Chyše","P6736":"8143"},"geometry":{"type":"Point","coordinates":[13.27243,50.08061]}},{"type":"Feature","properties":{"label:cs":"Kříž u kaple v Poříčí","P31":"http://www.wikidata.org/entity/Q2309609","P31^label:cs":"Pamětní kříž","P131^label:cs":"Chyše","P6736":"7827"},"geometry":{"type":"Point","coordinates":[13.27573,50.08897]}},{"type":"Feature","properties":{"label:cs":"Kaple v Poříčí","P31":"http://www.wikidata.org/entity/Q108325","P31^label:cs":"Kaple","P131^label:cs":"Chyše","P6736":"7826"},"geometry":{"type":"Point","coordinates":[13.27573,50.08893]}},{"type":"Feature","properties":{"label:cs":"Kaple v Lubech","P31":"http://www.wikidata.org/entity/Q108325","P31^label:cs":"Kaple","P131^label:cs":"Chyše","P6736":"7825"},"geometry":{"type":"Point","coordinates":[13.27268,50.08052]}}]}