{"type":"FeatureCollection","features":[{"type":"Feature","properties":{"label:cs":"Památka severně od Tlucné - nenalezeno","P31":"http://www.wikidata.org/entity/?","P31^label:cs":"Nenalezena","P131^label:cs":"Bučí","P6736":"39245"},"geometry":{"type":"Point","coordinates":[13.28662,49.88514]}},{"type":"Feature","properties":{"label:cs":"Hlavní kříž na hřbitově u Dolní Bělé","P31":"http://www.wikidata.org/entity/Q2309609","P31^label:cs":"Pamětní kříž","P131^label:cs":"Dolní Bělá","P6736":"40769"},"geometry":{"type":"Point","coordinates":[13.28231,49.89408]}},{"type":"Feature","properties":{"label:cs":"Památka v zahradě v Dolní Bělé - nenalezeno","P31":"http://www.wikidata.org/entity/?","P31^label:cs":"Nenalezena","P131^label:cs":"Dolní Bělá","P6736":"38854"},"geometry":{"type":"Point","coordinates":[13.27779,49.89423]}},{"type":"Feature","properties":{"label:cs":"Památka severovýchodně od Dolní Bělé - nenalezeno","P31":"http://www.wikidata.org/entity/?","P31^label:cs":"Nenalezena","P131^label:cs":"Dolní Bělá","P6736":"35878"},"geometry":{"type":"Point","coordinates":[13.28198,49.89446]}},{"type":"Feature","properties":{"label:cs":"Husova kaple jihozápadně od kostela v Dolní Bělé","P31":"http://www.wikidata.org/entity/Q108325","P31^label:cs":"Kaple","P131^label:cs":"Dolní Bělá","P6736":"23241"},"geometry":{"type":"Point","coordinates":[13.27206,49.89425]}},{"type":"Feature","properties":{"label:cs":"Kříž východně od Dolní Bělé","P31":"http://www.wikidata.org/entity/Q2309609","P31^label:cs":"Pamětní kříž","P131^label:cs":"Dolní Bělá","P6736":"7965"},"geometry":{"type":"Point","coordinates":[13.28235,49.894]}},{"type":"Feature","properties":{"label:cs":"Kaple svatého Jana Nepomuckého východně od Dolní Bělé","P31":"http://www.wikidata.org/entity/Q108325","P31^label:cs":"Kaple","P131^label:cs":"Dolní Bělá","P6736":"3551"},"geometry":{"type":"Point","coordinates":[13.27969,49.89303]}},{"type":"Feature","properties":{"label:cs":"Kříž východně od Dolní Bělé","P31":"http://www.wikidata.org/entity/Q2309609","P31^label:cs":"Pamětní kříž","P131^label:cs":"Dolní Bělá","P6736":"3550"},"geometry":{"type":"Point","coordinates":[13.28127,49.89448]}},{"type":"Feature","properties":{"label:cs":"Kříž východně od Dolní Bělé u polní cesty","P31":"http://www.wikidata.org/entity/Q2309609","P31^label:cs":"Pamětní kříž","P131^label:cs":"Dolní Bělá","P6736":"1404"},"geometry":{"type":"Point","coordinates":[13.27895,49.89225]}},{"type":"Feature","properties":{"label:cs":"Kříž východně od Horní Bělé u rozcestí","P31":"http://www.wikidata.org/entity/Q2309609","P31^label:cs":"Pamětní kříž","P131^label:cs":"Horní Bělá","P6736":"1548"},"geometry":{"type":"Point","coordinates":[13.27334,49.88855]}},{"type":"Feature","properties":{"label:cs":"Pomník Antonie Fedulajevové u Dolní Bělé","P31":"http://www.wikidata.org/entity/Q4989906","P31^label:cs":"Pomník","P131^label:cs":"Loza","P6736":"40770"},"geometry":{"type":"Point","coordinates":[13.28268,49.8941]}},{"type":"Feature","properties":{"label:cs":"Pamětní deska Jana Krofta v Loze","P31":"http://www.wikidata.org/entity/Q721747","P31^label:cs":"Pamětní deska","P131^label:cs":"Loza","P6736":"40309"},"geometry":{"type":"Point","coordinates":[13.29031,49.89314]}},{"type":"Feature","properties":{"label:cs":"Kaple v Loze","P31":"http://www.wikidata.org/entity/Q108325","P31^label:cs":"Kaple","P131^label:cs":"Loza","P6736":"4841"},"geometry":{"type":"Point","coordinates":[13.28993,49.89328]}},{"type":"Feature","properties":{"label:cs":"Kříž v Loze","P31":"http://www.wikidata.org/entity/Q2309609","P31^label:cs":"Pamětní kříž","P131^label:cs":"Loza","P6736":"3549"},"geometry":{"type":"Point","coordinates":[13.28962,49.89329]}},{"type":"Feature","properties":{"label:cs":"Pomník padlým v Loze","P31":"http://www.wikidata.org/entity/Q575759","P31^label:cs":"Pomník padlým","P131^label:cs":"Loza","P6736":"3548"},"geometry":{"type":"Point","coordinates":[13.28965,49.89331]}},{"type":"Feature","properties":{"label:cs":"Kříž západně od Lozy u zdi","P31":"http://www.wikidata.org/entity/Q2309609","P31^label:cs":"Pamětní kříž","P131^label:cs":"Loza","P6736":"1983"},"geometry":{"type":"Point","coordinates":[13.28476,49.89341]}},{"type":"Feature","properties":{"label:cs":"Kaple svatého Jana Nepomuckého jižně od Lozy","P31":"http://www.wikidata.org/entity/Q108325","P31^label:cs":"Kaple","P131^label:cs":"Loza","P6736":"1981"},"geometry":{"type":"Point","coordinates":[13.28879,49.89043]}}]}