{"type":"FeatureCollection","features":[{"type":"Feature","properties":{"label:cs":"Kaple svaté Rodiny ve Dražni","P31":"http://www.wikidata.org/entity/Q108325","P31^label:cs":"Kaple","P131^label:cs":"Dražeň","P6736":"4829"},"geometry":{"type":"Point","coordinates":[13.2876,49.92693]}},{"type":"Feature","properties":{"label:cs":"Pomník padlým v Dražni","P31":"http://www.wikidata.org/entity/Q575759","P31^label:cs":"Pomník padlým","P131^label:cs":"Dražeň","P6736":"4407"},"geometry":{"type":"Point","coordinates":[13.28869,49.92644]}},{"type":"Feature","properties":{"label:cs":"Kaplička v Dražni","P31":"http://www.wikidata.org/entity/Q14552192","P31^label:cs":"Kaplička","P131^label:cs":"Dražeň","P6736":"3489"},"geometry":{"type":"Point","coordinates":[13.28726,49.92695]}},{"type":"Feature","properties":{"label:cs":"Kříž v Dražni","P31":"http://www.wikidata.org/entity/Q2309609","P31^label:cs":"Pamětní kříž","P131^label:cs":"Dražeň","P6736":"3488"},"geometry":{"type":"Point","coordinates":[13.28648,49.92687]}},{"type":"Feature","properties":{"label:cs":"Kříž v jižní části Dražně","P31":"http://www.wikidata.org/entity/Q2309609","P31^label:cs":"Pamětní kříž","P131^label:cs":"Dražeň","P6736":"2931"},"geometry":{"type":"Point","coordinates":[13.28742,49.92628]}},{"type":"Feature","properties":{"label:cs":"Kříž jižně od Dražně","P31":"http://www.wikidata.org/entity/Q2309609","P31^label:cs":"Pamětní kříž","P131^label:cs":"Dražeň","P6736":"2930"},"geometry":{"type":"Point","coordinates":[13.28701,49.92345]}},{"type":"Feature","properties":{"label:cs":"Kříž východně od Dražně","P31":"http://www.wikidata.org/entity/Q2309609","P31^label:cs":"Pamětní kříž","P131^label:cs":"Dražeň","P6736":"1459"},"geometry":{"type":"Point","coordinates":[13.29024,49.92756]}},{"type":"Feature","properties":{"label:cs":"Kříž nad Dražní","P31":"http://www.wikidata.org/entity/Q2309609","P31^label:cs":"Pamětní kříž","P131^label:cs":"Dražeň","P6736":"1463"},"geometry":{"type":"Point","coordinates":[13.28375,49.92968]}}]}