{"type":"FeatureCollection","features":[{"type":"Feature","properties":{"label:cs":"Pamětní deska Jakuba Eberleho na domě Kostelní 178 v Mašťově","P31":"http://www.wikidata.org/entity/Q721747","P31^label:cs":"Pamětní deska","P131^label:cs":"Mašťov","P6736":"40889"},"geometry":{"type":"Point","coordinates":[13.27952,50.26242]}},{"type":"Feature","properties":{"label:cs":"Boží muka u rybníčku za kostelem Nanebevzetí v Mašťově","P31":"http://www.wikidata.org/entity/Q3395121","P31^label:cs":"Boží muka","P131^label:cs":"Mašťov","P6736":"40888"},"geometry":{"type":"Point","coordinates":[13.27688,50.26284]}},{"type":"Feature","properties":{"label:cs":"Kašna u zámku v Mašťově","P31":"http://www.wikidata.org/entity/Q12029081","P31^label:cs":"Kašna","P131^label:cs":"Mašťov","P6736":"40887"},"geometry":{"type":"Point","coordinates":[13.28119,50.26459]}},{"type":"Feature","properties":{"label:cs":"Kříž u silnice na severním okraji Mašťova","P31":"http://www.wikidata.org/entity/Q2309609","P31^label:cs":"Pamětní kříž","P131^label:cs":"Mašťov","P6736":"40886"},"geometry":{"type":"Point","coordinates":[13.28316,50.26539]}},{"type":"Feature","properties":{"label:cs":"Boží muka u silnice na severním okraji Mašťova","P31":"http://www.wikidata.org/entity/Q3395121","P31^label:cs":"Boží muka","P131^label:cs":"Mašťov","P6736":"40885"},"geometry":{"type":"Point","coordinates":[13.28343,50.26528]}},{"type":"Feature","properties":{"label:cs":"Boží muka u rozcestí k zámku v Mašťově","P31":"http://www.wikidata.org/entity/Q3395121","P31^label:cs":"Boží muka","P131^label:cs":"Mašťov","P6736":"40884"},"geometry":{"type":"Point","coordinates":[13.28266,50.2648]}},{"type":"Feature","properties":{"label:cs":"Odpočivný kámen u rozcestí k zámku v Mašťově","P31":"http://www.wikidata.org/entity/Q11734477","P31^label:cs":"Památný kámen","P131^label:cs":"Mašťov","P6736":"40883"},"geometry":{"type":"Point","coordinates":[13.28295,50.26459]}},{"type":"Feature","properties":{"label:cs":"Kamenná plastika Holocaust na rozcestí k zámku v Mašťově","P31":"http://www.wikidata.org/entity/Q12045520","P31^label:cs":"Plastika","P131^label:cs":"Mašťov","P6736":"40882"},"geometry":{"type":"Point","coordinates":[13.28258,50.26446]}},{"type":"Feature","properties":{"label:cs":"Socha svatého Vojtěcha na vrchu naproti zámku v Mašťově","P31":"http://www.wikidata.org/entity/Q179700","P31^label:cs":"Socha","P131^label:cs":"Mašťov","P6736":"40881"},"geometry":{"type":"Point","coordinates":[13.28456,50.26484]}},{"type":"Feature","properties":{"label:cs":"Kaplička v Revoluční ulici v Mašťově","P31":"http://www.wikidata.org/entity/Q14552192","P31^label:cs":"Kaplička","P131^label:cs":"Mašťov","P6736":"40880"},"geometry":{"type":"Point","coordinates":[13.28626,50.26158]}},{"type":"Feature","properties":{"label:cs":"Mladotovská kaple v Mašťově","P31":"http://www.wikidata.org/entity/Q108325","P31^label:cs":"Kaple","P131^label:cs":"Mašťov","P6736":"40879"},"geometry":{"type":"Point","coordinates":[13.27665,50.26202]}},{"type":"Feature","properties":{"label:cs":"Socha svatého Jana Nepomuckého v Kostelní ulici v Mašťově","P31":"http://www.wikidata.org/entity/Q179700","P31^label:cs":"Socha","P131^label:cs":"Mašťov","P6736":"40878"},"geometry":{"type":"Point","coordinates":[13.27787,50.26221]}},{"type":"Feature","properties":{"label:cs":"Kašna v Kostelní ulici v Mašťově","P31":"http://www.wikidata.org/entity/Q12029081","P31^label:cs":"Kašna","P131^label:cs":"Mašťov","P6736":"40877"},"geometry":{"type":"Point","coordinates":[13.27772,50.2622]}},{"type":"Feature","properties":{"label:cs":"Kamenná kašna na náměstí v Mašťově","P31":"http://www.wikidata.org/entity/Q12029081","P31^label:cs":"Kašna","P131^label:cs":"Mašťov","P6736":"40876"},"geometry":{"type":"Point","coordinates":[13.28026,50.26245]}},{"type":"Feature","properties":{"label:cs":"Socha bičovaného Ježíše v Kostelní ulici v Mašťově","P31":"http://www.wikidata.org/entity/Q179700","P31^label:cs":"Socha","P131^label:cs":"Mašťov","P6736":"23802"},"geometry":{"type":"Point","coordinates":[13.27665,50.26199]}},{"type":"Feature","properties":{"label:cs":"Pamětní kříž západně od Mašťova","P31":"http://www.wikidata.org/entity/Q2309609","P31^label:cs":"Pamětní kříž","P131^label:cs":"Mašťov","P6736":"23801"},"geometry":{"type":"Point","coordinates":[13.27238,50.26247]}},{"type":"Feature","properties":{"label:cs":"Smírčí kříž západně od Mašťova","P31":"http://www.wikidata.org/entity/Q1640496","P31^label:cs":"Smírčí kříž","P131^label:cs":"Mašťov","P6736":"23800"},"geometry":{"type":"Point","coordinates":[13.27229,50.26249]}},{"type":"Feature","properties":{"label:cs":"Pomník padlým v Kostelní ulici v Mašťově","P31":"http://www.wikidata.org/entity/Q575759","P31^label:cs":"Pomník padlým","P131^label:cs":"Mašťov","P6736":"23799"},"geometry":{"type":"Point","coordinates":[13.27675,50.26204]}},{"type":"Feature","properties":{"label:cs":"Boží muka v Kostelní ulici v Mašťově","P31":"http://www.wikidata.org/entity/Q3395121","P31^label:cs":"Boží muka","P131^label:cs":"Mašťov","P6736":"23798"},"geometry":{"type":"Point","coordinates":[13.27702,50.26212]}},{"type":"Feature","properties":{"label:cs":"Socha svatého Floriána na náměstí v Mašťově","P31":"http://www.wikidata.org/entity/Q179700","P31^label:cs":"Socha","P131^label:cs":"Mašťov","P6736":"23795"},"geometry":{"type":"Point","coordinates":[13.28,50.26247]}},{"type":"Feature","properties":{"label:cs":"Socha svatého Vavřince na náměstí v Mašťově","P31":"http://www.wikidata.org/entity/Q179700","P31^label:cs":"Socha","P131^label:cs":"Mašťov","P6736":"23794"},"geometry":{"type":"Point","coordinates":[13.28127,50.26244]}},{"type":"Feature","properties":{"label:cs":"Kašna na náměstí v Mašťově","P31":"http://www.wikidata.org/entity/Q12029081","P31^label:cs":"Kašna","P131^label:cs":"Mašťov","P6736":"23793"},"geometry":{"type":"Point","coordinates":[13.28103,50.26244]}}]}