{"type":"FeatureCollection","features":[{"type":"Feature","properties":{"label:cs":"Socha svatého Jana Nepomuckého ve Švihově","P31":"http://www.wikidata.org/entity/Q179700","P31^label:cs":"Socha","P131^label:cs":"Švihov","P6736":"42276"},"geometry":{"type":"Point","coordinates":[13.29062,49.4793]}},{"type":"Feature","properties":{"label:cs":"Pamětní deska Antonína Špeldy ve Švihově","P31":"http://www.wikidata.org/entity/Q721747","P31^label:cs":"Pamětní deska","P131^label:cs":"Švihov","P6736":"42275"},"geometry":{"type":"Point","coordinates":[13.28555,49.4807]}},{"type":"Feature","properties":{"label:cs":"Pomník padlým ve světových válkách na náměstí ve Švihově","P31":"http://www.wikidata.org/entity/Q575759","P31^label:cs":"Pomník padlým","P131^label:cs":"Švihov","P6736":"15649"},"geometry":{"type":"Point","coordinates":[13.2851,49.48029]}},{"type":"Feature","properties":{"label:cs":"Masarykův pomník na Masarykově náměstí ve Švihově","P31":"http://www.wikidata.org/entity/Q4989906","P31^label:cs":"Pomník","P131^label:cs":"Švihov","P6736":"15638"},"geometry":{"type":"Point","coordinates":[13.28352,49.48203]}},{"type":"Feature","properties":{"label:cs":"Socha svatého Jana Nepomuckého na Masarykově náměstí ve Švihově","P31":"http://www.wikidata.org/entity/Q179700","P31^label:cs":"Socha","P131^label:cs":"Švihov","P6736":"15637"},"geometry":{"type":"Point","coordinates":[13.28336,49.48227]}}]}