{"type":"FeatureCollection","features":[{"type":"Feature","properties":{"label:cs":"Husova kaple jihozápadně od kostela v Dolní Bělé","P31":"Kaple","P31^label:cs":"Kaple","P131^label:cs":"Dolní Bělá","P6736":"23241"},"geometry":{"type":"Point","coordinates":[13.27206,49.89425]}},{"type":"Feature","properties":{"label:cs":"Kříž východně od Dolní Bělé","P31":"Pamětní kříž","P31^label:cs":"Pamětní kříž","P131^label:cs":"Dolní Bělá","P6736":"7965"},"geometry":{"type":"Point","coordinates":[13.28235,49.894]}},{"type":"Feature","properties":{"label:cs":"Kaple v Loze","P31":"Kaple","P31^label:cs":"Kaple","P131^label:cs":"Loza","P6736":"4841"},"geometry":{"type":"Point","coordinates":[13.28993,49.89328]}},{"type":"Feature","properties":{"label:cs":"Kaple východně od Dolní Bělé","P31":"Kaple","P31^label:cs":"Kaple","P131^label:cs":"Dolní Bělá","P6736":"3551"},"geometry":{"type":"Point","coordinates":[13.27969,49.89303]}},{"type":"Feature","properties":{"label:cs":"Kříž východně od Dolní Bělé","P31":"Pamětní kříž","P31^label:cs":"Pamětní kříž","P131^label:cs":"Dolní Bělá","P6736":"3550"},"geometry":{"type":"Point","coordinates":[13.28127,49.89448]}},{"type":"Feature","properties":{"label:cs":"Kříž v Loze","P31":"Pamětní kříž","P31^label:cs":"Pamětní kříž","P131^label:cs":"Loza","P6736":"3549"},"geometry":{"type":"Point","coordinates":[13.28962,49.89329]}},{"type":"Feature","properties":{"label:cs":"Pomník padlým v Loze","P31":"Pomník padlým","P31^label:cs":"Pomník padlým","P131^label:cs":"Loza","P6736":"3548"},"geometry":{"type":"Point","coordinates":[13.28965,49.89331]}},{"type":"Feature","properties":{"label:cs":"Kříž západně od Lozy u zdi","P31":"Pamětní kříž","P31^label:cs":"Pamětní kříž","P131^label:cs":"Loza","P6736":"1983"},"geometry":{"type":"Point","coordinates":[13.28476,49.89341]}},{"type":"Feature","properties":{"label:cs":"Kaple jižně od Lozy","P31":"Kaple","P31^label:cs":"Kaple","P131^label:cs":"Loza","P6736":"1981"},"geometry":{"type":"Point","coordinates":[13.28879,49.89043]}},{"type":"Feature","properties":{"label:cs":"Kříž u Horní Bělé u silnice na Tlucnou","P31":"Pamětní kříž","P31^label:cs":"Pamětní kříž","P131^label:cs":"Horní Bělá","P6736":"1548"},"geometry":{"type":"Point","coordinates":[13.27336,49.88852]}},{"type":"Feature","properties":{"label:cs":"Kříž východně od Dolní Bělé u polní cesty","P31":"Pamětní kříž","P31^label:cs":"Pamětní kříž","P131^label:cs":"Dolní Bělá","P6736":"1404"},"geometry":{"type":"Point","coordinates":[13.27895,49.89225]}}]}