{"type":"FeatureCollection","features":[{"type":"Feature","properties":{"label:cs":"Plastika Svatý Šebestián u silnice severně od Miřetic","P31":"http://www.wikidata.org/entity/Q12045520","P31^label:cs":"Plastika","P131^label:cs":"Radonice","P6736":"36235"},"geometry":{"type":"Point","coordinates":[13.2825,50.31649]}},{"type":"Feature","properties":{"label:cs":"Kamenná plastika Koně v Miřeticích","P31":"http://www.wikidata.org/entity/Q12045520","P31^label:cs":"Plastika","P131^label:cs":"Radonice","P6736":"36234"},"geometry":{"type":"Point","coordinates":[13.28301,50.31455]}},{"type":"Feature","properties":{"label:cs":"Kříž u silnice z Radonic do Miřetic","P31":"http://www.wikidata.org/entity/Q2309609","P31^label:cs":"Pamětní kříž","P131^label:cs":"Radonice","P6736":"36214"},"geometry":{"type":"Point","coordinates":[13.28458,50.30542]}},{"type":"Feature","properties":{"label:cs":"Kříž v zahradě domu 30 v Miřeticích","P31":"http://www.wikidata.org/entity/Q2309609","P31^label:cs":"Pamětní kříž","P131^label:cs":"Radonice","P6736":"36210"},"geometry":{"type":"Point","coordinates":[13.28292,50.31332]}},{"type":"Feature","properties":{"label:cs":"Boží muka v Miřeticích","P31":"http://www.wikidata.org/entity/Q3395121","P31^label:cs":"Boží muka","P131^label:cs":"Radonice","P6736":"36209"},"geometry":{"type":"Point","coordinates":[13.28281,50.31314]}},{"type":"Feature","properties":{"label:cs":"Kaplička v remízu západně od Miřetic","P31":"http://www.wikidata.org/entity/Q14552192","P31^label:cs":"Kaplička","P131^label:cs":"Radonice","P6736":"36208"},"geometry":{"type":"Point","coordinates":[13.27846,50.31303]}},{"type":"Feature","properties":{"label:cs":"Kaplička na kraji lesa na severním svahu Vintířovského vrchu","P31":"http://www.wikidata.org/entity/Q14552192","P31^label:cs":"Kaplička","P131^label:cs":"Radonice","P6736":"36207"},"geometry":{"type":"Point","coordinates":[13.27802,50.31219]}},{"type":"Feature","properties":{"label:cs":"Socha Dívka s křížem na zaniklé Křížové cestě na Vintířovský vrch","P31":"http://www.wikidata.org/entity/Q179700","P31^label:cs":"Socha","P131^label:cs":"Radonice","P6736":"37852"},"geometry":{"type":"Point","coordinates":[13.27406,50.31]}},{"type":"Feature","properties":{"label:cs":"Kamenná Plastika Vintířovská Madona u kaple na Vintířovském vrchu","P31":"http://www.wikidata.org/entity/Q12045520","P31^label:cs":"Plastika","P131^label:cs":"Radonice","P6736":"36252"},"geometry":{"type":"Point","coordinates":[13.2753,50.3111]}},{"type":"Feature","properties":{"label:cs":"Kamenná plastika Sblížení na zaniklé křížové cestě","P31":"http://www.wikidata.org/entity/Q12045520","P31^label:cs":"Plastika","P131^label:cs":"Radonice","P6736":"36251"},"geometry":{"type":"Point","coordinates":[13.27548,50.31102]}},{"type":"Feature","properties":{"label:cs":"Kamenná plastika Směřování na zaniklé křížové cestě na Vintířovský vrch","P31":"http://www.wikidata.org/entity/Q12045520","P31^label:cs":"Plastika","P131^label:cs":"Radonice","P6736":"36250"},"geometry":{"type":"Point","coordinates":[13.27525,50.31097]}},{"type":"Feature","properties":{"label:cs":"Kamenná plastika Anděl strážný na zaniklé křížové cestě na Vintířovský vrch","P31":"http://www.wikidata.org/entity/Q12045520","P31^label:cs":"Plastika","P131^label:cs":"Radonice","P6736":"36249"},"geometry":{"type":"Point","coordinates":[13.27516,50.31083]}},{"type":"Feature","properties":{"label:cs":"Kamenná plastika Hudba na zaniklé křížové cestě na Vintířovský vrch","P31":"http://www.wikidata.org/entity/Q12045520","P31^label:cs":"Plastika","P131^label:cs":"Radonice","P6736":"36248"},"geometry":{"type":"Point","coordinates":[13.2745,50.31066]}},{"type":"Feature","properties":{"label:cs":"Kamenná plastika Zrození a smrt na zaniklé křížové cestě na Vintířovský vrch","P31":"http://www.wikidata.org/entity/Q12045520","P31^label:cs":"Plastika","P131^label:cs":"Radonice","P6736":"36247"},"geometry":{"type":"Point","coordinates":[13.27485,50.3105]}},{"type":"Feature","properties":{"label:cs":"Kamenná plastika Šumění na zaniklé křížové cestě na Vintířovský vrch","P31":"http://www.wikidata.org/entity/Q12045520","P31^label:cs":"Plastika","P131^label:cs":"Radonice","P6736":"36246"},"geometry":{"type":"Point","coordinates":[13.27454,50.31038]}},{"type":"Feature","properties":{"label:cs":"Pomník Hanse Kudlicha na Vintířovském vrchu","P31":"http://www.wikidata.org/entity/Q4989906","P31^label:cs":"Pomník","P131^label:cs":"Radonice","P6736":"36236"},"geometry":{"type":"Point","coordinates":[13.27471,50.311]}},{"type":"Feature","properties":{"label:cs":"Kaple u silnice z Radonic do Miřetic","P31":"http://www.wikidata.org/entity/Q108325","P31^label:cs":"Kaple","P131^label:cs":"Radonice","P6736":"36213"},"geometry":{"type":"Point","coordinates":[13.28423,50.30539]}},{"type":"Feature","properties":{"label:cs":"Kaple na rozcestí východně od Vintířova","P31":"http://www.wikidata.org/entity/Q108325","P31^label:cs":"Kaple","P131^label:cs":"Radonice","P6736":"36212"},"geometry":{"type":"Point","coordinates":[13.28392,50.3086]}},{"type":"Feature","properties":{"label:cs":"Kaple Panny Marie Pomocné na Vintířovském vrchu","P31":"http://www.wikidata.org/entity/Q108325","P31^label:cs":"Kaple","P131^label:cs":"Radonice","P6736":"36206"},"geometry":{"type":"Point","coordinates":[13.27584,50.31112]}},{"type":"Feature","properties":{"label:cs":"Pomník padlým u kostela ve Vintířově","P31":"http://www.wikidata.org/entity/Q575759","P31^label:cs":"Pomník padlým","P131^label:cs":"Radonice","P6736":"36205"},"geometry":{"type":"Point","coordinates":[13.27486,50.30444]}}]}