{"type":"FeatureCollection","features":[{"type":"Feature","properties":{"label:cs":"Pamětní deska na budově školy severozápadně od kostela v Dolní Bělé","P31":"http://www.wikidata.org/entity/Q721747","P31^label:cs":"Pamětní deska","P131^label:cs":"Dolní Bělá","P6736":"23242"},"geometry":{"type":"Point","coordinates":[13.27288,49.89508]}},{"type":"Feature","properties":{"label:cs":"Křížový kámen u hradu v Dolní Bělé","P31":"http://www.wikidata.org/entity/Q38411643","P31^label:cs":"Křížový kámen","P131^label:cs":"Dolní Bělá","P6736":"8312"},"geometry":{"type":"Point","coordinates":[13.27407,49.89872]}},{"type":"Feature","properties":{"label:cs":"Pomník padlým v Dolní Bělé","P31":"http://www.wikidata.org/entity/Q575759","P31^label:cs":"Pomník padlým","P131^label:cs":"Dolní Bělá","P6736":"4842"},"geometry":{"type":"Point","coordinates":[13.27303,49.89579]}},{"type":"Feature","properties":{"label:cs":"Kříž v Dolní Bělé na rozcestí","P31":"http://www.wikidata.org/entity/Q2309609","P31^label:cs":"Pamětní kříž","P131^label:cs":"Dolní Bělá","P6736":"4192"},"geometry":{"type":"Point","coordinates":[13.27936,49.89933]}},{"type":"Feature","properties":{"label:cs":"Kříž v Dolní Bělé pod hradem","P31":"http://www.wikidata.org/entity/Q2309609","P31^label:cs":"Pamětní kříž","P131^label:cs":"Dolní Bělá","P6736":"4191"},"geometry":{"type":"Point","coordinates":[13.27532,49.89746]}},{"type":"Feature","properties":{"label:cs":"Kříž na křižovatce v Dolní Bělé","P31":"http://www.wikidata.org/entity/Q2309609","P31^label:cs":"Pamětní kříž","P131^label:cs":"Dolní Bělá","P6736":"3552"},"geometry":{"type":"Point","coordinates":[13.27294,49.89599]}},{"type":"Feature","properties":{"label:cs":"Kříž nad Dolní Bělou pod kaštany","P31":"http://www.wikidata.org/entity/Q2309609","P31^label:cs":"Pamětní kříž","P131^label:cs":"Dolní Bělá","P6736":"1405"},"geometry":{"type":"Point","coordinates":[13.28509,49.90209]}},{"type":"Feature","properties":{"label:cs":"Kaple severovýchodně od Dolní Bělé","P31":"http://www.wikidata.org/entity/Q108325","P31^label:cs":"Kaple","P131^label:cs":"Dolní Bělá","P6736":"1402"},"geometry":{"type":"Point","coordinates":[13.28402,49.89864]}},{"type":"Feature","properties":{"label:cs":"Kříž u Dolní Bělé v části Brlín","P31":"http://www.wikidata.org/entity/Q2309609","P31^label:cs":"Pamětní kříž","P131^label:cs":"Dolní Bělá","P6736":"1401"},"geometry":{"type":"Point","coordinates":[13.27676,49.90185]}}]}