{"type":"FeatureCollection","features":[{"type":"Feature","properties":{"label:cs":"Plastika Srdce parku u Dobřánek","P31":"http://www.wikidata.org/entity/Q12045520","P31^label:cs":"Plastika","P131^label:cs":"Dobřany","P6736":"34523"},"geometry":{"type":"Point","coordinates":[13.28664,49.66324]}},{"type":"Feature","properties":{"label:cs":"Památník u Dobřánek","P31":"http://www.wikidata.org/entity/Q5003624","P31^label:cs":"Památník","P131^label:cs":"Dobřany","P6736":"34522"},"geometry":{"type":"Point","coordinates":[13.28549,49.66197]}},{"type":"Feature","properties":{"label:cs":"Zvonička u Dobřánek","P31":"http://www.wikidata.org/entity/Q10861631","P31^label:cs":"Zvonička","P131^label:cs":"Dobřany","P6736":"34521"},"geometry":{"type":"Point","coordinates":[13.28312,49.66204]}},{"type":"Feature","properties":{"label:cs":"Plastika v Dobřanech u Mánesovy ulice","P31":"http://www.wikidata.org/entity/Q12045520","P31^label:cs":"Plastika","P131^label:cs":"Dobřany","P6736":"10828"},"geometry":{"type":"Point","coordinates":[13.28865,49.65655]}},{"type":"Feature","properties":{"label:cs":"Kašna v Dobřanech na náměstí","P31":"http://www.wikidata.org/entity/Q12029081","P31^label:cs":"Kašna","P131^label:cs":"Dobřany","P6736":"10825"},"geometry":{"type":"Point","coordinates":[13.29083,49.65526]}},{"type":"Feature","properties":{"label:cs":"Dřevěný kříž Smíření severně od Dobřánek","P31":"http://www.wikidata.org/entity/Q2309609","P31^label:cs":"Pamětní kříž","P131^label:cs":"Dobřany","P6736":"10121"},"geometry":{"type":"Point","coordinates":[13.28106,49.6613]}},{"type":"Feature","properties":{"label:cs":"Kaplička na Kamínku v Dobřánkách","P31":"http://www.wikidata.org/entity/Q14552192","P31^label:cs":"Kaplička","P131^label:cs":"Dobřany","P6736":"10120"},"geometry":{"type":"Point","coordinates":[13.2824,49.66045]}},{"type":"Feature","properties":{"label:cs":"Kříž u kostela svatého Víta v Dobřanech","P31":"http://www.wikidata.org/entity/Q2309609","P31^label:cs":"Pamětní kříž","P131^label:cs":"Dobřany","P6736":"9605"},"geometry":{"type":"Point","coordinates":[13.28977,49.65585]}},{"type":"Feature","properties":{"label:cs":"Kříž u Kamenného mostu v Dobřanech","P31":"http://www.wikidata.org/entity/Q2309609","P31^label:cs":"Pamětní kříž","P131^label:cs":"Dobřany","P6736":"9603"},"geometry":{"type":"Point","coordinates":[13.28845,49.65648]}},{"type":"Feature","properties":{"label:cs":"Podstavec u stromů přátelství v Dobřanech","P31":"http://www.wikidata.org/entity/?","P31^label:cs":"Neznámý","P131^label:cs":"Dobřany","P6736":"9601"},"geometry":{"type":"Point","coordinates":[13.28866,49.65664]}},{"type":"Feature","properties":{"label:cs":"Kameny u stromů přátelství v Dobřanech","P31":"http://www.wikidata.org/entity/Q11734477","P31^label:cs":"Památný kámen","P131^label:cs":"Dobřany","P6736":"9600"},"geometry":{"type":"Point","coordinates":[13.2887,49.65658]}}]}