{"type":"FeatureCollection","features":[{"type":"Feature","properties":{"label:cs":"Památka severovýchodně od Rabštejna nad Střelou - nenalezeno","P31":"http://www.wikidata.org/entity/?","P31^label:cs":"Nenalezena","P131^label:cs":"Žihle","P6736":"36172"},"geometry":{"type":"Point","coordinates":[13.29797,50.04779]}},{"type":"Feature","properties":{"label:cs":"Socha svatého Jana Nepomuckého u Rabštejna nad Střelou","P31":"http://www.wikidata.org/entity/Q179700","P31^label:cs":"Socha","P131^label:cs":"Žihle","P6736":"2201"},"geometry":{"type":"Point","coordinates":[13.29576,50.04689]}},{"type":"Feature","properties":{"label:cs":"Památka v lese východně od Rabštejna nad Střelou - nenalezeno","P31":"http://www.wikidata.org/entity/?","P31^label:cs":"Nenalezena","P131^label:cs":"Manětín","P6736":"40282"},"geometry":{"type":"Point","coordinates":[13.30005,50.04063]}},{"type":"Feature","properties":{"label:cs":"Kříž na Hraběcí vyhlídce u Rabštejna nad Střelou","P31":"http://www.wikidata.org/entity/Q2309609","P31^label:cs":"Pamětní kříž","P131^label:cs":"Manětín","P6736":"8192"},"geometry":{"type":"Point","coordinates":[13.2961,50.03994]}},{"type":"Feature","properties":{"label:cs":"Kaple v Rabštejně nad Střelou","P31":"http://www.wikidata.org/entity/Q108325","P31^label:cs":"Kaple","P131^label:cs":"Manětín","P6736":"4393"},"geometry":{"type":"Point","coordinates":[13.29368,50.0453]}},{"type":"Feature","properties":{"label:cs":"Socha svatého Vojtěcha v Rabštejně nad Střelou","P31":"http://www.wikidata.org/entity/Q179700","P31^label:cs":"Socha","P131^label:cs":"Manětín","P6736":"3614"},"geometry":{"type":"Point","coordinates":[13.29447,50.04583]}},{"type":"Feature","properties":{"label:cs":"Smírčí kříž v Rabštejně nad Střelou","P31":"http://www.wikidata.org/entity/Q1640496","P31^label:cs":"Smírčí kříž","P131^label:cs":"Manětín","P6736":"3613"},"geometry":{"type":"Point","coordinates":[13.29451,50.04575]}},{"type":"Feature","properties":{"label:cs":"Kaple svatého Antonína východně od Rabštejna nad Střelou","P31":"http://www.wikidata.org/entity/Q108325","P31^label:cs":"Kaple","P131^label:cs":"Manětín","P6736":"2202"},"geometry":{"type":"Point","coordinates":[13.30079,50.04892]}}]}