{
    "type": "FeatureCollection",
    "features": [
        {
            "type": "Feature",
            "properties": {
                "label:cs": "Jezdecká socha svatého Jiří v Křimicích",
                "P31": "Socha",
                "P31^label:cs": "Socha",
                "P131^label:cs": "Plzeň",
                "P6736": "6802"
            },
            "geometry": {
                "type": "Point",
                "coordinates": [
                    13.30686,
                    49.75853
                ]
            }
        },
        {
            "type": "Feature",
            "properties": {
                "label:cs": "Kříž v Křimicích u zámku",
                "P31": "Pamětní kříž",
                "P31^label:cs": "Pamětní kříž",
                "P131^label:cs": "Plzeň",
                "P6736": "6208"
            },
            "geometry": {
                "type": "Point",
                "coordinates": [
                    13.30596,
                    49.75819
                ]
            }
        },
        {
            "type": "Feature",
            "properties": {
                "label:cs": "Socha svatého Jana Nepomuckého u Křimic",
                "P31": "Socha",
                "P31^label:cs": "Socha",
                "P131^label:cs": "Plzeň",
                "P6736": "6165"
            },
            "geometry": {
                "type": "Point",
                "coordinates": [
                    13.30639,
                    49.75903
                ]
            }
        },
        {
            "type": "Feature",
            "properties": {
                "label:cs": "Socha v Křimicích u školy",
                "P31": "Socha",
                "P31^label:cs": "Socha",
                "P131^label:cs": "Plzeň",
                "P6736": "6166"
            },
            "geometry": {
                "type": "Point",
                "coordinates": [
                    13.30703,
                    49.75401
                ]
            }
        },
        {
            "type": "Feature",
            "properties": {
                "label:cs": "Plastika severně od Křimic",
                "P31": "Plastika",
                "P31^label:cs": "Plastika",
                "P131^label:cs": "Plzeň",
                "P6736": "6164"
            },
            "geometry": {
                "type": "Point",
                "coordinates": [
                    13.30873,
                    49.75956
                ]
            }
        },
        {
            "type": "Feature",
            "properties": {
                "label:cs": "Socha svatého Josefa na návsi v Křimicích",
                "P31": "Socha",
                "P31^label:cs": "Socha",
                "P131^label:cs": "Plzeň",
                "P6736": "5047"
            },
            "geometry": {
                "type": "Point",
                "coordinates": [
                    13.30634,
                    49.75775
                ]
            }
        },
        {
            "type": "Feature",
            "properties": {
                "label:cs": "Sousoší Piety v Křimicích",
                "P31": "Socha",
                "P31^label:cs": "Socha",
                "P131^label:cs": "Plzeň",
                "P6736": "5046"
            },
            "geometry": {
                "type": "Point",
                "coordinates": [
                    13.30791,
                    49.75836
                ]
            }
        },
        {
            "type": "Feature",
            "properties": {
                "label:cs": "Pomník padlým v první světové válce v Křimicích",
                "P31": "Pomník padlým",
                "P31^label:cs": "Pomník padlým",
                "P131^label:cs": "Plzeň",
                "P6736": "4648"
            },
            "geometry": {
                "type": "Point",
                "coordinates": [
                    13.30681,
                    49.75779
                ]
            }
        },
        {
            "type": "Feature",
            "properties": {
                "label:cs": "Pomník v Křimicích na návsi",
                "P31": "Pomník",
                "P31^label:cs": "Pomník",
                "P131^label:cs": "Plzeň",
                "P6736": "4647"
            },
            "geometry": {
                "type": "Point",
                "coordinates": [
                    13.30667,
                    49.75792
                ]
            }
        },
        {
            "type": "Feature",
            "properties": {
                "label:cs": "Pomník padlým ve druhé světové válce v Křimicích",
                "P31": "Pomník padlým",
                "P31^label:cs": "Pomník padlým",
                "P131^label:cs": "Plzeň",
                "P6736": "4646"
            },
            "geometry": {
                "type": "Point",
                "coordinates": [
                    13.30688,
                    49.75791
                ]
            }
        },
        {
            "type": "Feature",
            "properties": {
                "label:cs": "Památník v Křimicích",
                "P31": "Památník",
                "P31^label:cs": "Památník",
                "P131^label:cs": "Plzeň",
                "P6736": "4645"
            },
            "geometry": {
                "type": "Point",
                "coordinates": [
                    13.30718,
                    49.7583
                ]
            }
        },
        {
            "type": "Feature",
            "properties": {
                "label:cs": "Kříž západně od Křimic",
                "P31": "Pamětní kříž",
                "P31^label:cs": "Pamětní kříž",
                "P131^label:cs": "Plzeň",
                "P6736": "1815"
            },
            "geometry": {
                "type": "Point",
                "coordinates": [
                    13.29399,
                    49.7584
                ]
            }
        }
    ]
}