{"type":"FeatureCollection","features":[{"type":"Feature","properties":{"label:cs":"Kříž jihozápadně od Krašovic","P31":"Pamětní kříž","P31^label:cs":"Pamětní kříž","P131^label:cs":"Krašovice","P6736":"5669"},"geometry":{"type":"Point","coordinates":[13.304,49.86942]}},{"type":"Feature","properties":{"label:cs":"Pomník padlým v Krašovicích II","P31":"Pomník padlým","P31^label:cs":"Pomník padlým","P131^label:cs":"Krašovice","P6736":"4188"},"geometry":{"type":"Point","coordinates":[13.305,49.87134]}},{"type":"Feature","properties":{"label:cs":"Pomník padlým v Krašovicích","P31":"Pomník padlým","P31^label:cs":"Pomník padlým","P131^label:cs":"Krašovice","P6736":"4187"},"geometry":{"type":"Point","coordinates":[13.30495,49.87137]}},{"type":"Feature","properties":{"label:cs":"Kříž jižně od Bučí","P31":"Pamětní kříž","P31^label:cs":"Pamětní kříž","P131^label:cs":"Bučí","P6736":"3545"},"geometry":{"type":"Point","coordinates":[13.30269,49.87926]}},{"type":"Feature","properties":{"label:cs":"Kříž v Krašovicích u kostela","P31":"Pamětní kříž","P31^label:cs":"Pamětní kříž","P131^label:cs":"Krašovice","P6736":"3544"},"geometry":{"type":"Point","coordinates":[13.30559,49.87197]}},{"type":"Feature","properties":{"label:cs":"Kříž na rozcestí jihovýchodně od Krašovic","P31":"Pamětní kříž","P31^label:cs":"Pamětní kříž","P131^label:cs":"Krašovice","P6736":"1794"},"geometry":{"type":"Point","coordinates":[13.3124,49.8722]}},{"type":"Feature","properties":{"label:cs":"Podstavec jižně od Bučí","P31":"Neznámý","P31^label:cs":"Neznámý","P131^label:cs":"Bučí","P6736":"1294"},"geometry":{"type":"Point","coordinates":[13.30883,49.88002]}}]}