{"type":"FeatureCollection","features":[{"type":"Feature","properties":{"label:cs":"Památka severně od Černé Hatě - nenalezeno","P31":"http://www.wikidata.org/entity/?","P31^label:cs":"Nenalezena","P131^label:cs":"Mladotice","P6736":"36067"},"geometry":{"type":"Point","coordinates":[13.31255,50.00772]}},{"type":"Feature","properties":{"label:cs":"Podstavec u rybníčku v Černé Hati","P31":"http://www.wikidata.org/entity/?","P31^label:cs":"Neznámý","P131^label:cs":"Mladotice","P6736":"19317"},"geometry":{"type":"Point","coordinates":[13.31036,50.00401]}},{"type":"Feature","properties":{"label:cs":"Zvonička v Černé Hati","P31":"http://www.wikidata.org/entity/Q10861631","P31^label:cs":"Zvonička","P131^label:cs":"Mladotice","P6736":"8151"},"geometry":{"type":"Point","coordinates":[13.31042,50.00401]}},{"type":"Feature","properties":{"label:cs":"Kříž severně od Černé Hati","P31":"http://www.wikidata.org/entity/Q2309609","P31^label:cs":"Pamětní kříž","P131^label:cs":"Mladotice","P6736":"8148"},"geometry":{"type":"Point","coordinates":[13.31053,50.00516]}},{"type":"Feature","properties":{"label:cs":"Socha v Černé Hati","P31":"http://www.wikidata.org/entity/Q179700","P31^label:cs":"Socha","P131^label:cs":"Mladotice","P6736":"8147"},"geometry":{"type":"Point","coordinates":[13.3115,50.00404]}},{"type":"Feature","properties":{"label:cs":"Kříž v Černé Hati u transformátoru","P31":"http://www.wikidata.org/entity/Q2309609","P31^label:cs":"Pamětní kříž","P131^label:cs":"Mladotice","P6736":"8146"},"geometry":{"type":"Point","coordinates":[13.31162,50.00403]}},{"type":"Feature","properties":{"label:cs":"Kříž východně od Černé Hati","P31":"http://www.wikidata.org/entity/Q2309609","P31^label:cs":"Pamětní kříž","P131^label:cs":"Mladotice","P6736":"8145"},"geometry":{"type":"Point","coordinates":[13.31308,50.00349]}},{"type":"Feature","properties":{"label:cs":"Kříž západně od Strážovic nad Čoubovým mlýnem","P31":"http://www.wikidata.org/entity/Q2309609","P31^label:cs":"Pamětní kříž","P131^label:cs":"Mladotice","P6736":"8616"},"geometry":{"type":"Point","coordinates":[13.31164,49.9955]}},{"type":"Feature","properties":{"label:cs":"Kříž u Čoubova Mlýna","P31":"http://www.wikidata.org/entity/Q2309609","P31^label:cs":"Pamětní kříž","P131^label:cs":"Mladotice","P6736":"8149"},"geometry":{"type":"Point","coordinates":[13.30895,49.99688]}},{"type":"Feature","properties":{"label:cs":"Kříž jižně od Čoubova Mlýna","P31":"http://www.wikidata.org/entity/Q2309609","P31^label:cs":"Pamětní kříž","P131^label:cs":"Štichovice","P6736":"8152"},"geometry":{"type":"Point","coordinates":[13.30543,49.99531]}},{"type":"Feature","properties":{"label:cs":"Socha svatého Jana Nepomuckého u Čoubova Mlýna","P31":"http://www.wikidata.org/entity/Q179700","P31^label:cs":"Socha","P131^label:cs":"Manětín","P6736":"8150"},"geometry":{"type":"Point","coordinates":[13.30702,49.99746]}}]}