{"type":"FeatureCollection","features":[{"type":"Feature","properties":{"label:cs":"Kříž na Hraběcí vyhlídce u Rabštejna nad Střelou","P31":"Pamětní kříž","P31^label:cs":"Pamětní kříž","P131^label:cs":"Manětín","P6736":"8192"},"geometry":{"type":"Point","coordinates":[13.2961,50.03994]}},{"type":"Feature","properties":{"label:cs":"Kaple v Rabštejně nad Střelou","P31":"Kaple","P31^label:cs":"Kaple","P131^label:cs":"Manětín","P6736":"4393"},"geometry":{"type":"Point","coordinates":[13.29368,50.0453]}},{"type":"Feature","properties":{"label:cs":"Socha svatého Vojtěcha v Rabštejně nad Střelou","P31":"Socha","P31^label:cs":"Socha","P131^label:cs":"Manětín","P6736":"3614"},"geometry":{"type":"Point","coordinates":[13.29447,50.04583]}},{"type":"Feature","properties":{"label:cs":"Smírčí kříž u mostu přes řeku Střelu v Rabštejně nad Střelou","P31":"Smírčí kříž","P31^label:cs":"Smírčí kříž","P131^label:cs":"Manětín","P6736":"3613"},"geometry":{"type":"Point","coordinates":[13.29451,50.04575]}},{"type":"Feature","properties":{"label:cs":"Socha svatého Jana Nepomuckého u Rabštejna nad Střelou","P31":"Socha","P31^label:cs":"Socha","P131^label:cs":"Žihle","P6736":"2201"},"geometry":{"type":"Point","coordinates":[13.29577,50.04687]}},{"type":"Feature","properties":{"label:cs":"Kaplička nad Rabštejnem nad Střelou","P31":"Kaplička","P31^label:cs":"Kaplička","P131^label:cs":"Žihle","P6736":"2202"},"geometry":{"type":"Point","coordinates":[13.30349,50.04989]}}]}