{"type":"FeatureCollection","features":[{"type":"Feature","properties":{"label:cs":"Památka severovýchodně od Krašovic - nenalezeno","P31":"http://www.wikidata.org/entity/?","P31^label:cs":"Nenalezena","P131^label:cs":"Bučí","P6736":"35330"},"geometry":{"type":"Point","coordinates":[13.30799,49.87706]}},{"type":"Feature","properties":{"label:cs":"Kříž jižně od Bučí","P31":"http://www.wikidata.org/entity/Q2309609","P31^label:cs":"Pamětní kříž","P131^label:cs":"Bučí","P6736":"3545"},"geometry":{"type":"Point","coordinates":[13.30269,49.87926]}},{"type":"Feature","properties":{"label:cs":"Rozcestník jižně od Bučí","P31":"http://www.wikidata.org/entity/Q5003624","P31^label:cs":"Dopravní památka","P131^label:cs":"Bučí","P6736":"1294"},"geometry":{"type":"Point","coordinates":[13.30883,49.88002]}},{"type":"Feature","properties":{"label:cs":"Památka u rybníka v Krašovicích - nenalezeno","P31":"http://www.wikidata.org/entity/?","P31^label:cs":"Nenalezena","P131^label:cs":"Krašovice","P6736":"35895"},"geometry":{"type":"Point","coordinates":[13.31065,49.87294]}},{"type":"Feature","properties":{"label:cs":"Kříž jihozápadně od Krašovic","P31":"http://www.wikidata.org/entity/Q2309609","P31^label:cs":"Pamětní kříž","P131^label:cs":"Krašovice","P6736":"5669"},"geometry":{"type":"Point","coordinates":[13.304,49.86942]}},{"type":"Feature","properties":{"label:cs":"Pomník padlým v Krašovicích II","P31":"http://www.wikidata.org/entity/Q575759","P31^label:cs":"Pomník padlým","P131^label:cs":"Krašovice","P6736":"4188"},"geometry":{"type":"Point","coordinates":[13.305,49.87134]}},{"type":"Feature","properties":{"label:cs":"Pomník padlým v Krašovicích","P31":"http://www.wikidata.org/entity/Q575759","P31^label:cs":"Pomník padlým","P131^label:cs":"Krašovice","P6736":"4187"},"geometry":{"type":"Point","coordinates":[13.30495,49.87137]}},{"type":"Feature","properties":{"label:cs":"Kříž v Krašovicích","P31":"http://www.wikidata.org/entity/Q2309609","P31^label:cs":"Pamětní kříž","P131^label:cs":"Krašovice","P6736":"3544"},"geometry":{"type":"Point","coordinates":[13.30559,49.87197]}},{"type":"Feature","properties":{"label:cs":"Kříž na rozcestí jihovýchodně od Krašovic","P31":"http://www.wikidata.org/entity/Q2309609","P31^label:cs":"Pamětní kříž","P131^label:cs":"Krašovice","P6736":"1794"},"geometry":{"type":"Point","coordinates":[13.3124,49.8722]}},{"type":"Feature","properties":{"label:cs":"Kříž severně od Trnové - nenalezeno","P31":"http://www.wikidata.org/entity/?","P31^label:cs":"Nenalezena","P131^label:cs":"Trnová","P6736":"35815"},"geometry":{"type":"Point","coordinates":[13.31351,49.86752]}}]}