{"type":"FeatureCollection","features":[{"type":"Feature","properties":{"label:cs":"Památka v Kračíně na návsi - nenalezeno","P31":"http://www.wikidata.org/entity/?","P31^label:cs":"Nenalezena","P131^label:cs":"Tis u Blatna","P6736":"38923"},"geometry":{"type":"Point","coordinates":[13.31572,50.09016]}},{"type":"Feature","properties":{"label:cs":"Kříž východně od Kračína - nenalezeno","P31":"http://www.wikidata.org/entity/?","P31^label:cs":"Nenalezena","P131^label:cs":"Tis u Blatna","P6736":"35615"},"geometry":{"type":"Point","coordinates":[13.31863,50.0892]}},{"type":"Feature","properties":{"label:cs":"Kaple Královny Posvátného Růžence v Kračíně","P31":"http://www.wikidata.org/entity/Q108325","P31^label:cs":"Kaple","P131^label:cs":"Tis u Blatna","P6736":"4213"},"geometry":{"type":"Point","coordinates":[13.31602,50.09023]}},{"type":"Feature","properties":{"label:cs":"Kříž u Kračína","P31":"http://www.wikidata.org/entity/Q2309609","P31^label:cs":"Pamětní kříž","P131^label:cs":"Tis u Blatna","P6736":"1789"},"geometry":{"type":"Point","coordinates":[13.32396,50.08742]}},{"type":"Feature","properties":{"label:cs":"Kříž u rozcestí jihozápadně od Tisu u Blatna","P31":"http://www.wikidata.org/entity/Q2309609","P31^label:cs":"Pamětní kříž","P131^label:cs":"Tis u Blatna","P6736":"40280"},"geometry":{"type":"Point","coordinates":[13.33057,50.08168]}},{"type":"Feature","properties":{"label:cs":"Kapička západně od Tisu u Blatna - nenalezeno","P31":"http://www.wikidata.org/entity/?","P31^label:cs":"Nenalezena","P131^label:cs":"Tis u Blatna","P6736":"35614"},"geometry":{"type":"Point","coordinates":[13.3304,50.08164]}},{"type":"Feature","properties":{"label:cs":"Kříž jihozápadně od Tisu u Blatna","P31":"http://www.wikidata.org/entity/Q2309609","P31^label:cs":"Pamětní kříž","P131^label:cs":"Tis u Blatna","P6736":"7979"},"geometry":{"type":"Point","coordinates":[13.33168,50.08087]}}]}