{"type":"FeatureCollection","features":[{"type":"Feature","properties":{"label:cs":"Památka u Velké Černé Hati - nenalezeno","P31":"http://www.wikidata.org/entity/?","P31^label:cs":"Nenalezena","P131^label:cs":"Mladotice","P6736":"36259"},"geometry":{"type":"Point","coordinates":[13.33359,50.00668]}},{"type":"Feature","properties":{"label:cs":"Památka východně od Černé Hati - nenalezeno","P31":"http://www.wikidata.org/entity/?","P31^label:cs":"Nenalezena","P131^label:cs":"Mladotice","P6736":"35773"},"geometry":{"type":"Point","coordinates":[13.32544,50.00254]}},{"type":"Feature","properties":{"label:cs":"Dřevěný kříž severně od Strážiště","P31":"http://www.wikidata.org/entity/Q2309609","P31^label:cs":"Pamětní kříž","P131^label:cs":"Mladotice","P6736":"19316"},"geometry":{"type":"Point","coordinates":[13.3251,49.99464]}},{"type":"Feature","properties":{"label:cs":"Kříž severovýchodně od Strážiště v lesíku","P31":"http://www.wikidata.org/entity/Q2309609","P31^label:cs":"Pamětní kříž","P131^label:cs":"Mladotice","P6736":"8112"},"geometry":{"type":"Point","coordinates":[13.32915,49.99409]}},{"type":"Feature","properties":{"label:cs":"Kříž severně od Strážiště","P31":"http://www.wikidata.org/entity/Q2309609","P31^label:cs":"Pamětní kříž","P131^label:cs":"Mladotice","P6736":"8111"},"geometry":{"type":"Point","coordinates":[13.32685,49.9956]}},{"type":"Feature","properties":{"label:cs":"Kříž u Velké Černé Hatě - nenalezeno","P31":"http://www.wikidata.org/entity/?","P31^label:cs":"Nenalezena","P131^label:cs":"Mladotice","P6736":"35483"},"geometry":{"type":"Point","coordinates":[13.33254,50.00399]}}]}