{"type":"FeatureCollection","features":[{"type":"Feature","properties":{"label:cs":"Socha svaté Marie v Horní Lukavici","P31":"http://www.wikidata.org/entity/Q179700","P31^label:cs":"Socha","P131^label:cs":"Horní Lukavice","P6736":"10909"},"geometry":{"type":"Point","coordinates":[13.32879,49.61161]}},{"type":"Feature","properties":{"label:cs":"Kaplička ve zdi v Horní Lukavici","P31":"http://www.wikidata.org/entity/Q14552192","P31^label:cs":"Kaplička","P131^label:cs":"Horní Lukavice","P6736":"10908"},"geometry":{"type":"Point","coordinates":[13.32804,49.61237]}},{"type":"Feature","properties":{"label:cs":"Kříž v Horní Lukavici západně od návsi","P31":"http://www.wikidata.org/entity/Q2309609","P31^label:cs":"Pamětní kříž","P131^label:cs":"Horní Lukavice","P6736":"10906"},"geometry":{"type":"Point","coordinates":[13.32586,49.61137]}},{"type":"Feature","properties":{"label:cs":"Kříž v Horní Lukavici","P31":"http://www.wikidata.org/entity/Q2309609","P31^label:cs":"Pamětní kříž","P131^label:cs":"Horní Lukavice","P6736":"5037"},"geometry":{"type":"Point","coordinates":[13.33122,49.61187]}},{"type":"Feature","properties":{"label:cs":"Pomník padlým v Horní Lukavici","P31":"http://www.wikidata.org/entity/Q575759","P31^label:cs":"Pomník padlým","P131^label:cs":"Horní Lukavice","P6736":"4116"},"geometry":{"type":"Point","coordinates":[13.32702,49.61171]}},{"type":"Feature","properties":{"label:cs":"Kaple v Horní Lukavici","P31":"http://www.wikidata.org/entity/Q108325","P31^label:cs":"Kaple","P131^label:cs":"Horní Lukavice","P6736":"4115"},"geometry":{"type":"Point","coordinates":[13.32701,49.61186]}},{"type":"Feature","properties":{"label:cs":"Socha svatého Jana Nepomuckého v Horní Lukavici","P31":"http://www.wikidata.org/entity/Q179700","P31^label:cs":"Socha","P131^label:cs":"Horní Lukavice","P6736":"4114"},"geometry":{"type":"Point","coordinates":[13.32457,49.61229]}}]}