{"type":"FeatureCollection","features":[{"type":"Feature","properties":{"label:cs":"Kříž v Dolní Lukavici","P31":"http://www.wikidata.org/entity/Q2309609","P31^label:cs":"Pamětní kříž","P131^label:cs":"Dolní Lukavice","P6736":"4117"},"geometry":{"type":"Point","coordinates":[13.34203,49.60451]}},{"type":"Feature","properties":{"label:cs":"Pomník padlým v Dolní Lukavici","P31":"http://www.wikidata.org/entity/Q575759","P31^label:cs":"Pomník padlým","P131^label:cs":"Dolní Lukavice","P6736":"4118"},"geometry":{"type":"Point","coordinates":[13.34489,49.60284]}},{"type":"Feature","properties":{"label:cs":"Boží muka v Dolní Lukavici u kostela","P31":"http://www.wikidata.org/entity/Q3395121","P31^label:cs":"Boží muka","P131^label:cs":"Dolní Lukavice","P6736":"4119"},"geometry":{"type":"Point","coordinates":[13.34588,49.60206]}},{"type":"Feature","properties":{"label:cs":"Kříž východně od Dolní Lukavice","P31":"http://www.wikidata.org/entity/Q2309609","P31^label:cs":"Pamětní kříž","P131^label:cs":"Dolní Lukavice","P6736":"10921"},"geometry":{"type":"Point","coordinates":[13.35818,49.6002]}},{"type":"Feature","properties":{"label:cs":"Socha svatého Jana Nepomuckého východně od Dolní Lukavice","P31":"http://www.wikidata.org/entity/Q179700","P31^label:cs":"Socha","P131^label:cs":"Dolní Lukavice","P6736":"10922"},"geometry":{"type":"Point","coordinates":[13.3502,49.60181]}},{"type":"Feature","properties":{"label:cs":"Socha svatého Jana Nepomuckého v Dolní Lukavici","P31":"http://www.wikidata.org/entity/Q179700","P31^label:cs":"Socha","P131^label:cs":"Dolní Lukavice","P6736":"10923"},"geometry":{"type":"Point","coordinates":[13.34548,49.6022]}},{"type":"Feature","properties":{"label:cs":"Kříž v jižní části Dolní Lukavice","P31":"http://www.wikidata.org/entity/Q2309609","P31^label:cs":"Pamětní kříž","P131^label:cs":"Dolní Lukavice","P6736":"10926"},"geometry":{"type":"Point","coordinates":[13.34311,49.59949]}}]}