{"type":"FeatureCollection","features":[{"type":"Feature","properties":{"label:cs":"Památka jihozápadně od Senného Dolíku - nenalezeno","P31":"http://www.wikidata.org/entity/?","P31^label:cs":"Nenalezena","P131^label:cs":"Plasy","P6736":"38882"},"geometry":{"type":"Point","coordinates":[13.34144,49.90978]}},{"type":"Feature","properties":{"label:cs":"Obrázek jižně od Senného Dolíku u rozcestí","P31":"http://www.wikidata.org/entity/Q478798","P31^label:cs":"Obrázek","P131^label:cs":"Plasy","P6736":"35026"},"geometry":{"type":"Point","coordinates":[13.34648,49.91061]}},{"type":"Feature","properties":{"label:cs":"Kříž u myslivny Senný Dolík","P31":"http://www.wikidata.org/entity/Q2309609","P31^label:cs":"Pamětní kříž","P131^label:cs":"Plasy","P6736":"11261"},"geometry":{"type":"Point","coordinates":[13.34581,49.91274]}},{"type":"Feature","properties":{"label:cs":"Obrázek u myslivny Senný Dolík","P31":"http://www.wikidata.org/entity/Q478798","P31^label:cs":"Obrázek","P131^label:cs":"Plasy","P6736":"5665"},"geometry":{"type":"Point","coordinates":[13.34541,49.91255]}},{"type":"Feature","properties":{"label:cs":"Obrázek východně od Lomničky","P31":"http://www.wikidata.org/entity/Q478798","P31^label:cs":"Obrázek","P131^label:cs":"Plasy","P6736":"1975"},"geometry":{"type":"Point","coordinates":[13.34215,49.91886]}},{"type":"Feature","properties":{"label:cs":"Obrázek východně od Lomničky nad Černou jámou","P31":"http://www.wikidata.org/entity/Q478798","P31^label:cs":"Obrázek","P131^label:cs":"Plasy","P6736":"1974"},"geometry":{"type":"Point","coordinates":[13.34631,49.92275]}}]}