{"type":"FeatureCollection","features":[{"type":"Feature","properties":{"label:cs":"Kříž nad Střelou západně od Horního Hradiště","P31":"http://www.wikidata.org/entity/Q2309609","P31^label:cs":"Pamětní kříž","P131^label:cs":"Plasy","P6736":"40298"},"geometry":{"type":"Point","coordinates":[13.35129,49.96108]}},{"type":"Feature","properties":{"label:cs":"Malovaná skála nad Střelou západně od Horního Hradiště","P31":"http://www.wikidata.org/entity/Q11734477","P31^label:cs":"Památný kámen","P131^label:cs":"Plasy","P6736":"40297"},"geometry":{"type":"Point","coordinates":[13.35408,49.96339]}},{"type":"Feature","properties":{"label:cs":"Památník neštěstí na železnic západně od Horního Hradiště","P31":"http://www.wikidata.org/entity/Q5003624","P31^label:cs":"Památník","P131^label:cs":"Plasy","P6736":"8120"},"geometry":{"type":"Point","coordinates":[13.35125,49.96097]}},{"type":"Feature","properties":{"label:cs":"Kříž jihovýchodně od Ondřejova u rozcestí - nenalezeno","P31":"http://www.wikidata.org/entity/?","P31^label:cs":"Nenalezena","P131^label:cs":"Pláně","P6736":"35642"},"geometry":{"type":"Point","coordinates":[13.3433,49.9626]}},{"type":"Feature","properties":{"label:cs":"Kříž na skále nad řekou Střelou jihovýchodně od Ondřejova","P31":"http://www.wikidata.org/entity/Q2309609","P31^label:cs":"Pamětní kříž","P131^label:cs":"Pláně","P6736":"40296"},"geometry":{"type":"Point","coordinates":[13.34977,49.9605]}},{"type":"Feature","properties":{"label:cs":"Kříž východně od Ondřejova - nenalezeno","P31":"http://www.wikidata.org/entity/?","P31^label:cs":"Nenalezena","P131^label:cs":"Pláně","P6736":"35641"},"geometry":{"type":"Point","coordinates":[13.34491,49.96305]}}]}