{"type":"FeatureCollection","features":[{"type":"Feature","properties":{"label:cs":"Památka jižně od Žihle u trati - nenalezeno","P31":"http://www.wikidata.org/entity/?","P31^label:cs":"Nenalezena","P131^label:cs":"Žihle","P6736":"39869"},"geometry":{"type":"Point","coordinates":[13.37281,50.03791]}},{"type":"Feature","properties":{"label:cs":"Pamítka v Žihli - nenalezeno","P31":"http://www.wikidata.org/entity/?","P31^label:cs":"Nenalezena","P131^label:cs":"Žihle","P6736":"38935"},"geometry":{"type":"Point","coordinates":[13.37802,50.04464]}},{"type":"Feature","properties":{"label:cs":"Památka v Žihli u křižovatky - nenalezeno","P31":"http://www.wikidata.org/entity/?","P31^label:cs":"Nenalezena","P131^label:cs":"Žihle","P6736":"38934"},"geometry":{"type":"Point","coordinates":[13.3771,50.04353]}},{"type":"Feature","properties":{"label:cs":"Památka v Žihli na návsi - nenalezeno","P31":"http://www.wikidata.org/entity/?","P31^label:cs":"Nenalezena","P131^label:cs":"Žihle","P6736":"38933"},"geometry":{"type":"Point","coordinates":[13.37387,50.045]}},{"type":"Feature","properties":{"label:cs":"Památka ve východní části Žihle - nenalezeno","P31":"http://www.wikidata.org/entity/?","P31^label:cs":"Nenalezena","P131^label:cs":"Žihle","P6736":"38932"},"geometry":{"type":"Point","coordinates":[13.37982,50.04289]}},{"type":"Feature","properties":{"label:cs":"Památka jižně od Žihle - nenalezeno","P31":"http://www.wikidata.org/entity/?","P31^label:cs":"Nenalezena","P131^label:cs":"Žihle","P6736":"36115"},"geometry":{"type":"Point","coordinates":[13.37588,50.04099]}},{"type":"Feature","properties":{"label:cs":"Památka severně od Žihle - nenalezeno","P31":"http://www.wikidata.org/entity/?","P31^label:cs":"Nenalezena","P131^label:cs":"Žihle","P6736":"35488"},"geometry":{"type":"Point","coordinates":[13.37597,50.0489]}},{"type":"Feature","properties":{"label:cs":"Kaple Bičovaného Krista z Wiesu u Žihle - nenalezeno","P31":"http://www.wikidata.org/entity/?","P31^label:cs":"Nenalezena","P131^label:cs":"Žihle","P6736":"35487"},"geometry":{"type":"Point","coordinates":[13.37985,50.04419]}},{"type":"Feature","properties":{"label:cs":"Kříž severovýchodně od Žihle - nenalezeno","P31":"http://www.wikidata.org/entity/?","P31^label:cs":"Nenalezena","P131^label:cs":"Žihle","P6736":"35227"},"geometry":{"type":"Point","coordinates":[13.38101,50.04968]}},{"type":"Feature","properties":{"label:cs":"Smírčí kříž severně od Žihle","P31":"http://www.wikidata.org/entity/Q1640496","P31^label:cs":"Smírčí kříž","P131^label:cs":"Žihle","P6736":"8609"},"geometry":{"type":"Point","coordinates":[13.37797,50.04818]}},{"type":"Feature","properties":{"label:cs":"Kříž v Žihli u cesty do Hluboké","P31":"http://www.wikidata.org/entity/Q2309609","P31^label:cs":"Pamětní kříž","P131^label:cs":"Žihle","P6736":"5236"},"geometry":{"type":"Point","coordinates":[13.36607,50.04157]}},{"type":"Feature","properties":{"label:cs":"Socha svatého Jakuba v Žihli","P31":"http://www.wikidata.org/entity/Q179700","P31^label:cs":"Socha","P131^label:cs":"Žihle","P6736":"5235"},"geometry":{"type":"Point","coordinates":[13.36876,50.04415]}},{"type":"Feature","properties":{"label:cs":"Socha svatého Judy Tadeáše v Žihli","P31":"http://www.wikidata.org/entity/Q179700","P31^label:cs":"Socha","P131^label:cs":"Žihle","P6736":"5234"},"geometry":{"type":"Point","coordinates":[13.36867,50.04414]}},{"type":"Feature","properties":{"label:cs":"Socha svatého Jana Nepomuckého v Žihli","P31":"http://www.wikidata.org/entity/Q179700","P31^label:cs":"Socha","P131^label:cs":"Žihle","P6736":"4210"},"geometry":{"type":"Point","coordinates":[13.37625,50.0448]}},{"type":"Feature","properties":{"label:cs":"Křížový kámen v Žihli","P31":"http://www.wikidata.org/entity/Q38411643","P31^label:cs":"Křížový kámen","P131^label:cs":"Žihle","P6736":"4209"},"geometry":{"type":"Point","coordinates":[13.3728,50.04491]}},{"type":"Feature","properties":{"label:cs":"Pomník pochodu smrti v Žihli","P31":"http://www.wikidata.org/entity/Q575759","P31^label:cs":"Pomník padlým","P131^label:cs":"Žihle","P6736":"4207"},"geometry":{"type":"Point","coordinates":[13.36757,50.04357]}},{"type":"Feature","properties":{"label:cs":"Socha svatého Jiljí severně od Žihle","P31":"http://www.wikidata.org/entity/Q179700","P31^label:cs":"Socha","P131^label:cs":"Žihle","P6736":"4205"},"geometry":{"type":"Point","coordinates":[13.37636,50.04639]}},{"type":"Feature","properties":{"label:cs":"Socha světce u školy v Žihli","P31":"http://www.wikidata.org/entity/Q179700","P31^label:cs":"Socha","P131^label:cs":"Žihle","P6736":"4204"},"geometry":{"type":"Point","coordinates":[13.36951,50.04509]}},{"type":"Feature","properties":{"label:cs":"Kříž jižně od Žihle","P31":"http://www.wikidata.org/entity/Q2309609","P31^label:cs":"Pamětní kříž","P131^label:cs":"Žihle","P6736":"2947"},"geometry":{"type":"Point","coordinates":[13.37564,50.04006]}}]}