{"type":"FeatureCollection","features":[{"type":"Feature","properties":{"label:cs":"Kaple v Horním Hradišti","P31":"http://www.wikidata.org/entity/Q108325","P31^label:cs":"Kaple","P131^label:cs":"Plasy","P6736":"40212"},"geometry":{"type":"Point","coordinates":[13.37554,49.95789]}},{"type":"Feature","properties":{"label:cs":"Památka v Horním Hradišti - nenalezeno","P31":"http://www.wikidata.org/entity/?","P31^label:cs":"Nenalezena","P131^label:cs":"Plasy","P6736":"38793"},"geometry":{"type":"Point","coordinates":[13.3733,49.95583]}},{"type":"Feature","properties":{"label:cs":"Obrázek západně od Horního Hradiště","P31":"http://www.wikidata.org/entity/Q478798","P31^label:cs":"Obrázek","P131^label:cs":"Plasy","P6736":"36157"},"geometry":{"type":"Point","coordinates":[13.36082,49.96421]}},{"type":"Feature","properties":{"label:cs":"Kříž severovýchodně od Horního Hradiště - nenalezeno","P31":"http://www.wikidata.org/entity/?","P31^label:cs":"Nenalezena","P131^label:cs":"Plasy","P6736":"35633"},"geometry":{"type":"Point","coordinates":[13.38115,49.96118]}},{"type":"Feature","properties":{"label:cs":"Památka západně od Horního Hradiště - nenalezeno","P31":"http://www.wikidata.org/entity/?","P31^label:cs":"Nenalezena","P131^label:cs":"Plasy","P6736":"35631"},"geometry":{"type":"Point","coordinates":[13.37058,49.95969]}},{"type":"Feature","properties":{"label:cs":"Zvonička v Horním Hradišti","P31":"http://www.wikidata.org/entity/Q10861631","P31^label:cs":"Zvonička","P131^label:cs":"Plasy","P6736":"8107"},"geometry":{"type":"Point","coordinates":[13.37282,49.9566]}},{"type":"Feature","properties":{"label:cs":"Pomník padlým v Horním Hradišti","P31":"http://www.wikidata.org/entity/Q575759","P31^label:cs":"Pomník padlým","P131^label:cs":"Plasy","P6736":"8106"},"geometry":{"type":"Point","coordinates":[13.3729,49.95651]}},{"type":"Feature","properties":{"label:cs":"Kříž u Horního Hradiště","P31":"http://www.wikidata.org/entity/Q2309609","P31^label:cs":"Pamětní kříž","P131^label:cs":"Plasy","P6736":"3124"},"geometry":{"type":"Point","coordinates":[13.37974,49.9561]}},{"type":"Feature","properties":{"label:cs":"Kříž v Horním Hradišti","P31":"http://www.wikidata.org/entity/Q2309609","P31^label:cs":"Pamětní kříž","P131^label:cs":"Plasy","P6736":"3122"},"geometry":{"type":"Point","coordinates":[13.37773,49.95835]}},{"type":"Feature","properties":{"label:cs":"Kříž u Horního Hradiště na okraji lesa","P31":"http://www.wikidata.org/entity/Q2309609","P31^label:cs":"Pamětní kříž","P131^label:cs":"Plasy","P6736":"1555"},"geometry":{"type":"Point","coordinates":[13.36637,49.96453]}}]}