{"type":"FeatureCollection","features":[{"type":"Feature","properties":{"label:cs":"Zvonička v Horním Hradišti","P31":"http://www.wikidata.org/entity/Q10861631","P31^label:cs":"Zvonička","P131^label:cs":"Plasy","P6736":"8107"},"geometry":{"type":"Point","coordinates":[13.37291,49.95656]}},{"type":"Feature","properties":{"label:cs":"Pomník padlým v Horním Hradišti","P31":"http://www.wikidata.org/entity/Q575759","P31^label:cs":"Pomník padlým","P131^label:cs":"Plasy","P6736":"8106"},"geometry":{"type":"Point","coordinates":[13.37286,49.95654]}},{"type":"Feature","properties":{"label:cs":"Kříž u Horního Hradiště","P31":"http://www.wikidata.org/entity/Q2309609","P31^label:cs":"Pamětní kříž","P131^label:cs":"Plasy","P6736":"3124"},"geometry":{"type":"Point","coordinates":[13.37974,49.9561]}},{"type":"Feature","properties":{"label:cs":"Kříž v Horním Hradišti","P31":"http://www.wikidata.org/entity/Q2309609","P31^label:cs":"Pamětní kříž","P131^label:cs":"Plasy","P6736":"3122"},"geometry":{"type":"Point","coordinates":[13.37773,49.95835]}},{"type":"Feature","properties":{"label:cs":"Kříž u Horního Hradiště na okraji lesa","P31":"http://www.wikidata.org/entity/Q2309609","P31^label:cs":"Pamětní kříž","P131^label:cs":"Plasy","P6736":"1555"},"geometry":{"type":"Point","coordinates":[13.36635,49.96456]}}]}