{"type":"FeatureCollection","features":[{"type":"Feature","properties":{"label:cs":"Kaple při kostele v Buškovicích","P31":"Q108325","P31^label:cs":"Kaple","P131^label:cs":"Podbořany","P6736":"20250"},"geometry":{"type":"Point","coordinates":[13.37348,50.22723]}},{"type":"Feature","properties":{"label:cs":"Socha svatého Jana Nepomuckého u kostela v Buškovicích","P31":"Q179700","P31^label:cs":"Socha","P131^label:cs":"Podbořany","P6736":"20175"},"geometry":{"type":"Point","coordinates":[13.37351,50.22697]}},{"type":"Feature","properties":{"label:cs":"Podstavec u čp. 57 v Buškovicích","P31":"?","P31^label:cs":"Neznámý","P131^label:cs":"Podbořany","P6736":"20174"},"geometry":{"type":"Point","coordinates":[13.37258,50.22633]}},{"type":"Feature","properties":{"label:cs":"Socha svatého Floriána naproti čp. 3 v Buškovicích","P31":"Q179700","P31^label:cs":"Socha","P131^label:cs":"Podbořany","P6736":"20173"},"geometry":{"type":"Point","coordinates":[13.37107,50.22425]}},{"type":"Feature","properties":{"label:cs":"Sloup Nejsvětější Trojice na horní návsi v Buškovicích","P31":"Q4817","P31^label:cs":"Sloup","P131^label:cs":"Podbořany","P6736":"20172"},"geometry":{"type":"Point","coordinates":[13.3729,50.2235]}}]}