{"type":"FeatureCollection","features":[{"type":"Feature","properties":{"label:cs":"Památník osady Amerika v Plzni na Roudné","P31":"Památník","P31^label:cs":"Památník","P131^label:cs":"Plzeň","P6736":"25595"},"geometry":{"type":"Point","coordinates":[13.37867,49.76131]}},{"type":"Feature","properties":{"label:cs":"Torzo neznámého objektu v bývalé Klotzově zahradě v Plzni","P31":"Neznámý","P31^label:cs":"Neznámý","P131^label:cs":"Plzeň","P6736":"9768"},"geometry":{"type":"Point","coordinates":[13.37048,49.76033]}},{"type":"Feature","properties":{"label:cs":"Podstavec v bývalé Klotzově zahradě v Plzni","P31":"Neznámý","P31^label:cs":"Neznámý","P131^label:cs":"Plzeň","P6736":"9767"},"geometry":{"type":"Point","coordinates":[13.3708,49.76079]}},{"type":"Feature","properties":{"label:cs":"Socha Nový život v Bolevecké ulici v Plzni","P31":"Socha","P31^label:cs":"Socha","P131^label:cs":"Plzeň","P6736":"9328"},"geometry":{"type":"Point","coordinates":[13.37213,49.75979]}},{"type":"Feature","properties":{"label:cs":"Socha Návrat z kosmu u Lidické ulice v Plzni","P31":"Socha","P31^label:cs":"Socha","P131^label:cs":"Plzeň","P6736":"9256"},"geometry":{"type":"Point","coordinates":[13.37438,49.76466]}},{"type":"Feature","properties":{"label:cs":"Kříž v Plzni u ulice Pod Všemi svatými","P31":"Pamětní kříž","P31^label:cs":"Pamětní kříž","P131^label:cs":"Plzeň","P6736":"7937"},"geometry":{"type":"Point","coordinates":[13.37924,49.75892]}},{"type":"Feature","properties":{"label:cs":"Památník u kaple v Plzni v ulici Pod Všemi svatými","P31":"Památník","P31^label:cs":"Památník","P131^label:cs":"Plzeň","P6736":"7936"},"geometry":{"type":"Point","coordinates":[13.37846,49.75701]}},{"type":"Feature","properties":{"label:cs":"Kaple v Plzni v ulici Pod Všemi svatými","P31":"Kaple","P31^label:cs":"Kaple","P131^label:cs":"Plzeň","P6736":"7094"},"geometry":{"type":"Point","coordinates":[13.37846,49.75697]}},{"type":"Feature","properties":{"label:cs":"Busta Martina Kopeckého u Vinic","P31":"Socha","P31^label:cs":"Socha","P131^label:cs":"Plzeň","P6736":"6211"},"geometry":{"type":"Point","coordinates":[13.36617,49.76107]}},{"type":"Feature","properties":{"label:cs":"Boží muka v Plzni v parku pod Vinicemi","P31":"Boží muka","P31^label:cs":"Boží muka","P131^label:cs":"Plzeň","P6736":"6210"},"geometry":{"type":"Point","coordinates":[13.36261,49.76008]}},{"type":"Feature","properties":{"label:cs":"Plastika v areálu nemocnice Plzeň - Lochotín IV","P31":"Plastika","P31^label:cs":"Plastika","P131^label:cs":"Plzeň","P6736":"5600"},"geometry":{"type":"Point","coordinates":[13.38109,49.76095]}},{"type":"Feature","properties":{"label:cs":"Socha v areálu nemocnice Plzeň - Lochotín II","P31":"Socha","P31^label:cs":"Socha","P131^label:cs":"Plzeň","P6736":"5599"},"geometry":{"type":"Point","coordinates":[13.38027,49.7611]}},{"type":"Feature","properties":{"label:cs":"Plastika v areálu nemocnice Plzeň - Lochotín III","P31":"Plastika","P31^label:cs":"Plastika","P131^label:cs":"Plzeň","P6736":"5598"},"geometry":{"type":"Point","coordinates":[13.37963,49.76161]}},{"type":"Feature","properties":{"label:cs":"Socha v areálu nemocnice Plzeň - Lochotín I","P31":"Socha","P31^label:cs":"Socha","P131^label:cs":"Plzeň","P6736":"5597"},"geometry":{"type":"Point","coordinates":[13.38124,49.76189]}},{"type":"Feature","properties":{"label:cs":"Plastika v areálu nemocnice Plzeň - Lochotín I","P31":"Plastika","P31^label:cs":"Plastika","P131^label:cs":"Plzeň","P6736":"5595"},"geometry":{"type":"Point","coordinates":[13.38117,49.76215]}},{"type":"Feature","properties":{"label:cs":"Socha v areálu nemocnice Plzeň - Lochotín nedaleko hlavní brány","P31":"Socha","P31^label:cs":"Socha","P131^label:cs":"Plzeň","P6736":"5594"},"geometry":{"type":"Point","coordinates":[13.38004,49.76289]}},{"type":"Feature","properties":{"label:cs":"Památník v areálu nemocnice Lochotín u hlavní brány","P31":"Památník","P31^label:cs":"Památník","P131^label:cs":"Plzeň","P6736":"5593"},"geometry":{"type":"Point","coordinates":[13.3804,49.76329]}},{"type":"Feature","properties":{"label:cs":"Památník v Plzni u zaniklého židovského hřbitova","P31":"Památník","P31^label:cs":"Památník","P131^label:cs":"Plzeň","P6736":"5385"},"geometry":{"type":"Point","coordinates":[13.3717,49.76252]}},{"type":"Feature","properties":{"label:cs":"Plastika v Plzni v Bolevecké ulici","P31":"Plastika","P31^label:cs":"Plastika","P131^label:cs":"Plzeň","P6736":"5350"},"geometry":{"type":"Point","coordinates":[13.37216,49.76042]}},{"type":"Feature","properties":{"label:cs":"Plastika v Plzni v Lidické ulici","P31":"Plastika","P31^label:cs":"Plastika","P131^label:cs":"Plzeň","P6736":"5349"},"geometry":{"type":"Point","coordinates":[13.37305,49.76571]}},{"type":"Feature","properties":{"label:cs":"Kaplička v Plzni v Karlovarské ulici","P31":"Kaplička","P31^label:cs":"Kaplička","P131^label:cs":"Plzeň","P6736":"3712"},"geometry":{"type":"Point","coordinates":[13.36526,49.76259]}},{"type":"Feature","properties":{"label:cs":"Kaple u Plzně u čtvrtě Košutka","P31":"Kaple","P31^label:cs":"Kaple","P131^label:cs":"Plzeň","P6736":"2313"},"geometry":{"type":"Point","coordinates":[13.36057,49.7666]}},{"type":"Feature","properties":{"label:cs":"Sloup u Vinic u Plzně","P31":"Sloup","P31^label:cs":"Sloup","P131^label:cs":"Plzeň","P6736":"2315"},"geometry":{"type":"Point","coordinates":[13.36501,49.76081]}}]}