{"type":"FeatureCollection","features":[{"type":"Feature","properties":{"label:cs":"Pomník obětem nacismu u Cukrovarské ulice v Plzni","P31":"http://www.wikidata.org/entity/Q575759","P31^label:cs":"Pomník padlým","P131^label:cs":"Plzeň","P6736":"11422"},"geometry":{"type":"Point","coordinates":[13.38195,49.73767]}},{"type":"Feature","properties":{"label:cs":"Památník Milady Horákové v Plzni","P31":"http://www.wikidata.org/entity/Q5003624","P31^label:cs":"Památník","P131^label:cs":"Plzeň","P6736":"11111"},"geometry":{"type":"Point","coordinates":[13.40249,49.72572]}},{"type":"Feature","properties":{"label:cs":"Pomník obětem náletu v Plzni na Slovanech","P31":"http://www.wikidata.org/entity/Q575759","P31^label:cs":"Pomník padlým","P131^label:cs":"Plzeň","P6736":"5521"},"geometry":{"type":"Point","coordinates":[13.39057,49.72887]}},{"type":"Feature","properties":{"label:cs":"Plastika v Plzni v průmyslovém areálu u Zahradní ulice","P31":"http://www.wikidata.org/entity/Q12045520","P31^label:cs":"Plastika","P131^label:cs":"Plzeň","P6736":"5493"},"geometry":{"type":"Point","coordinates":[13.38564,49.73643]}},{"type":"Feature","properties":{"label:cs":"Sloup v Plzni u koterovské ulice","P31":"http://www.wikidata.org/entity/Q4817","P31^label:cs":"Sloup","P131^label:cs":"Plzeň","P6736":"5408"},"geometry":{"type":"Point","coordinates":[13.40318,49.7333]}},{"type":"Feature","properties":{"label:cs":"Socha panenky v Plzni u Francouzské třídy","P31":"http://www.wikidata.org/entity/Q179700","P31^label:cs":"Socha","P131^label:cs":"Plzeň","P6736":"5407"},"geometry":{"type":"Point","coordinates":[13.40265,49.72728]}},{"type":"Feature","properties":{"label:cs":"Socha v Plzni u Francouzské třídy před poliklinikou","P31":"http://www.wikidata.org/entity/Q179700","P31^label:cs":"Socha","P131^label:cs":"Plzeň","P6736":"5392"},"geometry":{"type":"Point","coordinates":[13.40096,49.73077]}},{"type":"Feature","properties":{"label:cs":"Kaplička v Plzni v Doudlevcích","P31":"http://www.wikidata.org/entity/Q14552192","P31^label:cs":"Kaplička","P131^label:cs":"Plzeň","P6736":"5233"},"geometry":{"type":"Point","coordinates":[13.38879,49.72553]}},{"type":"Feature","properties":{"label:cs":"Památník v Doudlevcích u vodní elektrárny","P31":"http://www.wikidata.org/entity/Q5003624","P31^label:cs":"Památník","P131^label:cs":"Plzeň","P6736":"5232"},"geometry":{"type":"Point","coordinates":[13.38879,49.72511]}},{"type":"Feature","properties":{"label:cs":"Pomník padlým v Plzni v Doudlevcích","P31":"http://www.wikidata.org/entity/Q575759","P31^label:cs":"Pomník padlým","P131^label:cs":"Plzeň","P6736":"5226"},"geometry":{"type":"Point","coordinates":[13.38507,49.72801]}},{"type":"Feature","properties":{"label:cs":"Socha v Plzni u Slovanské aleje","P31":"http://www.wikidata.org/entity/Q179700","P31^label:cs":"Socha","P131^label:cs":"Plzeň","P6736":"4705"},"geometry":{"type":"Point","coordinates":[13.40225,49.72613]}},{"type":"Feature","properties":{"label:cs":"Socha u bazénu v Plzni na Slovanech","P31":"http://www.wikidata.org/entity/Q179700","P31^label:cs":"Socha","P131^label:cs":"Plzeň","P6736":"3883"},"geometry":{"type":"Point","coordinates":[13.39734,49.73657]}},{"type":"Feature","properties":{"label:cs":"Památník bigbítu v Plzni ve Chvojkových sadech","P31":"http://www.wikidata.org/entity/Q5003624","P31^label:cs":"Památník","P131^label:cs":"Plzeň","P6736":"3882"},"geometry":{"type":"Point","coordinates":[13.39985,49.73539]}},{"type":"Feature","properties":{"label:cs":"Památník armádního generála Heilodora Píky","P31":"http://www.wikidata.org/entity/Q5003624","P31^label:cs":"Památník","P131^label:cs":"Plzeň","P6736":"3881"},"geometry":{"type":"Point","coordinates":[13.39844,49.73428]}},{"type":"Feature","properties":{"label:cs":"Sloup v Plzni ve Chvojkových sadech","P31":"http://www.wikidata.org/entity/Q4817","P31^label:cs":"Sloup","P131^label:cs":"Plzeň","P6736":"3880"},"geometry":{"type":"Point","coordinates":[13.40051,49.73541]}},{"type":"Feature","properties":{"label:cs":"Pomník padlým v Plzni v papírenském parku","P31":"http://www.wikidata.org/entity/Q575759","P31^label:cs":"Pomník padlým","P131^label:cs":"Plzeň","P6736":"3879"},"geometry":{"type":"Point","coordinates":[13.38715,49.73503]}}]}