{"type":"FeatureCollection","features":[{"type":"Feature","properties":{"label:cs":"Kříž v Třemošné v ulici U Trati","P31":"Pamětní kříž","P31^label:cs":"Pamětní kříž","P131^label:cs":"Třemošná","P6736":"15267"},"geometry":{"type":"Point","coordinates":[13.38683,49.82398]}},{"type":"Feature","properties":{"label:cs":"Kříž v Třemošné na svahu","P31":"Pamětní kříž","P31^label:cs":"Pamětní kříž","P131^label:cs":"Třemošná","P6736":"4359"},"geometry":{"type":"Point","coordinates":[13.39026,49.82544]}},{"type":"Feature","properties":{"label:cs":"Kaple v Třemošné","P31":"Kaple","P31^label:cs":"Kaple","P131^label:cs":"Třemošná","P6736":"4164"},"geometry":{"type":"Point","coordinates":[13.3928,49.82382]}},{"type":"Feature","properties":{"label:cs":"Socha mistra Jana Husa severně od Třemošné","P31":"Socha","P31^label:cs":"Socha","P131^label:cs":"Třemošná","P6736":"2679"},"geometry":{"type":"Point","coordinates":[13.39038,49.8296]}},{"type":"Feature","properties":{"label:cs":"Kříž na kopci severně od Třemošné","P31":"Pamětní kříž","P31^label:cs":"Pamětní kříž","P131^label:cs":"Třemošná","P6736":"2678"},"geometry":{"type":"Point","coordinates":[13.39032,49.82993]}}]}