{"type":"FeatureCollection","features":[{"type":"Feature","properties":{"label:cs":"Památka východně od Řemešína - nenalezeno","P31":"http://www.wikidata.org/entity/?","P31^label:cs":"Nenalezena","P131^label:cs":"Kralovice","P6736":"39026"},"geometry":{"type":"Point","coordinates":[13.39233,49.99362]}},{"type":"Feature","properties":{"label:cs":"Kříž na Řemešínském vrchu","P31":"http://www.wikidata.org/entity/Q2309609","P31^label:cs":"Pamětní kříž","P131^label:cs":"Kralovice","P6736":"1306"},"geometry":{"type":"Point","coordinates":[13.40254,50.00123]}},{"type":"Feature","properties":{"label:cs":"Zvonička v Řemešíně","P31":"http://www.wikidata.org/entity/Q10861631","P31^label:cs":"Zvonička","P131^label:cs":"Kralovice","P6736":"40213"},"geometry":{"type":"Point","coordinates":[13.3891,49.99424]}},{"type":"Feature","properties":{"label:cs":"Památka západně od Řemešína - nenalezeno","P31":"http://www.wikidata.org/entity/?","P31^label:cs":"Nenalezena","P131^label:cs":"Kralovice","P6736":"38964"},"geometry":{"type":"Point","coordinates":[13.38666,49.9958]}},{"type":"Feature","properties":{"label:cs":"Kříž severně od Řemešína","P31":"http://www.wikidata.org/entity/Q2309609","P31^label:cs":"Pamětní kříž","P131^label:cs":"Kralovice","P6736":"5242"},"geometry":{"type":"Point","coordinates":[13.38837,49.99785]}},{"type":"Feature","properties":{"label:cs":"Kříž v Řemešíně","P31":"http://www.wikidata.org/entity/Q2309609","P31^label:cs":"Pamětní kříž","P131^label:cs":"Kralovice","P6736":"3821"},"geometry":{"type":"Point","coordinates":[13.3874,49.99459]}},{"type":"Feature","properties":{"label:cs":"Pomník padlým v Řemešíně","P31":"http://www.wikidata.org/entity/Q575759","P31^label:cs":"Pomník padlým","P131^label:cs":"Kralovice","P6736":"3820"},"geometry":{"type":"Point","coordinates":[13.38773,49.99482]}}]}