{"type":"FeatureCollection","features":[{"type":"Feature","properties":{"label:cs":"Kříž severně od Domažliček","P31":"Pamětní kříž","P31^label:cs":"Pamětní kříž","P131^label:cs":"Bolešiny","P6736":"5479"},"geometry":{"type":"Point","coordinates":[13.38269,49.42145]}},{"type":"Feature","properties":{"label:cs":"Kaple v Domažličkách","P31":"Kaple","P31^label:cs":"Kaple","P131^label:cs":"Bolešiny","P6736":"5478"},"geometry":{"type":"Point","coordinates":[13.38175,49.42028]}},{"type":"Feature","properties":{"label:cs":"Kříž východně od Domažliček","P31":"Pamětní kříž","P31^label:cs":"Pamětní kříž","P131^label:cs":"Bolešiny","P6736":"5477"},"geometry":{"type":"Point","coordinates":[13.386,49.41896]}},{"type":"Feature","properties":{"label:cs":"Kříž severně od Myslovic","P31":"Pamětní kříž","P31^label:cs":"Pamětní kříž","P131^label:cs":"Myslovice","P6736":"5474"},"geometry":{"type":"Point","coordinates":[13.38252,49.41299]}},{"type":"Feature","properties":{"label:cs":"Kříž jižně od Pečetína","P31":"Pamětní kříž","P31^label:cs":"Pamětní kříž","P131^label:cs":"Bolešiny","P6736":"5468"},"geometry":{"type":"Point","coordinates":[13.40102,49.41262]}},{"type":"Feature","properties":{"label:cs":"Kříž západně od Pečetína","P31":"Pamětní kříž","P31^label:cs":"Pamětní kříž","P131^label:cs":"Bolešiny","P6736":"5467"},"geometry":{"type":"Point","coordinates":[13.39788,49.4164]}}]}