{"type":"FeatureCollection","features":[{"type":"Feature","properties":{"label:cs":"Kříž jihovýchodně od Kaznějova nad Oborskou ulicí","P31":"Q2309609","P31^label:cs":"Pamětní kříž","P131^label:cs":"Kaznějov","P6736":"8335"},"geometry":{"type":"Point","coordinates":[13.38635,49.89014]}},{"type":"Feature","properties":{"label:cs":"Kříž jihovýchodně od Kaznějova","P31":"Q2309609","P31^label:cs":"Pamětní kříž","P131^label:cs":"Kaznějov","P6736":"8294"},"geometry":{"type":"Point","coordinates":[13.38934,49.89057]}},{"type":"Feature","properties":{"label:cs":"Kaple svatého Jana Nepomuckého Kaznějově","P31":"Q108325","P31^label:cs":"Kaple","P131^label:cs":"Kaznějov","P6736":"4712"},"geometry":{"type":"Point","coordinates":[13.38204,49.89038]}},{"type":"Feature","properties":{"label:cs":"Kříž u kaple v Kaznějově","P31":"Q2309609","P31^label:cs":"Pamětní kříž","P131^label:cs":"Kaznějov","P6736":"4373"},"geometry":{"type":"Point","coordinates":[13.38219,49.89045]}},{"type":"Feature","properties":{"label:cs":"Pomník padlým v Kaznějově","P31":"Q575759","P31^label:cs":"Pomník padlým","P131^label:cs":"Kaznějov","P6736":"4360"},"geometry":{"type":"Point","coordinates":[13.38452,49.89344]}},{"type":"Feature","properties":{"label:cs":"Kříž jižně od Kaznějova","P31":"Q2309609","P31^label:cs":"Pamětní kříž","P131^label:cs":"Kaznějov","P6736":"1714"},"geometry":{"type":"Point","coordinates":[13.38394,49.88327]}}]}