{"type":"FeatureCollection","features":[{"type":"Feature","properties":{"label:cs":"Kříž západně od Bukoviny","P31":"http://www.wikidata.org/entity/Q2309609","P31^label:cs":"Pamětní kříž","P131^label:cs":"Kralovice","P6736":"1305"},"geometry":{"type":"Point","coordinates":[13.40052,49.99223]}},{"type":"Feature","properties":{"label:cs":"Pomník jižně od Řemešína","P31":"http://www.wikidata.org/entity/Q4989906","P31^label:cs":"Pomník","P131^label:cs":"Kralovice","P6736":"5243"},"geometry":{"type":"Point","coordinates":[13.38853,49.98683]}},{"type":"Feature","properties":{"label:cs":"Socha svatého Antonína Paduánského u Řemešína","P31":"http://www.wikidata.org/entity/Q179700","P31^label:cs":"Socha","P131^label:cs":"Kralovice","P6736":"2451"},"geometry":{"type":"Point","coordinates":[13.38608,49.99182]}},{"type":"Feature","properties":{"label:cs":"Kříž západně od Trojan","P31":"http://www.wikidata.org/entity/Q2309609","P31^label:cs":"Pamětní kříž","P131^label:cs":"Mladotice","P6736":"5244"},"geometry":{"type":"Point","coordinates":[13.38879,49.98195]}},{"type":"Feature","properties":{"label:cs":"Mezník v lese u silnice jižně od Řemešína","P31":"http://www.wikidata.org/entity/Q921099","P31^label:cs":"Hraniční kámen","P131^label:cs":"Mladotice","P6736":"26670"},"geometry":{"type":"Point","coordinates":[13.38677,49.98722]}}]}