{"type":"FeatureCollection","features":[{"type":"Feature","properties":{"label:cs":"Kaple ve Snopoušovech","P31":"Kaple","P31^label:cs":"Kaple","P131^label:cs":"Dolní Lukavice","P6736":"10918"},"geometry":{"type":"Point","coordinates":[13.38514,49.61262]}},{"type":"Feature","properties":{"label:cs":"Kříž východně od Předenic","P31":"Pamětní kříž","P31^label:cs":"Pamětní kříž","P131^label:cs":"Předenice","P6736":"7485"},"geometry":{"type":"Point","coordinates":[13.39748,49.62333]}},{"type":"Feature","properties":{"label:cs":"Socha svatého Jana Nepomuckého v Předenicích","P31":"Socha","P31^label:cs":"Socha","P131^label:cs":"Předenice","P6736":"7484"},"geometry":{"type":"Point","coordinates":[13.39374,49.62482]}},{"type":"Feature","properties":{"label:cs":"Pomník padlým v Předenicích","P31":"Pomník padlým","P31^label:cs":"Pomník padlým","P131^label:cs":"Předenice","P6736":"7483"},"geometry":{"type":"Point","coordinates":[13.39612,49.62393]}},{"type":"Feature","properties":{"label:cs":"Kaple v Předenicích","P31":"Kaple","P31^label:cs":"Kaple","P131^label:cs":"Předenice","P6736":"4299"},"geometry":{"type":"Point","coordinates":[13.396,49.6242]}}]}