{"type":"FeatureCollection","features":[{"type":"Feature","properties":{"label:cs":"Delfín ve Chmelové ulici v Plzni","P31":"http://www.wikidata.org/entity/Q478798","P31^label:cs":"Obrázek","P131^label:cs":"Plzeň","P6736":"10813"},"geometry":{"type":"Point","coordinates":[13.41992,49.76028]}},{"type":"Feature","properties":{"label:cs":"Pítko na Habrmannově náměstí v Plzni","P31":"http://www.wikidata.org/entity/Q12029081","P31^label:cs":"Kašna","P131^label:cs":"Plzeň","P6736":"10812"},"geometry":{"type":"Point","coordinates":[13.42016,49.75682]}},{"type":"Feature","properties":{"label:cs":"Památník husitů u Lopatárny v Plzni","P31":"http://www.wikidata.org/entity/Q5003624","P31^label:cs":"Památník","P131^label:cs":"Plzeň","P6736":"9408"},"geometry":{"type":"Point","coordinates":[13.41377,49.75748]}},{"type":"Feature","properties":{"label:cs":"Socha Mistra Jana Husa u Lopatárny v Plzni","P31":"http://www.wikidata.org/entity/Q179700","P31^label:cs":"Socha","P131^label:cs":"Plzeň","P6736":"9407"},"geometry":{"type":"Point","coordinates":[13.41368,49.75738]}},{"type":"Feature","properties":{"label:cs":"Pomník obětem bombardování v Plzni v Jateční ulici II","P31":"http://www.wikidata.org/entity/Q575759","P31^label:cs":"Pomník padlým","P131^label:cs":"Plzeň","P6736":"5589"},"geometry":{"type":"Point","coordinates":[13.40535,49.7618]}},{"type":"Feature","properties":{"label:cs":"Pomník obětem bombardování v Plzni v Jateční ulici I","P31":"http://www.wikidata.org/entity/Q575759","P31^label:cs":"Pomník padlým","P131^label:cs":"Plzeň","P6736":"5588"},"geometry":{"type":"Point","coordinates":[13.40482,49.76205]}},{"type":"Feature","properties":{"label:cs":"Pomník zastřeleným v Plzni v Doubravce","P31":"http://www.wikidata.org/entity/Q575759","P31^label:cs":"Pomník padlým","P131^label:cs":"Plzeň","P6736":"5154"},"geometry":{"type":"Point","coordinates":[13.42457,49.75756]}},{"type":"Feature","properties":{"label:cs":"Plastika v Plzni u Mohylové ulice","P31":"http://www.wikidata.org/entity/Q12045520","P31^label:cs":"Plastika","P131^label:cs":"Plzeň","P6736":"5151"},"geometry":{"type":"Point","coordinates":[13.41728,49.75458]}},{"type":"Feature","properties":{"label:cs":"Socha Vítání v Plzni v parku V Homolkách","P31":"http://www.wikidata.org/entity/Q179700","P31^label:cs":"Socha","P131^label:cs":"Plzeň","P6736":"5150"},"geometry":{"type":"Point","coordinates":[13.4137,49.755]}},{"type":"Feature","properties":{"label:cs":"Sousoší Nejsvětější Trojice u plzeňské čtvrti Doubravka","P31":"http://www.wikidata.org/entity/Q179700","P31^label:cs":"Socha","P131^label:cs":"Plzeň","P6736":"1442"},"geometry":{"type":"Point","coordinates":[13.41541,49.76266]}},{"type":"Feature","properties":{"label:cs":"Kříž u plzeňské čtvrti Doubravka nad řekou Úslava","P31":"http://www.wikidata.org/entity/Q2309609","P31^label:cs":"Pamětní kříž","P131^label:cs":"Plzeň","P6736":"1441"},"geometry":{"type":"Point","coordinates":[13.41289,49.75735]}}]}