{"type":"FeatureCollection","features":[{"type":"Feature","properties":{"label:cs":"Kříž v poli jihozápadně od Stebna","P31":"http://www.wikidata.org/entity/Q2309609","P31^label:cs":"Pamětní kříž","P131^label:cs":"Kryry","P6736":"40300"},"geometry":{"type":"Point","coordinates":[13.40553,50.11002]}},{"type":"Feature","properties":{"label:cs":"Socha Ecce Homo u Stebna","P31":"http://www.wikidata.org/entity/Q179700","P31^label:cs":"Socha","P131^label:cs":"Kryry","P6736":"40299"},"geometry":{"type":"Point","coordinates":[13.41169,50.11014]}},{"type":"Feature","properties":{"label:cs":"Dřevěný kříž ve Stebnu","P31":"http://www.wikidata.org/entity/Q2309609","P31^label:cs":"Pamětní kříž","P131^label:cs":"Kryry","P6736":"37094"},"geometry":{"type":"Point","coordinates":[13.41783,50.11739]}},{"type":"Feature","properties":{"label:cs":"Křížek u zdi kostela ve Stebnu","P31":"http://www.wikidata.org/entity/Q2309609","P31^label:cs":"Pamětní kříž","P131^label:cs":"Kryry","P6736":"37093"},"geometry":{"type":"Point","coordinates":[13.41789,50.11749]}},{"type":"Feature","properties":{"label:cs":"Kaplička anděla smrti ve Stebnu","P31":"http://www.wikidata.org/entity/Q14552192","P31^label:cs":"Kaplička","P131^label:cs":"Kryry","P6736":"37092"},"geometry":{"type":"Point","coordinates":[13.41667,50.11791]}},{"type":"Feature","properties":{"label:cs":"Památník regulace potoka ve Stebnu","P31":"http://www.wikidata.org/entity/Q5003624","P31^label:cs":"Památník","P131^label:cs":"Kryry","P6736":"37091"},"geometry":{"type":"Point","coordinates":[13.41745,50.11693]}},{"type":"Feature","properties":{"label:cs":"Sloup se sochou svatého Jana Nepomuckého ve Stebnu","P31":"http://www.wikidata.org/entity/Q4817","P31^label:cs":"Sloup","P131^label:cs":"Kryry","P6736":"37090"},"geometry":{"type":"Point","coordinates":[13.41781,50.11689]}},{"type":"Feature","properties":{"label:cs":"Pomník obětem násilí a obětem I. světové války ve Stebnu","P31":"http://www.wikidata.org/entity/Q575759","P31^label:cs":"Pomník padlým","P131^label:cs":"Kryry","P6736":"37089"},"geometry":{"type":"Point","coordinates":[13.41836,50.11687]}}]}