{"type":"FeatureCollection","features":[{"type":"Feature","properties":{"label:cs":"Památka severovýchodně od Nebřezin - nenalezeno","P31":"http://www.wikidata.org/entity/?","P31^label:cs":"Nenalezena","P131^label:cs":"Plasy","P6736":"35957"},"geometry":{"type":"Point","coordinates":[13.4238,49.92643]}},{"type":"Feature","properties":{"label:cs":"Kříž severozápadně od Babiny - nenalezeno","P31":"http://www.wikidata.org/entity/?","P31^label:cs":"Nenalezena","P131^label:cs":"Plasy","P6736":"35430"},"geometry":{"type":"Point","coordinates":[13.41631,49.93653]}},{"type":"Feature","properties":{"label:cs":"Památka v Nebřezinech u křižovatky - nenalezeno","P31":"http://www.wikidata.org/entity/?","P31^label:cs":"Nenalezena","P131^label:cs":"Plasy","P6736":"38810"},"geometry":{"type":"Point","coordinates":[13.41238,49.92357]}},{"type":"Feature","properties":{"label:cs":"Památka severně od Nebřezin - nenalezeno","P31":"http://www.wikidata.org/entity/?","P31^label:cs":"Nenalezena","P131^label:cs":"Plasy","P6736":"36075"},"geometry":{"type":"Point","coordinates":[13.4102,49.928]}},{"type":"Feature","properties":{"label:cs":"Obrázek východně od Plas","P31":"http://www.wikidata.org/entity/Q478798","P31^label:cs":"Obrázek","P131^label:cs":"Plasy","P6736":"35947"},"geometry":{"type":"Point","coordinates":[13.40979,49.93233]}},{"type":"Feature","properties":{"label:cs":"Kříž západně od Babiny","P31":"http://www.wikidata.org/entity/Q2309609","P31^label:cs":"Pamětní kříž","P131^label:cs":"Plasy","P6736":"3106"},"geometry":{"type":"Point","coordinates":[13.41757,49.9355]}},{"type":"Feature","properties":{"label:cs":"Kříž východně od Plas","P31":"http://www.wikidata.org/entity/Q2309609","P31^label:cs":"Pamětní kříž","P131^label:cs":"Plasy","P6736":"3105"},"geometry":{"type":"Point","coordinates":[13.40389,49.93221]}}]}