{"type":"FeatureCollection","features":[{"type":"Feature","properties":{"label:cs":"Kaplička u Úslavy v Plzni","P31":"Kaplička","P31^label:cs":"Kaplička","P131^label:cs":"Plzeň","P6736":"8596"},"geometry":{"type":"Point","coordinates":[13.40625,49.73804]}},{"type":"Feature","properties":{"label:cs":"Kašna v Plzni u Koterovské ulice","P31":"Kašna","P31^label:cs":"Kašna","P131^label:cs":"Plzeň","P6736":"5409"},"geometry":{"type":"Point","coordinates":[13.40368,49.73343]}},{"type":"Feature","properties":{"label:cs":"Boží muka v Plzni ve Vyšehradské ulici","P31":"Boží muka","P31^label:cs":"Boží muka","P131^label:cs":"Plzeň","P6736":"5289"},"geometry":{"type":"Point","coordinates":[13.40807,49.73678]}},{"type":"Feature","properties":{"label:cs":"Kaple v Božkově","P31":"Kaple","P31^label:cs":"Kaple","P131^label:cs":"Plzeň","P6736":"4707"},"geometry":{"type":"Point","coordinates":[13.4239,49.73286]}},{"type":"Feature","properties":{"label:cs":"Pomník padlým v parku u Božkova","P31":"Pomník padlým","P31^label:cs":"Pomník padlým","P131^label:cs":"Plzeň","P6736":"4591"},"geometry":{"type":"Point","coordinates":[13.4227,49.73188]}},{"type":"Feature","properties":{"label:cs":"Pomník zastřelených v Plzni - Lobzy v areálu střelnice","P31":"Pomník padlým","P31^label:cs":"Pomník padlým","P131^label:cs":"Plzeň","P6736":"4425"},"geometry":{"type":"Point","coordinates":[13.41826,49.73808]}},{"type":"Feature","properties":{"label:cs":"Socha v Plzni - Lobzech v areálu střelnice","P31":"Socha","P31^label:cs":"Socha","P131^label:cs":"Plzeň","P6736":"4424"},"geometry":{"type":"Point","coordinates":[13.42008,49.73743]}},{"type":"Feature","properties":{"label:cs":"Socha v Plzni - Lobzích u rohu budovy střelnice","P31":"Socha","P31^label:cs":"Socha","P131^label:cs":"Plzeň","P6736":"4423"},"geometry":{"type":"Point","coordinates":[13.41973,49.7373]}},{"type":"Feature","properties":{"label:cs":"Socha v Plzni - Lobzech před budovou střelnice","P31":"Socha","P31^label:cs":"Socha","P131^label:cs":"Plzeň","P6736":"4422"},"geometry":{"type":"Point","coordinates":[13.41955,49.73713]}},{"type":"Feature","properties":{"label:cs":"Kaple v Plzni nad Božkovem","P31":"Kaple","P31^label:cs":"Kaple","P131^label:cs":"Plzeň","P6736":"4053"},"geometry":{"type":"Point","coordinates":[13.41123,49.73332]}}]}