{"type":"FeatureCollection","features":[{"type":"Feature","properties":{"label:cs":"Památník v Plzni v Lobzích","P31":"http://www.wikidata.org/entity/Q5003624","P31^label:cs":"Památník","P131^label:cs":"Plzeň","P6736":"5064"},"geometry":{"type":"Point","coordinates":[13.40923,49.74058]}},{"type":"Feature","properties":{"label:cs":"Pomník obětem bombardování v Plzni na Doubravce","P31":"http://www.wikidata.org/entity/Q575759","P31^label:cs":"Pomník padlým","P131^label:cs":"Plzeň","P6736":"5147"},"geometry":{"type":"Point","coordinates":[13.40937,49.7491]}},{"type":"Feature","properties":{"label:cs":"Plastika v Plzni u Partyzánské ulice","P31":"http://www.wikidata.org/entity/Q12045520","P31^label:cs":"Plastika","P131^label:cs":"Plzeň","P6736":"5148"},"geometry":{"type":"Point","coordinates":[13.40945,49.74942]}},{"type":"Feature","properties":{"label:cs":"Sousoší v Plzni u Staniční ulice","P31":"http://www.wikidata.org/entity/Q179700","P31^label:cs":"Socha","P131^label:cs":"Plzeň","P6736":"5149"},"geometry":{"type":"Point","coordinates":[13.41107,49.75286]}},{"type":"Feature","properties":{"label:cs":"Památník v Plzni v Masarykově ulici","P31":"http://www.wikidata.org/entity/Q5003624","P31^label:cs":"Památník","P131^label:cs":"Plzeň","P6736":"5152"},"geometry":{"type":"Point","coordinates":[13.41399,49.75146]}},{"type":"Feature","properties":{"label:cs":"Sousoší v Plzni v ulici Na Dlouhých","P31":"http://www.wikidata.org/entity/Q179700","P31^label:cs":"Socha","P131^label:cs":"Plzeň","P6736":"5153"},"geometry":{"type":"Point","coordinates":[13.41866,49.75001]}},{"type":"Feature","properties":{"label:cs":"Plastika u Jitřenky v Plzni na Doubravce","P31":"http://www.wikidata.org/entity/Q12045520","P31^label:cs":"Plastika","P131^label:cs":"Plzeň","P6736":"9757"},"geometry":{"type":"Point","coordinates":[13.41766,49.74931]}},{"type":"Feature","properties":{"label:cs":"Kašna v Centru Doubravka v Plzni u Masarykovy ulice","P31":"http://www.wikidata.org/entity/Q12029081","P31^label:cs":"Kašna","P131^label:cs":"Plzeň","P6736":"10803"},"geometry":{"type":"Point","coordinates":[13.41547,49.75218]}},{"type":"Feature","properties":{"label:cs":"Socha hokejisty ve Staniční ulici v Plzni","P31":"http://www.wikidata.org/entity/Q179700","P31^label:cs":"Socha","P131^label:cs":"Plzeň","P6736":"10869"},"geometry":{"type":"Point","coordinates":[13.41145,49.75248]}}]}