{"type":"FeatureCollection","features":[{"type":"Feature","properties":{"label:cs":"Kašna Velryba v zooparku v Chomutově","P31":"http://www.wikidata.org/entity/Q12029081","P31^label:cs":"Kašna","P131^label:cs":"Chomutov","P6736":"38981"},"geometry":{"type":"Point","coordinates":[13.42191,50.47683]}},{"type":"Feature","properties":{"label:cs":"Socha Milenci v zooparku v Chomutově","P31":"http://www.wikidata.org/entity/Q179700","P31^label:cs":"Socha","P131^label:cs":"Chomutov","P6736":"38980"},"geometry":{"type":"Point","coordinates":[13.4167,50.47329]}},{"type":"Feature","properties":{"label:cs":"Socha matky s dítětem u školy v Březenecké ulici v Chomutově","P31":"http://www.wikidata.org/entity/Q179700","P31^label:cs":"Socha","P131^label:cs":"Chomutov","P6736":"33668"},"geometry":{"type":"Point","coordinates":[13.40936,50.47482]}},{"type":"Feature","properties":{"label:cs":"Památník zvířat vyhubených člověkem v Zooparku v Chomutově","P31":"http://www.wikidata.org/entity/Q5003624","P31^label:cs":"Památník","P131^label:cs":"Chomutov","P6736":"22665"},"geometry":{"type":"Point","coordinates":[13.42381,50.4761]}},{"type":"Feature","properties":{"label:cs":"Socha Školáci u školy v ulici 17. listopadu v Chomutově","P31":"http://www.wikidata.org/entity/Q179700","P31^label:cs":"Socha","P131^label:cs":"Chomutov","P6736":"20878"},"geometry":{"type":"Point","coordinates":[13.41437,50.47943]}},{"type":"Feature","properties":{"label:cs":"Socha svatého Jana Nepomuckého u Kaštanky za zooparkem v Chomutově","P31":"http://www.wikidata.org/entity/Q179700","P31^label:cs":"Socha","P131^label:cs":"Chomutov","P6736":"20871"},"geometry":{"type":"Point","coordinates":[13.42487,50.47721]}},{"type":"Feature","properties":{"label:cs":"Socha Nejsvětější Trojice u Kaštanky za zooparkem v Chomutově","P31":"http://www.wikidata.org/entity/Q179700","P31^label:cs":"Socha","P131^label:cs":"Chomutov","P6736":"20870"},"geometry":{"type":"Point","coordinates":[13.42519,50.47717]}}]}