{"type":"FeatureCollection","features":[{"type":"Feature","properties":{"label:cs":"Plastika v ulici Školní pěšina v Chomutově","P31":"http://www.wikidata.org/entity/Q12045520","P31^label:cs":"Plastika","P131^label:cs":"Chomutov","P6736":"11506"},"geometry":{"type":"Point","coordinates":[13.42649,50.48176]}},{"type":"Feature","properties":{"label:cs":"Pomník účastníků mostecké stávky 1932 v Mostecké ulici v Chomutově","P31":"http://www.wikidata.org/entity/Q4989906","P31^label:cs":"Pomník","P131^label:cs":"Chomutov","P6736":"20868"},"geometry":{"type":"Point","coordinates":[13.43156,50.4715]}},{"type":"Feature","properties":{"label:cs":"Socha svaté Barbory u Kaštanky za zooparkem v Chomutově","P31":"http://www.wikidata.org/entity/Q179700","P31^label:cs":"Socha","P131^label:cs":"Chomutov","P6736":"20869"},"geometry":{"type":"Point","coordinates":[13.42587,50.47695]}},{"type":"Feature","properties":{"label:cs":"Kaple svatého Antonína v skanzenu Stará Ves v Chomutově","P31":"http://www.wikidata.org/entity/Q108325","P31^label:cs":"Kaple","P131^label:cs":"Chomutov","P6736":"20872"},"geometry":{"type":"Point","coordinates":[13.43107,50.47964]}},{"type":"Feature","properties":{"label:cs":"Sloup Nejsvětější Trojice v skanzenu Stará Ves v Chomutově","P31":"http://www.wikidata.org/entity/Q4817","P31^label:cs":"Sloup","P131^label:cs":"Chomutov","P6736":"20873"},"geometry":{"type":"Point","coordinates":[13.43103,50.47978]}},{"type":"Feature","properties":{"label:cs":"Sloup s Pietou v skanzenu Stará Ves v Chomutově","P31":"http://www.wikidata.org/entity/Q4817","P31^label:cs":"Sloup","P131^label:cs":"Chomutov","P6736":"20874"},"geometry":{"type":"Point","coordinates":[13.43021,50.47992]}},{"type":"Feature","properties":{"label:cs":"Odpočivný kámen u statku v skanzenu Stará Ves v Chomutově","P31":"http://www.wikidata.org/entity/Q11734477","P31^label:cs":"Památný kámen","P131^label:cs":"Chomutov","P6736":"20875"},"geometry":{"type":"Point","coordinates":[13.43015,50.47986]}},{"type":"Feature","properties":{"label:cs":"Odpočivný kámen u kaple v skanzenu Stará Ves v Chomutově","P31":"http://www.wikidata.org/entity/Q11734477","P31^label:cs":"Památný kámen","P131^label:cs":"Chomutov","P6736":"20876"},"geometry":{"type":"Point","coordinates":[13.43115,50.47976]}},{"type":"Feature","properties":{"label:cs":"Odpočivný kámen na rozcestí v skanzenu Stará Ves v Chomutově","P31":"http://www.wikidata.org/entity/Q11734477","P31^label:cs":"Památný kámen","P131^label:cs":"Chomutov","P6736":"20877"},"geometry":{"type":"Point","coordinates":[13.43091,50.47982]}},{"type":"Feature","properties":{"label:cs":"Socha Kamarádi u domu Kamenný vrch 5307 v Chomutově","P31":"http://www.wikidata.org/entity/Q179700","P31^label:cs":"Socha","P131^label:cs":"Chomutov","P6736":"33669"},"geometry":{"type":"Point","coordinates":[13.42728,50.48359]}}]}