{"type":"FeatureCollection","features":[{"type":"Feature","properties":{"label:cs":"Obrázek východně od hájovny Richardka","P31":"http://www.wikidata.org/entity/Q478798","P31^label:cs":"Obrázek","P131^label:cs":"Plasy","P6736":"36013"},"geometry":{"type":"Point","coordinates":[13.44277,49.92463]}},{"type":"Feature","properties":{"label:cs":"Památka východně od Nebřezin - nenalezeno","P31":"http://www.wikidata.org/entity/?","P31^label:cs":"Nenalezena","P131^label:cs":"Plasy","P6736":"35956"},"geometry":{"type":"Point","coordinates":[13.43634,49.92531]}},{"type":"Feature","properties":{"label:cs":"Kříž v Babině","P31":"http://www.wikidata.org/entity/Q2309609","P31^label:cs":"Pamětní kříž","P131^label:cs":"Plasy","P6736":"3110"},"geometry":{"type":"Point","coordinates":[13.43,49.93652]}},{"type":"Feature","properties":{"label:cs":"Pomník padlým v Babině","P31":"http://www.wikidata.org/entity/Q575759","P31^label:cs":"Pomník padlým","P131^label:cs":"Plasy","P6736":"3109"},"geometry":{"type":"Point","coordinates":[13.43011,49.93649]}},{"type":"Feature","properties":{"label:cs":"Kaple v Babině","P31":"http://www.wikidata.org/entity/Q108325","P31^label:cs":"Kaple","P131^label:cs":"Plasy","P6736":"3108"},"geometry":{"type":"Point","coordinates":[13.43015,49.93592]}},{"type":"Feature","properties":{"label:cs":"Kříž jižně od Babiny","P31":"http://www.wikidata.org/entity/Q2309609","P31^label:cs":"Pamětní kříž","P131^label:cs":"Plasy","P6736":"3107"},"geometry":{"type":"Point","coordinates":[13.42917,49.93413]}}]}