{"type":"FeatureCollection","features":[{"type":"Feature","properties":{"label:cs":"Pomník padlým v Krtech","P31":"Q575759","P31^label:cs":"Pomník padlým","P131^label:cs":"Krty","P6736":"8135"},"geometry":{"type":"Point","coordinates":[13.43184,50.09208]}},{"type":"Feature","properties":{"label:cs":"Socha svatého Vojtěcha v Krtech","P31":"Q179700","P31^label:cs":"Socha","P131^label:cs":"Krty","P6736":"8133"},"geometry":{"type":"Point","coordinates":[13.4319,50.09236]}},{"type":"Feature","properties":{"label:cs":"Kříž před kostelem v Krtech","P31":"Q2309609","P31^label:cs":"Pamětní kříž","P131^label:cs":"Krty","P6736":"8132"},"geometry":{"type":"Point","coordinates":[13.43182,50.09238]}},{"type":"Feature","properties":{"label:cs":"Pomník jižně od Krt","P31":"Q4989906","P31^label:cs":"Pomník","P131^label:cs":"Krty","P6736":"8131"},"geometry":{"type":"Point","coordinates":[13.43443,50.08853]}},{"type":"Feature","properties":{"label:cs":"Kříž jižně od Krt","P31":"Q2309609","P31^label:cs":"Pamětní kříž","P131^label:cs":"Krty","P6736":"8130"},"geometry":{"type":"Point","coordinates":[13.43832,50.08614]}}]}