{"type":"FeatureCollection","features":[{"type":"Feature","properties":{"label:cs":"Mariánský sloup v Chbanech","P31":"http://www.wikidata.org/entity/Q4817","P31^label:cs":"Sloup","P131^label:cs":"Chbany","P6736":"35850"},"geometry":{"type":"Point","coordinates":[13.43018,50.33336]}},{"type":"Feature","properties":{"label:cs":"Kaple v Chbanech","P31":"http://www.wikidata.org/entity/Q108325","P31^label:cs":"Kaple","P131^label:cs":"Chbany","P6736":"35849"},"geometry":{"type":"Point","coordinates":[13.42989,50.33321]}},{"type":"Feature","properties":{"label:cs":"Kaplička s Madonou na severním okraji Chban","P31":"http://www.wikidata.org/entity/Q14552192","P31^label:cs":"Kaplička","P131^label:cs":"Chbany","P6736":"35848"},"geometry":{"type":"Point","coordinates":[13.42856,50.33538]}},{"type":"Feature","properties":{"label:cs":"Kaple na návsi v Chudeříně","P31":"http://www.wikidata.org/entity/Q108325","P31^label:cs":"Kaple","P131^label:cs":"Nové Sedlo","P6736":"35845"},"geometry":{"type":"Point","coordinates":[13.44684,50.33755]}},{"type":"Feature","properties":{"label:cs":"Kaple svaté Markéty v Roztylech","P31":"http://www.wikidata.org/entity/Q108325","P31^label:cs":"Kaple","P131^label:cs":"Chbany","P6736":"35847"},"geometry":{"type":"Point","coordinates":[13.43794,50.34348]}},{"type":"Feature","properties":{"label:cs":"Kříž u polní cesty východně od Roztyl","P31":"http://www.wikidata.org/entity/Q2309609","P31^label:cs":"Pamětní kříž","P131^label:cs":"Chbany","P6736":"35846"},"geometry":{"type":"Point","coordinates":[13.43964,50.34246]}}]}