{"type":"FeatureCollection","features":[{"type":"Feature","properties":{"label:cs":"Kašna na Plzeňské ulici v Jesenici","P31":"http://www.wikidata.org/entity/Q12029081","P31^label:cs":"Kašna","P131^label:cs":"Jesenice","P6736":"38127"},"geometry":{"type":"Point","coordinates":[13.46996,50.09551]}},{"type":"Feature","properties":{"label:cs":"Kříž v Jesenici u rybníka Dolní Fikač","P31":"http://www.wikidata.org/entity/Q2309609","P31^label:cs":"Pamětní kříž","P131^label:cs":"Jesenice","P6736":"36344"},"geometry":{"type":"Point","coordinates":[13.48971,50.10044]}},{"type":"Feature","properties":{"label:cs":"Kříž v Jesenici v Plzeňské ulici","P31":"http://www.wikidata.org/entity/Q2309609","P31^label:cs":"Pamětní kříž","P131^label:cs":"Jesenice","P6736":"36342"},"geometry":{"type":"Point","coordinates":[13.46993,50.09579]}},{"type":"Feature","properties":{"label:cs":"Kříž v Jesenici v Oráčovské ulici","P31":"http://www.wikidata.org/entity/Q2309609","P31^label:cs":"Pamětní kříž","P131^label:cs":"Jesenice","P6736":"36341"},"geometry":{"type":"Point","coordinates":[13.47626,50.09756]}},{"type":"Feature","properties":{"label:cs":"Kříž u silnice severovýchodně od Jesenice v lokalitě U šibenice","P31":"http://www.wikidata.org/entity/Q2309609","P31^label:cs":"Pamětní kříž","P131^label:cs":"Jesenice","P6736":"36340"},"geometry":{"type":"Point","coordinates":[13.48109,50.10604]}},{"type":"Feature","properties":{"label:cs":"Boží muka u silnice na severovýchodním okraji Jesenice","P31":"http://www.wikidata.org/entity/Q3395121","P31^label:cs":"Boží muka","P131^label:cs":"Jesenice","P6736":"36338"},"geometry":{"type":"Point","coordinates":[13.4788,50.1025]}},{"type":"Feature","properties":{"label:cs":"Výklenková kaplička u silnice na severovýchodním okraji Jesenice","P31":"http://www.wikidata.org/entity/Q14552192","P31^label:cs":"Kaplička","P131^label:cs":"Jesenice","P6736":"36337"},"geometry":{"type":"Point","coordinates":[13.47882,50.10306]}},{"type":"Feature","properties":{"label:cs":"Kašna v Jesenici","P31":"http://www.wikidata.org/entity/Q12029081","P31^label:cs":"Kašna","P131^label:cs":"Jesenice","P6736":"11699"},"geometry":{"type":"Point","coordinates":[13.47181,50.09852]}},{"type":"Feature","properties":{"label:cs":"Boží muka v Jesenici na Mírovém náměstí","P31":"http://www.wikidata.org/entity/Q3395121","P31^label:cs":"Boží muka","P131^label:cs":"Jesenice","P6736":"7242"},"geometry":{"type":"Point","coordinates":[13.47267,50.0983]}},{"type":"Feature","properties":{"label:cs":"Sloup se sousoším Nejsvětější Trojice v Jesenici","P31":"http://www.wikidata.org/entity/Q4817","P31^label:cs":"Sloup","P131^label:cs":"Jesenice","P6736":"7235"},"geometry":{"type":"Point","coordinates":[13.47149,50.09851]}},{"type":"Feature","properties":{"label:cs":"Smírčí kříže v Jesenici","P31":"http://www.wikidata.org/entity/Q1640496","P31^label:cs":"Smírčí kříž","P131^label:cs":"Jesenice","P6736":"7234"},"geometry":{"type":"Point","coordinates":[13.47281,50.09833]}}]}