{"type":"FeatureCollection","features":[{"type":"Feature","properties":{"label:cs":"Kaple v Chotěšově","P31":"http://www.wikidata.org/entity/Q108325","P31^label:cs":"Kaple","P131^label:cs":"Jesenice","P6736":"36335"},"geometry":{"type":"Point","coordinates":[13.48081,50.12005]}},{"type":"Feature","properties":{"label:cs":"Schnödlův kříž na křižovatce u hřbitova v Chotěšově","P31":"http://www.wikidata.org/entity/Q2309609","P31^label:cs":"Pamětní kříž","P131^label:cs":"Jesenice","P6736":"36334"},"geometry":{"type":"Point","coordinates":[13.4878,50.11716]}},{"type":"Feature","properties":{"label:cs":"Kříž u čp. 39 v Chotěšově","P31":"http://www.wikidata.org/entity/Q2309609","P31^label:cs":"Pamětní kříž","P131^label:cs":"Jesenice","P6736":"36333"},"geometry":{"type":"Point","coordinates":[13.48434,50.1184]}},{"type":"Feature","properties":{"label:cs":"Kříž u čp. 31 v Chotěšově","P31":"http://www.wikidata.org/entity/Q2309609","P31^label:cs":"Pamětní kříž","P131^label:cs":"Jesenice","P6736":"36332"},"geometry":{"type":"Point","coordinates":[13.48316,50.11898]}},{"type":"Feature","properties":{"label:cs":"Kříž u čp. 21 v Chotěšově","P31":"http://www.wikidata.org/entity/Q2309609","P31^label:cs":"Pamětní kříž","P131^label:cs":"Jesenice","P6736":"36331"},"geometry":{"type":"Point","coordinates":[13.48234,50.11977]}},{"type":"Feature","properties":{"label:cs":"Kříž severovýchodně od Jesenice","P31":"http://www.wikidata.org/entity/Q2309609","P31^label:cs":"Pamětní kříž","P131^label:cs":"Jesenice","P6736":"36339"},"geometry":{"type":"Point","coordinates":[13.48921,50.10776]}},{"type":"Feature","properties":{"label:cs":"Výklenková kaplička u hřbitova v Jesenici","P31":"http://www.wikidata.org/entity/Q14552192","P31^label:cs":"Kaplička","P131^label:cs":"Jesenice","P6736":"36336"},"geometry":{"type":"Point","coordinates":[13.48295,50.10797]}}]}