{"type":"FeatureCollection","features":[{"type":"Feature","properties":{"label:cs":"Pomník popravených sportovců v Chrástu","P31":"http://www.wikidata.org/entity/Q575759","P31^label:cs":"Pomník padlým","P131^label:cs":"Chrást","P6736":"5159"},"geometry":{"type":"Point","coordinates":[13.48976,49.79574]}},{"type":"Feature","properties":{"label:cs":"Kaplička východně od Dolan","P31":"http://www.wikidata.org/entity/Q14552192","P31^label:cs":"Kaplička","P131^label:cs":"Dolany","P6736":"4942"},"geometry":{"type":"Point","coordinates":[13.48618,49.80946]}},{"type":"Feature","properties":{"label:cs":"Smírčí kříž v Dolanech","P31":"http://www.wikidata.org/entity/Q1640496","P31^label:cs":"Smírčí kříž","P131^label:cs":"Dolany","P6736":"4941"},"geometry":{"type":"Point","coordinates":[13.4721,49.80629]}},{"type":"Feature","properties":{"label:cs":"Boží muka v Dolanech","P31":"http://www.wikidata.org/entity/Q3395121","P31^label:cs":"Boží muka","P131^label:cs":"Dolany","P6736":"4940"},"geometry":{"type":"Point","coordinates":[13.47211,49.80628]}},{"type":"Feature","properties":{"label:cs":"Kříž v Dolanech","P31":"http://www.wikidata.org/entity/Q2309609","P31^label:cs":"Pamětní kříž","P131^label:cs":"Dolany","P6736":"4939"},"geometry":{"type":"Point","coordinates":[13.47211,49.80625]}},{"type":"Feature","properties":{"label:cs":"Pomník padlým v Dolanech","P31":"http://www.wikidata.org/entity/Q575759","P31^label:cs":"Pomník padlým","P131^label:cs":"Dolany","P6736":"4055"},"geometry":{"type":"Point","coordinates":[13.4723,49.80805]}},{"type":"Feature","properties":{"label:cs":"Kaple v Dolanech","P31":"http://www.wikidata.org/entity/Q108325","P31^label:cs":"Kaple","P131^label:cs":"Dolany","P6736":"4054"},"geometry":{"type":"Point","coordinates":[13.47256,49.80785]}},{"type":"Feature","properties":{"label:cs":"Kříž pod Dolany u Habrové","P31":"http://www.wikidata.org/entity/Q2309609","P31^label:cs":"Pamětní kříž","P131^label:cs":"Dolany","P6736":"1396"},"geometry":{"type":"Point","coordinates":[13.47457,49.80491]}}]}