{"type":"FeatureCollection","features":[{"type":"Feature","properties":{"label:cs":"Socha svatého Antonína Paduánského","P31":"http://www.wikidata.org/entity/Q179700","P31^label:cs":"Socha","P131^label:cs":"Kralovice","P6736":"5319"},"geometry":{"type":"Point","coordinates":[13.48643,49.97874]}},{"type":"Feature","properties":{"label:cs":"Kaple jižně od Kralovic","P31":"http://www.wikidata.org/entity/Q108325","P31^label:cs":"Kaple","P131^label:cs":"Kralovice","P6736":"5320"},"geometry":{"type":"Point","coordinates":[13.49058,49.97519]}},{"type":"Feature","properties":{"label:cs":"Socha svatého Jana Nepomuckého v Kralovicích u kostela","P31":"http://www.wikidata.org/entity/Q179700","P31^label:cs":"Socha","P131^label:cs":"Kralovice","P6736":"5313"},"geometry":{"type":"Point","coordinates":[13.48346,49.97939]}},{"type":"Feature","properties":{"label:cs":"Kříž v Kralovicích u kostela","P31":"http://www.wikidata.org/entity/Q2309609","P31^label:cs":"Pamětní kříž","P131^label:cs":"Kralovice","P6736":"5314"},"geometry":{"type":"Point","coordinates":[13.48289,49.97943]}},{"type":"Feature","properties":{"label:cs":"Kříž v Kralovicích v ulici Petra Bezruče","P31":"http://www.wikidata.org/entity/Q2309609","P31^label:cs":"Pamětní kříž","P131^label:cs":"Kralovice","P6736":"5312"},"geometry":{"type":"Point","coordinates":[13.48724,49.97776]}},{"type":"Feature","properties":{"label:cs":"Boží muka jižně od Kralovic","P31":"http://www.wikidata.org/entity/Q3395121","P31^label:cs":"Boží muka","P131^label:cs":"Kralovice","P6736":"4077"},"geometry":{"type":"Point","coordinates":[13.47968,49.97756]}},{"type":"Feature","properties":{"label:cs":"Kříž u Kralovic u silnice I/27","P31":"http://www.wikidata.org/entity/Q2309609","P31^label:cs":"Pamětní kříž","P131^label:cs":"Kralovice","P6736":"1791"},"geometry":{"type":"Point","coordinates":[13.47328,49.97605]}}]}