{"type":"FeatureCollection","features":[{"type":"Feature","properties":{"label:cs":"Kaplička západně od Chotiné - nenalezeno","P31":"http://www.wikidata.org/entity/?","P31^label:cs":"Nenalezena","P131^label:cs":"Hromnice","P6736":"35353"},"geometry":{"type":"Point","coordinates":[13.4778,49.85545]}},{"type":"Feature","properties":{"label:cs":"Kříž u křižovatky v Chotiné","P31":"http://www.wikidata.org/entity/Q2309609","P31^label:cs":"Pamětní kříž","P131^label:cs":"Hromnice","P6736":"35184"},"geometry":{"type":"Point","coordinates":[13.48463,49.85385]}},{"type":"Feature","properties":{"label:cs":"Pomník padlým v Chotiné","P31":"http://www.wikidata.org/entity/Q575759","P31^label:cs":"Pomník padlým","P131^label:cs":"Hromnice","P6736":"4851"},"geometry":{"type":"Point","coordinates":[13.48492,49.85466]}},{"type":"Feature","properties":{"label:cs":"Kaple v Chotiné","P31":"http://www.wikidata.org/entity/Q108325","P31^label:cs":"Kaple","P131^label:cs":"Hromnice","P6736":"4586"},"geometry":{"type":"Point","coordinates":[13.48534,49.85509]}},{"type":"Feature","properties":{"label:cs":"Památka jihovýchodně od Jarova - nenalezeno","P31":"http://www.wikidata.org/entity/?","P31^label:cs":"Nenalezena","P131^label:cs":"Jarov","P6736":"35475"},"geometry":{"type":"Point","coordinates":[13.48629,49.86385]}}]}