{"type":"FeatureCollection","features":[{"type":"Feature","properties":{"label:cs":"Památka v Hradecku na návsi - nenalezeno","P31":"http://www.wikidata.org/entity/?","P31^label:cs":"Nenalezena","P131^label:cs":"Kralovice","P6736":"38917"},"geometry":{"type":"Point","coordinates":[13.50564,50.01008]}},{"type":"Feature","properties":{"label:cs":"Kaplička v Hradecku","P31":"http://www.wikidata.org/entity/Q14552192","P31^label:cs":"Kaplička","P131^label:cs":"Kralovice","P6736":"10380"},"geometry":{"type":"Point","coordinates":[13.50564,50.01064]}},{"type":"Feature","properties":{"label:cs":"Kříž v Hradecku","P31":"http://www.wikidata.org/entity/Q2309609","P31^label:cs":"Pamětní kříž","P131^label:cs":"Kralovice","P6736":"5254"},"geometry":{"type":"Point","coordinates":[13.50401,50.00907]}},{"type":"Feature","properties":{"label:cs":"Kříž západně od Hradecka","P31":"http://www.wikidata.org/entity/Q2309609","P31^label:cs":"Pamětní kříž","P131^label:cs":"Kralovice","P6736":"5253"},"geometry":{"type":"Point","coordinates":[13.49968,50.00848]}},{"type":"Feature","properties":{"label:cs":"Kaple v Hradecku","P31":"http://www.wikidata.org/entity/Q108325","P31^label:cs":"Kaple","P131^label:cs":"Kralovice","P6736":"4866"},"geometry":{"type":"Point","coordinates":[13.50516,50.00998]}},{"type":"Feature","properties":{"label:cs":"Pomník padlým v Hradecku","P31":"http://www.wikidata.org/entity/Q575759","P31^label:cs":"Pomník padlým","P131^label:cs":"Kralovice","P6736":"4865"},"geometry":{"type":"Point","coordinates":[13.50461,50.00922]}}]}