{"type":"FeatureCollection","features":[{"type":"Feature","properties":{"label:cs":"Památka severozápadně od Čivic - nenalezeno","P31":"http://www.wikidata.org/entity/?","P31^label:cs":"Nenalezena","P131^label:cs":"Dobříč","P6736":"35893"},"geometry":{"type":"Point","coordinates":[13.49893,49.89027]}},{"type":"Feature","properties":{"label:cs":"Boží muka u Bertina Dvora - nenalezeno","P31":"http://www.wikidata.org/entity/?","P31^label:cs":"Nenalezena","P131^label:cs":"Dobříč","P6736":"35479"},"geometry":{"type":"Point","coordinates":[13.50344,49.89241]}},{"type":"Feature","properties":{"label:cs":"Kříž západně od Čivic u křižovatky","P31":"http://www.wikidata.org/entity/Q2309609","P31^label:cs":"Pamětní kříž","P131^label:cs":"Dobříč","P6736":"35293"},"geometry":{"type":"Point","coordinates":[13.50675,49.88401]}},{"type":"Feature","properties":{"label:cs":"Památník v Čivicích","P31":"http://www.wikidata.org/entity/Q5003624","P31^label:cs":"Památník","P131^label:cs":"Dobříč","P6736":"10366"},"geometry":{"type":"Point","coordinates":[13.51197,49.88216]}},{"type":"Feature","properties":{"label:cs":"Kříž západně od Čivic v poli","P31":"http://www.wikidata.org/entity/Q2309609","P31^label:cs":"Pamětní kříž","P131^label:cs":"Dobříč","P6736":"4266"},"geometry":{"type":"Point","coordinates":[13.50772,49.88072]}},{"type":"Feature","properties":{"label:cs":"Kříž v Čivicích na návsi","P31":"http://www.wikidata.org/entity/Q2309609","P31^label:cs":"Pamětní kříž","P131^label:cs":"Dobříč","P6736":"4067"},"geometry":{"type":"Point","coordinates":[13.51277,49.88356]}},{"type":"Feature","properties":{"label:cs":"Pomník padlým v Čivicích","P31":"http://www.wikidata.org/entity/Q575759","P31^label:cs":"Pomník padlým","P131^label:cs":"Dobříč","P6736":"4066"},"geometry":{"type":"Point","coordinates":[13.51262,49.88338]}},{"type":"Feature","properties":{"label:cs":"Kříž v jižní části Čivic","P31":"http://www.wikidata.org/entity/Q2309609","P31^label:cs":"Pamětní kříž","P131^label:cs":"Dobříč","P6736":"4065"},"geometry":{"type":"Point","coordinates":[13.51219,49.88153]}}]}