{"type":"FeatureCollection","features":[{"type":"Feature","properties":{"label:cs":"Kaplička v Hradecku","P31":"Kaplička","P31^label:cs":"Kaplička","P131^label:cs":"Kralovice","P6736":"10380"},"geometry":{"type":"Point","coordinates":[13.50564,50.01061]}},{"type":"Feature","properties":{"label:cs":"Kříž v Hradecku","P31":"Pamětní kříž","P31^label:cs":"Pamětní kříž","P131^label:cs":"Kralovice","P6736":"5254"},"geometry":{"type":"Point","coordinates":[13.50401,50.00907]}},{"type":"Feature","properties":{"label:cs":"Kříž západně od Hradecka","P31":"Pamětní kříž","P31^label:cs":"Pamětní kříž","P131^label:cs":"Kralovice","P6736":"5253"},"geometry":{"type":"Point","coordinates":[13.49968,50.00848]}},{"type":"Feature","properties":{"label:cs":"Kaple v Hradecku","P31":"Kaple","P31^label:cs":"Kaple","P131^label:cs":"Kralovice","P6736":"4866"},"geometry":{"type":"Point","coordinates":[13.50516,50.00998]}},{"type":"Feature","properties":{"label:cs":"Pomník padlým v Hradecku","P31":"Pomník padlým","P31^label:cs":"Pomník padlým","P131^label:cs":"Kralovice","P6736":"4865"},"geometry":{"type":"Point","coordinates":[13.50461,50.00922]}}]}