{"type":"FeatureCollection","features":[{"type":"Feature","properties":{"label:cs":"Památka jižně od Nynic - nenalezeno","P31":"http://www.wikidata.org/entity/?","P31^label:cs":"Nenalezena","P131^label:cs":"Hromnice","P6736":"38736"},"geometry":{"type":"Point","coordinates":[13.50958,49.84465]}},{"type":"Feature","properties":{"label:cs":"Památka v Nynicích - nenalezeno","P31":"http://www.wikidata.org/entity/?","P31^label:cs":"Nenalezena","P131^label:cs":"Hromnice","P6736":"38735"},"geometry":{"type":"Point","coordinates":[13.50968,49.84547]}},{"type":"Feature","properties":{"label:cs":"Kříž severozápadně od Nynic nedaleko rozcestí - nenalezeno","P31":"http://www.wikidata.org/entity/?","P31^label:cs":"Nenalezena","P131^label:cs":"Hromnice","P6736":"35206"},"geometry":{"type":"Point","coordinates":[13.50104,49.8518]}},{"type":"Feature","properties":{"label:cs":"Pomník padlým na kapli v Nynicích","P31":"http://www.wikidata.org/entity/Q575759","P31^label:cs":"Pomník padlým","P131^label:cs":"Hromnice","P6736":"10364"},"geometry":{"type":"Point","coordinates":[13.51118,49.84623]}},{"type":"Feature","properties":{"label:cs":"Kaple svaté Kateřiny v Nynicích","P31":"http://www.wikidata.org/entity/Q108325","P31^label:cs":"Kaple","P131^label:cs":"Hromnice","P6736":"5341"},"geometry":{"type":"Point","coordinates":[13.51128,49.84628]}},{"type":"Feature","properties":{"label:cs":"Kaple západně od Nynic u cesty na Chotinou","P31":"http://www.wikidata.org/entity/Q108325","P31^label:cs":"Kaple","P131^label:cs":"Hromnice","P6736":"2209"},"geometry":{"type":"Point","coordinates":[13.50706,49.84727]}},{"type":"Feature","properties":{"label:cs":"Husův památník západně od Nynic","P31":"http://www.wikidata.org/entity/Q5003624","P31^label:cs":"Památník","P131^label:cs":"Hromnice","P6736":"2211"},"geometry":{"type":"Point","coordinates":[13.50522,49.84378]}},{"type":"Feature","properties":{"label:cs":"Kříž nad Nynicemi","P31":"http://www.wikidata.org/entity/Q2309609","P31^label:cs":"Pamětní kříž","P131^label:cs":"Hromnice","P6736":"2210"},"geometry":{"type":"Point","coordinates":[13.50452,49.8511]}},{"type":"Feature","properties":{"label:cs":"Kříž severně od Nynic","P31":"http://www.wikidata.org/entity/Q2309609","P31^label:cs":"Pamětní kříž","P131^label:cs":"Hromnice","P6736":"2208"},"geometry":{"type":"Point","coordinates":[13.5126,49.84912]}}]}