{"type":"FeatureCollection","features":[{"type":"Feature","properties":{"label:cs":"Pomník padlým na kapli v Nynicích","P31":"http://www.wikidata.org/entity/Q575759","P31^label:cs":"Pomník padlým","P131^label:cs":"Hromnice","P6736":"10364"},"geometry":{"type":"Point","coordinates":[13.51118,49.84623]}},{"type":"Feature","properties":{"label:cs":"Kaple svaté Kateřiny v Nynicích","P31":"http://www.wikidata.org/entity/Q108325","P31^label:cs":"Kaple","P131^label:cs":"Hromnice","P6736":"5341"},"geometry":{"type":"Point","coordinates":[13.51128,49.84628]}},{"type":"Feature","properties":{"label:cs":"Kaple západně od Nynic u cesty na Chotinou","P31":"http://www.wikidata.org/entity/Q108325","P31^label:cs":"Kaple","P131^label:cs":"Hromnice","P6736":"2209"},"geometry":{"type":"Point","coordinates":[13.50706,49.84727]}},{"type":"Feature","properties":{"label:cs":"Památník Husitů západně od Nynic","P31":"http://www.wikidata.org/entity/Q5003624","P31^label:cs":"Památník","P131^label:cs":"Hromnice","P6736":"2211"},"geometry":{"type":"Point","coordinates":[13.50522,49.84378]}},{"type":"Feature","properties":{"label:cs":"Kříž severně od Nynic","P31":"http://www.wikidata.org/entity/Q2309609","P31^label:cs":"Pamětní kříž","P131^label:cs":"Hromnice","P6736":"2208"},"geometry":{"type":"Point","coordinates":[13.51261,49.84908]}},{"type":"Feature","properties":{"label:cs":"Kříž nad Nynicemi","P31":"http://www.wikidata.org/entity/Q2309609","P31^label:cs":"Pamětní kříž","P131^label:cs":"Hromnice","P6736":"2210"},"geometry":{"type":"Point","coordinates":[13.50452,49.8511]}}]}