{"type":"FeatureCollection","features":[{"type":"Feature","properties":{"label:cs":"Sousoší v Břízsku","P31":"Q179700","P31^label:cs":"Socha","P131^label:cs":"Kozojedy","P6736":"8304"},"geometry":{"type":"Point","coordinates":[13.51865,49.90525]}},{"type":"Feature","properties":{"label:cs":"Kaple východně od Břízska","P31":"Q108325","P31^label:cs":"Kaple","P131^label:cs":"Kozojedy","P6736":"5432"},"geometry":{"type":"Point","coordinates":[13.52615,49.90472]}},{"type":"Feature","properties":{"label:cs":"Kaplička u Břízska","P31":"Q14552192","P31^label:cs":"Kaplička","P131^label:cs":"Kozojedy","P6736":"4585"},"geometry":{"type":"Point","coordinates":[13.51609,49.90565]}},{"type":"Feature","properties":{"label:cs":"Kaple v Břízsku","P31":"Q108325","P31^label:cs":"Kaple","P131^label:cs":"Kozojedy","P6736":"4584"},"geometry":{"type":"Point","coordinates":[13.51763,49.90485]}},{"type":"Feature","properties":{"label:cs":"Boží muka v Robčicích","P31":"Q3395121","P31^label:cs":"Boží muka","P131^label:cs":"Kozojedy","P6736":"4271"},"geometry":{"type":"Point","coordinates":[13.53501,49.90143]}},{"type":"Feature","properties":{"label:cs":"Kříž západně od Robčic u rozcestí","P31":"Q2309609","P31^label:cs":"Pamětní kříž","P131^label:cs":"Kozojedy","P6736":"4270"},"geometry":{"type":"Point","coordinates":[13.53216,49.90179]}},{"type":"Feature","properties":{"label:cs":"Kříž v Břízsku","P31":"Q2309609","P31^label:cs":"Pamětní kříž","P131^label:cs":"Kozojedy","P6736":"4269"},"geometry":{"type":"Point","coordinates":[13.52053,49.90559]}},{"type":"Feature","properties":{"label:cs":"Pomník padlým v Břízsku","P31":"Q575759","P31^label:cs":"Pomník padlým","P131^label:cs":"Kozojedy","P6736":"4268"},"geometry":{"type":"Point","coordinates":[13.51772,49.90491]}},{"type":"Feature","properties":{"label:cs":"Křížový kámen u Břízska","P31":"Q38411643","P31^label:cs":"Křížový kámen","P131^label:cs":"Kozojedy","P6736":"4267"},"geometry":{"type":"Point","coordinates":[13.51639,49.90436]}},{"type":"Feature","properties":{"label:cs":"Kříž nad Robčicemi","P31":"Q2309609","P31^label:cs":"Pamětní kříž","P131^label:cs":"Kozojedy","P6736":"2452"},"geometry":{"type":"Point","coordinates":[13.52846,49.9044]}},{"type":"Feature","properties":{"label:cs":"Kříž u Břízska","P31":"Q2309609","P31^label:cs":"Pamětní kříž","P131^label:cs":"Kozojedy","P6736":"1289"},"geometry":{"type":"Point","coordinates":[13.51643,49.90439]}}]}