{"type":"FeatureCollection","features":[{"type":"Feature","properties":{"label:cs":"Kaplička v lese východně od Kozojed","P31":"http://www.wikidata.org/entity/Q14552192","P31^label:cs":"Kaplička","P131^label:cs":"Bohy","P6736":"5425"},"geometry":{"type":"Point","coordinates":[13.55425,49.93314]}},{"type":"Feature","properties":{"label:cs":"Kámen s rytinou na kótě 340 m n. m. východně od Kozojed","P31":"http://www.wikidata.org/entity/Q11734477","P31^label:cs":"Památný kámen","P131^label:cs":"Bohy","P6736":"28278"},"geometry":{"type":"Point","coordinates":[13.55358,49.93352]}},{"type":"Feature","properties":{"label:cs":"Kříž u Kozojed","P31":"http://www.wikidata.org/entity/Q2309609","P31^label:cs":"Pamětní kříž","P131^label:cs":"Kozojedy","P6736":"1785"},"geometry":{"type":"Point","coordinates":[13.53835,49.93034]}},{"type":"Feature","properties":{"label:cs":"Kříž nad Kozojedy","P31":"http://www.wikidata.org/entity/Q2309609","P31^label:cs":"Pamětní kříž","P131^label:cs":"Kozojedy","P6736":"1786"},"geometry":{"type":"Point","coordinates":[13.54167,49.93706]}},{"type":"Feature","properties":{"label:cs":"Pomník padlým v Kozojedech","P31":"http://www.wikidata.org/entity/Q575759","P31^label:cs":"Pomník padlým","P131^label:cs":"Kozojedy","P6736":"4807"},"geometry":{"type":"Point","coordinates":[13.54564,49.93015]}},{"type":"Feature","properties":{"label:cs":"Kaplička v Kozojedech u kostela","P31":"http://www.wikidata.org/entity/Q14552192","P31^label:cs":"Kaplička","P131^label:cs":"Kozojedy","P6736":"4808"},"geometry":{"type":"Point","coordinates":[13.54648,49.9298]}},{"type":"Feature","properties":{"label:cs":"Socha východně od Kozojed","P31":"http://www.wikidata.org/entity/Q179700","P31^label:cs":"Socha","P131^label:cs":"Kozojedy","P6736":"5426"},"geometry":{"type":"Point","coordinates":[13.55285,49.93067]}},{"type":"Feature","properties":{"label:cs":"Socha v Kozojedech u domu 144","P31":"http://www.wikidata.org/entity/Q179700","P31^label:cs":"Socha","P131^label:cs":"Kozojedy","P6736":"5427"},"geometry":{"type":"Point","coordinates":[13.54835,49.92999]}},{"type":"Feature","properties":{"label:cs":"Socha v Kozojedech u domu 43","P31":"http://www.wikidata.org/entity/Q179700","P31^label:cs":"Socha","P131^label:cs":"Kozojedy","P6736":"5428"},"geometry":{"type":"Point","coordinates":[13.54764,49.92999]}},{"type":"Feature","properties":{"label:cs":"Socha u kostela v Kozojedech","P31":"http://www.wikidata.org/entity/Q179700","P31^label:cs":"Socha","P131^label:cs":"Kozojedy","P6736":"5429"},"geometry":{"type":"Point","coordinates":[13.54619,49.9298]}},{"type":"Feature","properties":{"label:cs":"Plastika v Kozojedech na návsi","P31":"http://www.wikidata.org/entity/Q12045520","P31^label:cs":"Plastika","P131^label:cs":"Kozojedy","P6736":"5430"},"geometry":{"type":"Point","coordinates":[13.54611,49.93063]}},{"type":"Feature","properties":{"label:cs":"Plastika v Kozojedech u křižovatky","P31":"http://www.wikidata.org/entity/Q12045520","P31^label:cs":"Plastika","P131^label:cs":"Kozojedy","P6736":"5431"},"geometry":{"type":"Point","coordinates":[13.54545,49.93083]}},{"type":"Feature","properties":{"label:cs":"Socha žáby severně od Kozojed","P31":"http://www.wikidata.org/entity/Q179700","P31^label:cs":"Socha","P131^label:cs":"Kozojedy","P6736":"7248"},"geometry":{"type":"Point","coordinates":[13.54265,49.93385]}},{"type":"Feature","properties":{"label:cs":"Plastika jižně od Kozojed","P31":"http://www.wikidata.org/entity/Q12045520","P31^label:cs":"Plastika","P131^label:cs":"Kozojedy","P6736":"8165"},"geometry":{"type":"Point","coordinates":[13.54383,49.92709]}},{"type":"Feature","properties":{"label:cs":"Plastika v Kozojedech u křižovatky","P31":"http://www.wikidata.org/entity/Q12045520","P31^label:cs":"Plastika","P131^label:cs":"Kozojedy","P6736":"8301"},"geometry":{"type":"Point","coordinates":[13.54333,49.93037]}},{"type":"Feature","properties":{"label:cs":"Plastika západně od Kozojed","P31":"http://www.wikidata.org/entity/Q12045520","P31^label:cs":"Plastika","P131^label:cs":"Kozojedy","P6736":"8303"},"geometry":{"type":"Point","coordinates":[13.53993,49.93185]}},{"type":"Feature","properties":{"label:cs":"Socha severovýchodně od Kozojed u rozcestí","P31":"http://www.wikidata.org/entity/Q179700","P31^label:cs":"Socha","P131^label:cs":"Kozojedy","P6736":"10372"},"geometry":{"type":"Point","coordinates":[13.5458,49.9341]}},{"type":"Feature","properties":{"label:cs":"Socha v severovýchodní části Kozojed","P31":"http://www.wikidata.org/entity/Q179700","P31^label:cs":"Socha","P131^label:cs":"Kozojedy","P6736":"10373"},"geometry":{"type":"Point","coordinates":[13.54525,49.93272]}},{"type":"Feature","properties":{"label:cs":"Socha starce v severovýchodní části Kozojed","P31":"http://www.wikidata.org/entity/Q179700","P31^label:cs":"Socha","P131^label:cs":"Kozojedy","P6736":"10374"},"geometry":{"type":"Point","coordinates":[13.54216,49.93317]}},{"type":"Feature","properties":{"label:cs":"Socha ženy v severozápadní části Kozojed","P31":"http://www.wikidata.org/entity/Q179700","P31^label:cs":"Socha","P131^label:cs":"Kozojedy","P6736":"10375"},"geometry":{"type":"Point","coordinates":[13.54231,49.93327]}},{"type":"Feature","properties":{"label:cs":"Pamětní deska v Kozojedech na budově základní školy","P31":"http://www.wikidata.org/entity/Q721747","P31^label:cs":"Pamětní deska","P131^label:cs":"Kozojedy","P6736":"12395"},"geometry":{"type":"Point","coordinates":[13.5468,49.92983]}},{"type":"Feature","properties":{"label:cs":"Plastika před domem čp. 52 v Kozojedech","P31":"http://www.wikidata.org/entity/Q12045520","P31^label:cs":"Plastika","P131^label:cs":"Kozojedy","P6736":"28277"},"geometry":{"type":"Point","coordinates":[13.54547,49.93008]}}]}