{"type":"FeatureCollection","features":[{"type":"Feature","properties":{"label:cs":"Kříž u domu 23 v Žiželicích","P31":"http://www.wikidata.org/entity/Q2309609","P31^label:cs":"Pamětní kříž","P131^label:cs":"Žiželice","P6736":"30809"},"geometry":{"type":"Point","coordinates":[13.54007,50.36757]}},{"type":"Feature","properties":{"label:cs":"Kaple v severní části Žiželic","P31":"http://www.wikidata.org/entity/Q108325","P31^label:cs":"Kaple","P131^label:cs":"Žiželice","P6736":"30810"},"geometry":{"type":"Point","coordinates":[13.53946,50.36836]}},{"type":"Feature","properties":{"label:cs":"Kříž na návsi v Žiželicích","P31":"http://www.wikidata.org/entity/Q2309609","P31^label:cs":"Pamětní kříž","P131^label:cs":"Žiželice","P6736":"30811"},"geometry":{"type":"Point","coordinates":[13.54081,50.36821]}},{"type":"Feature","properties":{"label:cs":"Boží muka na návsi v Žiželicích","P31":"http://www.wikidata.org/entity/Q3395121","P31^label:cs":"Boží muka","P131^label:cs":"Žiželice","P6736":"30812"},"geometry":{"type":"Point","coordinates":[13.54094,50.36823]}},{"type":"Feature","properties":{"label:cs":"Pomník padlým v 1. světové válce v Žiželicích","P31":"http://www.wikidata.org/entity/Q575759","P31^label:cs":"Pomník padlým","P131^label:cs":"Žiželice","P6736":"30813"},"geometry":{"type":"Point","coordinates":[13.5437,50.36717]}},{"type":"Feature","properties":{"label:cs":"Kříž u kaple Navštívení Panny Marie v Žiželicích","P31":"http://www.wikidata.org/entity/Q2309609","P31^label:cs":"Pamětní kříž","P131^label:cs":"Žiželice","P6736":"30814"},"geometry":{"type":"Point","coordinates":[13.54377,50.36703]}},{"type":"Feature","properties":{"label:cs":"Kaple Navštívení Panny Marie v Žiželicích","P31":"http://www.wikidata.org/entity/Q108325","P31^label:cs":"Kaple","P131^label:cs":"Žiželice","P6736":"30815"},"geometry":{"type":"Point","coordinates":[13.54366,50.36707]}}]}