{
    "type": "FeatureCollection",
    "features": [
        {
            "type": "Feature",
            "properties": {
                "label:cs": "Kaple na hřbitově u Stupna",
                "P31": "Kaple",
                "P31^label:cs": "Kaple",
                "P131^label:cs": "Břasy",
                "P6736": "8021"
            },
            "geometry": {
                "type": "Point",
                "coordinates": [
                    13.57283,
                    49.82345
                ]
            }
        },
        {
            "type": "Feature",
            "properties": {
                "label:cs": "Kaple západně od Stupna",
                "P31": "Kaple",
                "P31^label:cs": "Kaple",
                "P131^label:cs": "Břasy",
                "P6736": "8020"
            },
            "geometry": {
                "type": "Point",
                "coordinates": [
                    13.5724,
                    49.82299
                ]
            }
        },
        {
            "type": "Feature",
            "properties": {
                "label:cs": "Kříž ve Všenicích",
                "P31": "Pamětní kříž",
                "P31^label:cs": "Pamětní kříž",
                "P131^label:cs": "Všenice",
                "P6736": "4458"
            },
            "geometry": {
                "type": "Point",
                "coordinates": [
                    13.56194,
                    49.81867
                ]
            }
        },
        {
            "type": "Feature",
            "properties": {
                "label:cs": "Památník ve Všenicích",
                "P31": "Památník",
                "P31^label:cs": "Památník",
                "P131^label:cs": "Všenice",
                "P6736": "4457"
            },
            "geometry": {
                "type": "Point",
                "coordinates": [
                    13.56168,
                    49.81848
                ]
            }
        },
        {
            "type": "Feature",
            "properties": {
                "label:cs": "Pomník padlým ve Všenicích",
                "P31": "Pomník padlým",
                "P31^label:cs": "Pomník padlým",
                "P131^label:cs": "Všenice",
                "P6736": "4456"
            },
            "geometry": {
                "type": "Point",
                "coordinates": [
                    13.5611,
                    49.81759
                ]
            }
        },
        {
            "type": "Feature",
            "properties": {
                "label:cs": "Kaple ve Všenicích",
                "P31": "Kaple",
                "P31^label:cs": "Kaple",
                "P131^label:cs": "Všenice",
                "P6736": "4455"
            },
            "geometry": {
                "type": "Point",
                "coordinates": [
                    13.55931,
                    49.81889
                ]
            }
        },
        {
            "type": "Feature",
            "properties": {
                "label:cs": "Památník ve Stupnu",
                "P31": "Památník",
                "P31^label:cs": "Památník",
                "P131^label:cs": "Břasy",
                "P6736": "3827"
            },
            "geometry": {
                "type": "Point",
                "coordinates": [
                    13.57718,
                    49.81873
                ]
            }
        }
    ]
}