{"type":"FeatureCollection","features":[{"type":"Feature","properties":{"label:cs":"Kříž východně od Těchonic u rozcestí","P31":"http://www.wikidata.org/entity/Q2309609","P31^label:cs":"Pamětní kříž","P131^label:cs":"Nalžovské Hory","P6736":"10029"},"geometry":{"type":"Point","coordinates":[13.57509,49.36931]}},{"type":"Feature","properties":{"label:cs":"Kříž severně od Těchonic","P31":"http://www.wikidata.org/entity/Q2309609","P31^label:cs":"Pamětní kříž","P131^label:cs":"Nalžovské Hory","P6736":"10028"},"geometry":{"type":"Point","coordinates":[13.57112,49.37275]}},{"type":"Feature","properties":{"label:cs":"Kříž západně od Těchonic","P31":"http://www.wikidata.org/entity/Q2309609","P31^label:cs":"Pamětní kříž","P131^label:cs":"Nalžovské Hory","P6736":"10027"},"geometry":{"type":"Point","coordinates":[13.56771,49.37019]}},{"type":"Feature","properties":{"label:cs":"Kříž jihovýchodně od Žďáru","P31":"http://www.wikidata.org/entity/Q2309609","P31^label:cs":"Pamětní kříž","P131^label:cs":"Nalžovské Hory","P6736":"10026"},"geometry":{"type":"Point","coordinates":[13.56295,49.37409]}},{"type":"Feature","properties":{"label:cs":"Kříž východně od Žďáru","P31":"http://www.wikidata.org/entity/Q2309609","P31^label:cs":"Pamětní kříž","P131^label:cs":"Nalžovské Hory","P6736":"10022"},"geometry":{"type":"Point","coordinates":[13.55891,49.38137]}},{"type":"Feature","properties":{"label:cs":"Kříž východně od Žďáru u rybníků","P31":"http://www.wikidata.org/entity/Q2309609","P31^label:cs":"Pamětní kříž","P131^label:cs":"Nalžovské Hory","P6736":"2867"},"geometry":{"type":"Point","coordinates":[13.56514,49.38137]}}]}