{"type":"FeatureCollection","features":[{"type":"Feature","properties":{"label:cs":"Pamětní deska Miroslava Vopata v Černicích","P31":"http://www.wikidata.org/entity/Q721747","P31^label:cs":"Pamětní deska","P131^label:cs":"Černíkovice","P6736":"38864"},"geometry":{"type":"Point","coordinates":[13.56516,49.97427]}},{"type":"Feature","properties":{"label:cs":"Plastika v Černíkovicích","P31":"http://www.wikidata.org/entity/Q12045520","P31^label:cs":"Plastika","P131^label:cs":"Černíkovice","P6736":"38862"},"geometry":{"type":"Point","coordinates":[13.56518,49.9743]}},{"type":"Feature","properties":{"label:cs":"Kříž v Černíkovicích na komíně","P31":"http://www.wikidata.org/entity/Q2309609","P31^label:cs":"Pamětní kříž","P131^label:cs":"Černíkovice","P6736":"38860"},"geometry":{"type":"Point","coordinates":[13.56459,49.97349]}},{"type":"Feature","properties":{"label:cs":"Památka západně od Všehrd - nenalezeno","P31":"http://www.wikidata.org/entity/?","P31^label:cs":"Nenalezena","P131^label:cs":"Černíkovice","P6736":"35812"},"geometry":{"type":"Point","coordinates":[13.56558,49.96549]}},{"type":"Feature","properties":{"label:cs":"Pomník padlým v Černíkovicích","P31":"http://www.wikidata.org/entity/Q575759","P31^label:cs":"Pomník padlým","P131^label:cs":"Černíkovice","P6736":"5332"},"geometry":{"type":"Point","coordinates":[13.56639,49.97532]}},{"type":"Feature","properties":{"label:cs":"Kaple v Černíkovicích","P31":"http://www.wikidata.org/entity/Q108325","P31^label:cs":"Kaple","P131^label:cs":"Černíkovice","P6736":"5331"},"geometry":{"type":"Point","coordinates":[13.56643,49.97542]}},{"type":"Feature","properties":{"label:cs":"Kříž severně od Černíkovic","P31":"http://www.wikidata.org/entity/Q2309609","P31^label:cs":"Pamětní kříž","P131^label:cs":"Černíkovice","P6736":"5330"},"geometry":{"type":"Point","coordinates":[13.56718,49.97691]}}]}