{"type":"FeatureCollection","features":[{"type":"Feature","properties":{"label:cs":"Kaplička u silnice ze Staňkovic do Žatce","P31":"http://www.wikidata.org/entity/Q14552192","P31^label:cs":"Kaplička","P131^label:cs":"Staňkovice","P6736":"30816"},"geometry":{"type":"Point","coordinates":[13.56562,50.34687]}},{"type":"Feature","properties":{"label:cs":"Socha Panny Marie na návsi ve Staňkovicích","P31":"http://www.wikidata.org/entity/Q179700","P31^label:cs":"Socha","P131^label:cs":"Staňkovice","P6736":"30817"},"geometry":{"type":"Point","coordinates":[13.57074,50.34952]}},{"type":"Feature","properties":{"label:cs":"Pomník padlým na návsi ve Staňkovicích","P31":"http://www.wikidata.org/entity/Q575759","P31^label:cs":"Pomník padlým","P131^label:cs":"Staňkovice","P6736":"30818"},"geometry":{"type":"Point","coordinates":[13.571,50.34935]}},{"type":"Feature","properties":{"label:cs":"Socha svatého Jana Nepomuckého v Postoloprtské ulici v Staňkovicích","P31":"http://www.wikidata.org/entity/Q179700","P31^label:cs":"Socha","P131^label:cs":"Staňkovice","P6736":"30819"},"geometry":{"type":"Point","coordinates":[13.57263,50.35093]}},{"type":"Feature","properties":{"label:cs":"Socha Krista v Kostelní ulici ve Staňkovicích","P31":"http://www.wikidata.org/entity/Q179700","P31^label:cs":"Socha","P131^label:cs":"Staňkovice","P6736":"30820"},"geometry":{"type":"Point","coordinates":[13.5734,50.35009]}}]}