{"type":"FeatureCollection","features":[{"type":"Feature","properties":{"label:cs":"Socha Olbrama Zoubka Vítejte v Rokycanech","P31":"http://www.wikidata.org/entity/Q179700","P31^label:cs":"Socha","P131^label:cs":"Rokycany","P6736":"19808"},"geometry":{"type":"Point","coordinates":[13.59522,49.74177]}},{"type":"Feature","properties":{"label:cs":"Kašna na náměstí v Rokycanech","P31":"http://www.wikidata.org/entity/Q12029081","P31^label:cs":"Kašna","P131^label:cs":"Rokycany","P6736":"19807"},"geometry":{"type":"Point","coordinates":[13.59539,49.74262]}},{"type":"Feature","properties":{"label:cs":"Pamětní deska J. Strankmüllera v Rokycanech","P31":"http://www.wikidata.org/entity/Q721747","P31^label:cs":"Pamětní deska","P131^label:cs":"Rokycany","P6736":"19806"},"geometry":{"type":"Point","coordinates":[13.59239,49.74274]}},{"type":"Feature","properties":{"label:cs":"Pamětní deska mistra Jana z Rokycan v Rokycanech na radnici","P31":"http://www.wikidata.org/entity/Q721747","P31^label:cs":"Pamětní deska","P131^label:cs":"Rokycany","P6736":"19805"},"geometry":{"type":"Point","coordinates":[13.59551,49.74229]}},{"type":"Feature","properties":{"label:cs":"Pamětní deska osvobození americkou armádou v Rokycanech","P31":"http://www.wikidata.org/entity/Q721747","P31^label:cs":"Pamětní deska","P131^label:cs":"Rokycany","P6736":"19804"},"geometry":{"type":"Point","coordinates":[13.5957,49.74224]}},{"type":"Feature","properties":{"label:cs":"Pomník obětem z let 1939-1945 v Rokycanech","P31":"http://www.wikidata.org/entity/Q575759","P31^label:cs":"Pomník padlým","P131^label:cs":"Rokycany","P6736":"19791"},"geometry":{"type":"Point","coordinates":[13.5983,49.73949]}},{"type":"Feature","properties":{"label:cs":"Pamětní deska mistra Jana z Rokycan v Rokycanech","P31":"http://www.wikidata.org/entity/Q721747","P31^label:cs":"Pamětní deska","P131^label:cs":"Rokycany","P6736":"19090"},"geometry":{"type":"Point","coordinates":[13.59905,49.7424]}},{"type":"Feature","properties":{"label:cs":"Pamětní deska A. Krafta v Rokycanech","P31":"http://www.wikidata.org/entity/Q721747","P31^label:cs":"Pamětní deska","P131^label:cs":"Rokycany","P6736":"19087"},"geometry":{"type":"Point","coordinates":[13.5975,49.74239]}},{"type":"Feature","properties":{"label:cs":"Centrální kříž na hřbitově v Rokycanech","P31":"http://www.wikidata.org/entity/Q2309609","P31^label:cs":"Pamětní kříž","P131^label:cs":"Rokycany","P6736":"18127"},"geometry":{"type":"Point","coordinates":[13.58275,49.75043]}},{"type":"Feature","properties":{"label:cs":"Fitzova kašna v Rokycanech","P31":"http://www.wikidata.org/entity/Q12029081","P31^label:cs":"Kašna","P131^label:cs":"Rokycany","P6736":"14860"},"geometry":{"type":"Point","coordinates":[13.59222,49.74125]}},{"type":"Feature","properties":{"label:cs":"Kamenný podstavec v Rokycanech","P31":"http://www.wikidata.org/entity/?","P31^label:cs":"Neznámý","P131^label:cs":"Rokycany","P6736":"14859"},"geometry":{"type":"Point","coordinates":[13.59136,49.74068]}},{"type":"Feature","properties":{"label:cs":"Pomník obětem I. světové války v Rokycanech","P31":"http://www.wikidata.org/entity/Q575759","P31^label:cs":"Pomník padlým","P131^label:cs":"Rokycany","P6736":"14858"},"geometry":{"type":"Point","coordinates":[13.59184,49.74096]}},{"type":"Feature","properties":{"label:cs":"Pamětní deska R. Zamrzly v Rokycanech","P31":"http://www.wikidata.org/entity/Q721747","P31^label:cs":"Pamětní deska","P131^label:cs":"Rokycany","P6736":"14857"},"geometry":{"type":"Point","coordinates":[13.59305,49.7418]}},{"type":"Feature","properties":{"label:cs":"Kříž v Rokycanech u Litohlavské ulice","P31":"http://www.wikidata.org/entity/Q2309609","P31^label:cs":"Pamětní kříž","P131^label:cs":"Rokycany","P6736":"5146"},"geometry":{"type":"Point","coordinates":[13.58971,49.7454]}},{"type":"Feature","properties":{"label:cs":"Socha v Rokycanech u Třebízského ulice","P31":"http://www.wikidata.org/entity/Q179700","P31^label:cs":"Socha","P131^label:cs":"Rokycany","P6736":"5144"},"geometry":{"type":"Point","coordinates":[13.5924,49.74446]}},{"type":"Feature","properties":{"label:cs":"Kašna v Rokycanech ve Smetanově ulici","P31":"http://www.wikidata.org/entity/Q12029081","P31^label:cs":"Kašna","P131^label:cs":"Rokycany","P6736":"5143"},"geometry":{"type":"Point","coordinates":[13.59322,49.74363]}},{"type":"Feature","properties":{"label:cs":"Socha svatého Jana Nepomuckého v Rokycanech u Klabavy","P31":"http://www.wikidata.org/entity/Q179700","P31^label:cs":"Socha","P131^label:cs":"Rokycany","P6736":"4604"},"geometry":{"type":"Point","coordinates":[13.60025,49.74109]}},{"type":"Feature","properties":{"label:cs":"Socha svatého Jana Nepomuckého v Rokycanech","P31":"http://www.wikidata.org/entity/Q179700","P31^label:cs":"Socha","P131^label:cs":"Rokycany","P6736":"4603"},"geometry":{"type":"Point","coordinates":[13.5982,49.74141]}},{"type":"Feature","properties":{"label:cs":"Mariánský sloup v Rokycanech","P31":"http://www.wikidata.org/entity/Q4817","P31^label:cs":"Sloup","P131^label:cs":"Rokycany","P6736":"4601"},"geometry":{"type":"Point","coordinates":[13.5962,49.7425]}},{"type":"Feature","properties":{"label:cs":"Památník v Rokycanech v Jiráskově ulici","P31":"http://www.wikidata.org/entity/Q5003624","P31^label:cs":"Památník","P131^label:cs":"Rokycany","P6736":"4600"},"geometry":{"type":"Point","coordinates":[13.59102,49.74224]}},{"type":"Feature","properties":{"label:cs":"Kříž v Rokycanech u kostela Nejsvětější trojice","P31":"http://www.wikidata.org/entity/Q2309609","P31^label:cs":"Pamětní kříž","P131^label:cs":"Rokycany","P6736":"4599"},"geometry":{"type":"Point","coordinates":[13.58967,49.74187]}},{"type":"Feature","properties":{"label:cs":"Kaplička v Rokycanech u Rokycanovy ulice","P31":"http://www.wikidata.org/entity/Q14552192","P31^label:cs":"Kaplička","P131^label:cs":"Rokycany","P6736":"4261"},"geometry":{"type":"Point","coordinates":[13.59879,49.74267]}},{"type":"Feature","properties":{"label:cs":"Kaple v Rokycanech v ulici Josefa Tomáška","P31":"http://www.wikidata.org/entity/Q108325","P31^label:cs":"Kaple","P131^label:cs":"Rokycany","P6736":"4260"},"geometry":{"type":"Point","coordinates":[13.59832,49.74614]}},{"type":"Feature","properties":{"label:cs":"Pomník padlým v Rokycanech","P31":"http://www.wikidata.org/entity/Q575759","P31^label:cs":"Pomník padlým","P131^label:cs":"Rokycany","P6736":"4259"},"geometry":{"type":"Point","coordinates":[13.59252,49.74112]}},{"type":"Feature","properties":{"label:cs":"Boží muka na křížové cestě v Rokycanech - 4. zastavení","P31":"http://www.wikidata.org/entity/Q3395121","P31^label:cs":"Boží muka","P131^label:cs":"Rokycany","P6736":"4248"},"geometry":{"type":"Point","coordinates":[13.60091,49.74698]}},{"type":"Feature","properties":{"label:cs":"Boží muka na křížové cestě v Rokycanech - 3. zastavení","P31":"http://www.wikidata.org/entity/Q3395121","P31^label:cs":"Boží muka","P131^label:cs":"Rokycany","P6736":"4247"},"geometry":{"type":"Point","coordinates":[13.60088,49.74681]}},{"type":"Feature","properties":{"label:cs":"Boží muka na křížové cestě v Rokycanech - 2. zastavení","P31":"http://www.wikidata.org/entity/Q3395121","P31^label:cs":"Boží muka","P131^label:cs":"Rokycany","P6736":"4246"},"geometry":{"type":"Point","coordinates":[13.60069,49.74685]}},{"type":"Feature","properties":{"label:cs":"Boží muka na křížové cestě v Rokycanech - 1. zastavení","P31":"http://www.wikidata.org/entity/Q3395121","P31^label:cs":"Boží muka","P131^label:cs":"Rokycany","P6736":"4245"},"geometry":{"type":"Point","coordinates":[13.60032,49.74675]}}]}