{"type":"FeatureCollection","features":[{"type":"Feature","properties":{"label:cs":"Kříž severně od Srb","P31":"http://www.wikidata.org/entity/Q2309609","P31^label:cs":"Pamětní kříž","P131^label:cs":"Srby","P6736":"7495"},"geometry":{"type":"Point","coordinates":[13.60402,49.52164]}},{"type":"Feature","properties":{"label:cs":"Kříž severně od Vrčně u rozcestí","P31":"http://www.wikidata.org/entity/Q2309609","P31^label:cs":"Pamětní kříž","P131^label:cs":"Vrčeň","P6736":"7426"},"geometry":{"type":"Point","coordinates":[13.62213,49.5131]}},{"type":"Feature","properties":{"label:cs":"Kříž jižně od Srb","P31":"http://www.wikidata.org/entity/Q2309609","P31^label:cs":"Pamětní kříž","P131^label:cs":"Srby","P6736":"4980"},"geometry":{"type":"Point","coordinates":[13.60439,49.51442]}},{"type":"Feature","properties":{"label:cs":"Kříž v Srbech u křižovatky","P31":"http://www.wikidata.org/entity/Q2309609","P31^label:cs":"Pamětní kříž","P131^label:cs":"Srby","P6736":"4979"},"geometry":{"type":"Point","coordinates":[13.60317,49.51887]}},{"type":"Feature","properties":{"label:cs":"Pomník padlým v Srbech","P31":"http://www.wikidata.org/entity/Q575759","P31^label:cs":"Pomník padlým","P131^label:cs":"Srby","P6736":"4962"},"geometry":{"type":"Point","coordinates":[13.60388,49.51925]}},{"type":"Feature","properties":{"label:cs":"Kříž u kaple v Srbech","P31":"http://www.wikidata.org/entity/Q2309609","P31^label:cs":"Pamětní kříž","P131^label:cs":"Srby","P6736":"4961"},"geometry":{"type":"Point","coordinates":[13.60394,49.51929]}},{"type":"Feature","properties":{"label:cs":"Kaple v Srbech","P31":"http://www.wikidata.org/entity/Q108325","P31^label:cs":"Kaple","P131^label:cs":"Srby","P6736":"4960"},"geometry":{"type":"Point","coordinates":[13.604,49.51936]}}]}