{"type":"FeatureCollection","features":[{"type":"Feature","properties":{"label:cs":"Pomník padlým ve Veselé","P31":"Q575759","P31^label:cs":"Pomník padlým","P131^label:cs":"Veselá","P6736":"5123"},"geometry":{"type":"Point","coordinates":[13.60265,49.69489]}},{"type":"Feature","properties":{"label:cs":"Kaple v Nevidu","P31":"Q108325","P31^label:cs":"Kaple","P131^label:cs":"Nevid","P6736":"5031"},"geometry":{"type":"Point","coordinates":[13.6064,49.68576]}},{"type":"Feature","properties":{"label:cs":"Pomník padlým v Nevidu","P31":"Q575759","P31^label:cs":"Pomník padlým","P131^label:cs":"Nevid","P6736":"5030"},"geometry":{"type":"Point","coordinates":[13.60482,49.68472]}},{"type":"Feature","properties":{"label:cs":"Kříž u kaple ve Veselé","P31":"Q2309609","P31^label:cs":"Pamětní kříž","P131^label:cs":"Veselá","P6736":"5004"},"geometry":{"type":"Point","coordinates":[13.60306,49.69519]}},{"type":"Feature","properties":{"label:cs":"Kaple ve Veselé","P31":"Q108325","P31^label:cs":"Kaple","P131^label:cs":"Veselá","P6736":"4289"},"geometry":{"type":"Point","coordinates":[13.60306,49.69519]}},{"type":"Feature","properties":{"label:cs":"Kříž u rybníka východně od Veselé","P31":"Q2309609","P31^label:cs":"Pamětní kříž","P131^label:cs":"Nevid","P6736":"2167"},"geometry":{"type":"Point","coordinates":[13.60982,49.69552]}}]}