{"type":"FeatureCollection","features":[{"type":"Feature","properties":{"label:cs":"Kaple ve Dvorci","P31":"http://www.wikidata.org/entity/Q108325","P31^label:cs":"Kaple","P131^label:cs":"Nepomuk","P6736":"4959"},"geometry":{"type":"Point","coordinates":[13.60945,49.50269]}},{"type":"Feature","properties":{"label:cs":"Socha svaté Barbory ve Dvorci","P31":"http://www.wikidata.org/entity/Q179700","P31^label:cs":"Socha","P131^label:cs":"Nepomuk","P6736":"4981"},"geometry":{"type":"Point","coordinates":[13.61003,49.50337]}},{"type":"Feature","properties":{"label:cs":"Plastika u vlakového nádraží Nepomuk","P31":"http://www.wikidata.org/entity/Q12045520","P31^label:cs":"Plastika","P131^label:cs":"Nepomuk","P6736":"7350"},"geometry":{"type":"Point","coordinates":[13.60786,49.49773]}},{"type":"Feature","properties":{"label:cs":"Plastika ve Dvorci u dráhy","P31":"http://www.wikidata.org/entity/Q12045520","P31^label:cs":"Plastika","P131^label:cs":"Nepomuk","P6736":"7351"},"geometry":{"type":"Point","coordinates":[13.60755,49.49992]}},{"type":"Feature","properties":{"label:cs":"Kříž ve Dvorci u křižovatky","P31":"http://www.wikidata.org/entity/Q2309609","P31^label:cs":"Pamětní kříž","P131^label:cs":"Nepomuk","P6736":"7352"},"geometry":{"type":"Point","coordinates":[13.60851,49.50104]}},{"type":"Feature","properties":{"label:cs":"Plastika ve Dvorci v ulici U Trati","P31":"http://www.wikidata.org/entity/Q12045520","P31^label:cs":"Plastika","P131^label:cs":"Nepomuk","P6736":"7657"},"geometry":{"type":"Point","coordinates":[13.60775,49.4981]}},{"type":"Feature","properties":{"label:cs":"Plastika ve Dvorci v Rožmitálské ulici","P31":"http://www.wikidata.org/entity/Q12045520","P31^label:cs":"Plastika","P131^label:cs":"Nepomuk","P6736":"8519"},"geometry":{"type":"Point","coordinates":[13.60443,49.49817]}},{"type":"Feature","properties":{"label:cs":"Socha svatého Jana Nepomuckého jihozápadně od Vrčně","P31":"http://www.wikidata.org/entity/Q179700","P31^label:cs":"Socha","P131^label:cs":"Vrčeň","P6736":"7419"},"geometry":{"type":"Point","coordinates":[13.61357,49.50434]}},{"type":"Feature","properties":{"label:cs":"Kříž západně od Vrčně","P31":"http://www.wikidata.org/entity/Q2309609","P31^label:cs":"Pamětní kříž","P131^label:cs":"Vrčeň","P6736":"7420"},"geometry":{"type":"Point","coordinates":[13.61505,49.50534]}},{"type":"Feature","properties":{"label:cs":"Socha biskupa ve Vrčni","P31":"http://www.wikidata.org/entity/Q179700","P31^label:cs":"Socha","P131^label:cs":"Vrčeň","P6736":"7421"},"geometry":{"type":"Point","coordinates":[13.61715,49.50722]}},{"type":"Feature","properties":{"label:cs":"Socha panny Marie ve Vrčni","P31":"http://www.wikidata.org/entity/Q179700","P31^label:cs":"Socha","P131^label:cs":"Vrčeň","P6736":"7422"},"geometry":{"type":"Point","coordinates":[13.61879,49.50758]}},{"type":"Feature","properties":{"label:cs":"Pomník padlým ve Vrčni","P31":"http://www.wikidata.org/entity/Q575759","P31^label:cs":"Pomník padlým","P131^label:cs":"Vrčeň","P6736":"7423"},"geometry":{"type":"Point","coordinates":[13.61903,49.50775]}},{"type":"Feature","properties":{"label:cs":"Socha svatého Jana Nepomuckého ve Vrčni","P31":"http://www.wikidata.org/entity/Q179700","P31^label:cs":"Socha","P131^label:cs":"Vrčeň","P6736":"7424"},"geometry":{"type":"Point","coordinates":[13.61948,49.50813]}},{"type":"Feature","properties":{"label:cs":"Socha svatého Vojtěcha ve Vrčni","P31":"http://www.wikidata.org/entity/Q179700","P31^label:cs":"Socha","P131^label:cs":"Vrčeň","P6736":"7425"},"geometry":{"type":"Point","coordinates":[13.62185,49.50931]}},{"type":"Feature","properties":{"label:cs":"Kříž před kostelem ve Vrčni","P31":"http://www.wikidata.org/entity/Q2309609","P31^label:cs":"Pamětní kříž","P131^label:cs":"Vrčeň","P6736":"7428"},"geometry":{"type":"Point","coordinates":[13.61942,49.50727]}},{"type":"Feature","properties":{"label:cs":"Kříž jižně od Vrčně","P31":"http://www.wikidata.org/entity/Q2309609","P31^label:cs":"Pamětní kříž","P131^label:cs":"Vrčeň","P6736":"7429"},"geometry":{"type":"Point","coordinates":[13.62217,49.5051]}},{"type":"Feature","properties":{"label:cs":"Památník restitucí ve Vrčni","P31":"http://www.wikidata.org/entity/Q5003624","P31^label:cs":"Památník","P131^label:cs":"Vrčeň","P6736":"7430"},"geometry":{"type":"Point","coordinates":[13.61995,49.506]}},{"type":"Feature","properties":{"label:cs":"Kříž jižně od Vrčeně","P31":"http://www.wikidata.org/entity/Q2309609","P31^label:cs":"Pamětní kříž","P131^label:cs":"Vrčeň","P6736":"23108"},"geometry":{"type":"Point","coordinates":[13.62267,49.50087]}}]}