{"type":"FeatureCollection","features":[{"type":"Feature","properties":{"label:cs":"Kříž západně od Milčic u rozcestí","P31":"Pamětní kříž","P31^label:cs":"Pamětní kříž","P131^label:cs":"Myslív","P6736":"5958"},"geometry":{"type":"Point","coordinates":[13.60292,49.41081]}},{"type":"Feature","properties":{"label:cs":"Kaple v Milčicích","P31":"Kaple","P31^label:cs":"Kaple","P131^label:cs":"Myslív","P6736":"5957"},"geometry":{"type":"Point","coordinates":[13.60511,49.41078]}},{"type":"Feature","properties":{"label:cs":"Kříž v Milčicích u kaple","P31":"Pamětní kříž","P31^label:cs":"Pamětní kříž","P131^label:cs":"Myslív","P6736":"5956"},"geometry":{"type":"Point","coordinates":[13.60512,49.41074]}},{"type":"Feature","properties":{"label:cs":"Kříž v Milčicích v zahradě","P31":"Pamětní kříž","P31^label:cs":"Pamětní kříž","P131^label:cs":"Myslív","P6736":"5955"},"geometry":{"type":"Point","coordinates":[13.60667,49.40788]}},{"type":"Feature","properties":{"label:cs":"Kříž v Milčicích u zemědělského areálu","P31":"Pamětní kříž","P31^label:cs":"Pamětní kříž","P131^label:cs":"Myslív","P6736":"5954"},"geometry":{"type":"Point","coordinates":[13.60878,49.40764]}},{"type":"Feature","properties":{"label:cs":"Kříž východně od Milčic","P31":"Pamětní kříž","P31^label:cs":"Pamětní kříž","P131^label:cs":"Myslív","P6736":"5953"},"geometry":{"type":"Point","coordinates":[13.61004,49.40755]}},{"type":"Feature","properties":{"label:cs":"Kříž v Milčicích u rybníka","P31":"Pamětní kříž","P31^label:cs":"Pamětní kříž","P131^label:cs":"Myslív","P6736":"5952"},"geometry":{"type":"Point","coordinates":[13.60461,49.40754]}},{"type":"Feature","properties":{"label:cs":"Kříž severně od Olšan-Nádraží","P31":"Pamětní kříž","P31^label:cs":"Pamětní kříž","P131^label:cs":"Olšany","P6736":"5951"},"geometry":{"type":"Point","coordinates":[13.61826,49.3975]}},{"type":"Feature","properties":{"label:cs":"Kříž jihozápadně od Olšan u křižovatky","P31":"Pamětní kříž","P31^label:cs":"Pamětní kříž","P131^label:cs":"Olšany","P6736":"5949"},"geometry":{"type":"Point","coordinates":[13.62231,49.40032]}}]}