{"type":"FeatureCollection","features":[{"type":"Feature","properties":{"label:cs":"Kaplička v farní zahradě v Liběšicích","P31":"http://www.wikidata.org/entity/Q14552192","P31^label:cs":"Kaplička","P131^label:cs":"Liběšice","P6736":"37424"},"geometry":{"type":"Point","coordinates":[13.62275,50.29374]}},{"type":"Feature","properties":{"label:cs":"Socha svatého Petra u kostela v Liběšicích","P31":"http://www.wikidata.org/entity/Q179700","P31^label:cs":"Socha","P131^label:cs":"Liběšice","P6736":"37423"},"geometry":{"type":"Point","coordinates":[13.62171,50.29315]}},{"type":"Feature","properties":{"label:cs":"Socha svatého Pavla u kostela v Liběšicích","P31":"http://www.wikidata.org/entity/Q179700","P31^label:cs":"Socha","P131^label:cs":"Liběšice","P6736":"37422"},"geometry":{"type":"Point","coordinates":[13.62176,50.29311]}},{"type":"Feature","properties":{"label:cs":"Socha svatého Jana Evangelisty u kostela v Liběšicích","P31":"http://www.wikidata.org/entity/Q179700","P31^label:cs":"Socha","P131^label:cs":"Liběšice","P6736":"37421"},"geometry":{"type":"Point","coordinates":[13.62179,50.29308]}},{"type":"Feature","properties":{"label:cs":"Socha svatého Antonína Paduánského u kostela v Liběšicích","P31":"http://www.wikidata.org/entity/Q179700","P31^label:cs":"Socha","P131^label:cs":"Liběšice","P6736":"37420"},"geometry":{"type":"Point","coordinates":[13.62183,50.29303]}},{"type":"Feature","properties":{"label:cs":"Pomník padlým na návsi v Liběšicích u Žatce","P31":"http://www.wikidata.org/entity/Q575759","P31^label:cs":"Pomník padlým","P131^label:cs":"Liběšice","P6736":"37419"},"geometry":{"type":"Point","coordinates":[13.6222,50.29357]}},{"type":"Feature","properties":{"label:cs":"Socha svatého Floriána na bráně do farní zahrady v Liběšicích u Žatce","P31":"http://www.wikidata.org/entity/Q179700","P31^label:cs":"Socha","P131^label:cs":"Liběšice","P6736":"37418"},"geometry":{"type":"Point","coordinates":[13.62241,50.29374]}}]}