{"type":"FeatureCollection","features":[{"type":"Feature","properties":{"label:cs":"Kříž jižně od Kvášňovic","P31":"http://www.wikidata.org/entity/Q2309609","P31^label:cs":"Pamětní kříž","P131^label:cs":"Kovčín","P6736":"5941"},"geometry":{"type":"Point","coordinates":[13.64198,49.40818]}},{"type":"Feature","properties":{"label:cs":"Kříž východně od Olšan u rozcestí","P31":"http://www.wikidata.org/entity/Q2309609","P31^label:cs":"Pamětní kříž","P131^label:cs":"Olšany","P6736":"5942"},"geometry":{"type":"Point","coordinates":[13.63706,49.40307]}},{"type":"Feature","properties":{"label:cs":"Kříž východně od Olšan","P31":"http://www.wikidata.org/entity/Q2309609","P31^label:cs":"Pamětní kříž","P131^label:cs":"Olšany","P6736":"5943"},"geometry":{"type":"Point","coordinates":[13.63098,49.40108]}},{"type":"Feature","properties":{"label:cs":"Kříž v Olšanech v zahradě","P31":"http://www.wikidata.org/entity/Q2309609","P31^label:cs":"Pamětní kříž","P131^label:cs":"Olšany","P6736":"5944"},"geometry":{"type":"Point","coordinates":[13.62868,49.40091]}},{"type":"Feature","properties":{"label:cs":"Kříž v Olšanech u kaple","P31":"http://www.wikidata.org/entity/Q2309609","P31^label:cs":"Pamětní kříž","P131^label:cs":"Olšany","P6736":"5945"},"geometry":{"type":"Point","coordinates":[13.62702,49.40094]}},{"type":"Feature","properties":{"label:cs":"Kaple v Olšanech","P31":"http://www.wikidata.org/entity/Q108325","P31^label:cs":"Kaple","P131^label:cs":"Olšany","P6736":"5946"},"geometry":{"type":"Point","coordinates":[13.62709,49.40092]}},{"type":"Feature","properties":{"label:cs":"Pomník padlým v Olšanech","P31":"http://www.wikidata.org/entity/Q575759","P31^label:cs":"Pomník padlým","P131^label:cs":"Olšany","P6736":"5947"},"geometry":{"type":"Point","coordinates":[13.62616,49.40086]}},{"type":"Feature","properties":{"label:cs":"Boží muka v Olšanech","P31":"http://www.wikidata.org/entity/Q3395121","P31^label:cs":"Boží muka","P131^label:cs":"Olšany","P6736":"5948"},"geometry":{"type":"Point","coordinates":[13.62522,49.40086]}}]}