{"type":"FeatureCollection","features":[{"type":"Feature","properties":{"label:cs":"Kříž u rozcestí ve Chlumech","P31":"Pamětní kříž","P31^label:cs":"Pamětní kříž","P131^label:cs":"Chlumy","P6736":"7448"},"geometry":{"type":"Point","coordinates":[13.63835,49.43715]}},{"type":"Feature","properties":{"label:cs":"Kříž u kaple ve Chlumech","P31":"Pamětní kříž","P31^label:cs":"Pamětní kříž","P131^label:cs":"Chlumy","P6736":"7447"},"geometry":{"type":"Point","coordinates":[13.63781,49.43776]}},{"type":"Feature","properties":{"label:cs":"Kaple ve Chlumech","P31":"Kaple","P31^label:cs":"Kaple","P131^label:cs":"Chlumy","P6736":"7446"},"geometry":{"type":"Point","coordinates":[13.63782,49.4379]}},{"type":"Feature","properties":{"label:cs":"Pomník padlým ve Chlumech","P31":"Pomník padlým","P31^label:cs":"Pomník padlým","P131^label:cs":"Chlumy","P6736":"7445"},"geometry":{"type":"Point","coordinates":[13.63628,49.43751]}},{"type":"Feature","properties":{"label:cs":"Kříž severně od Nekvasov","P31":"Pamětní kříž","P31^label:cs":"Pamětní kříž","P131^label:cs":"Nekvasovy","P6736":"7349"},"geometry":{"type":"Point","coordinates":[13.62507,49.43121]}},{"type":"Feature","properties":{"label:cs":"Kaple severně od Nekvasov","P31":"Kaple","P31^label:cs":"Kaple","P131^label:cs":"Nekvasovy","P6736":"7348"},"geometry":{"type":"Point","coordinates":[13.62629,49.4297]}},{"type":"Feature","properties":{"label:cs":"Památník husitů v Nekvasovech","P31":"Památník","P31^label:cs":"Památník","P131^label:cs":"Nekvasovy","P6736":"5971"},"geometry":{"type":"Point","coordinates":[13.62437,49.43526]}},{"type":"Feature","properties":{"label:cs":"Kříž v Nekvasovech u zastávky","P31":"Pamětní kříž","P31^label:cs":"Pamětní kříž","P131^label:cs":"Nekvasovy","P6736":"4010"},"geometry":{"type":"Point","coordinates":[13.62315,49.43591]}}]}