{"type":"FeatureCollection","features":[{"type":"Feature","properties":{"label:cs":"Socha Českého lva u Magistrátu v Mostě","P31":"Q179700","P31^label:cs":"Socha","P131^label:cs":"Most","P6736":"19946"},"geometry":{"type":"Point","coordinates":[13.64033,50.50325]}},{"type":"Feature","properties":{"label:cs":"Keramické plastiky v atriu Magistrátu v Mostě","P31":"Q12045520","P31^label:cs":"Plastika","P131^label:cs":"Most","P6736":"19945"},"geometry":{"type":"Point","coordinates":[13.64077,50.50284]}},{"type":"Feature","properties":{"label:cs":"Středověká křtitelnice v atriu Magistrátu v Mostě","P31":"?","P31^label:cs":"Něco jiného","P131^label:cs":"Most","P6736":"19944"},"geometry":{"type":"Point","coordinates":[13.64078,50.5029]}},{"type":"Feature","properties":{"label:cs":"Kamenná plastika Vegetace v ulici Československé Armády v Mostě","P31":"Q12045520","P31^label:cs":"Plastika","P131^label:cs":"Most","P6736":"19468"},"geometry":{"type":"Point","coordinates":[13.63695,50.51291]}},{"type":"Feature","properties":{"label:cs":"Socha svatého Prokopa v ulici Prokopa Holého v Mostě","P31":"Q179700","P31^label:cs":"Socha","P131^label:cs":"Most","P6736":"19467"},"geometry":{"type":"Point","coordinates":[13.63104,50.51221]}},{"type":"Feature","properties":{"label:cs":"Socha Dialog v parku nad sportovní halou v Mostě","P31":"Q179700","P31^label:cs":"Socha","P131^label:cs":"Most","P6736":"19466"},"geometry":{"type":"Point","coordinates":[13.64291,50.50846]}},{"type":"Feature","properties":{"label:cs":"Dioritová plastika Biologické těleso v parku nad sportovní halou v Mostě","P31":"Q12045520","P31^label:cs":"Plastika","P131^label:cs":"Most","P6736":"19465"},"geometry":{"type":"Point","coordinates":[13.64367,50.50849]}},{"type":"Feature","properties":{"label:cs":"Kamenná plastika Spolu v parku nad sportovní halou v Mostě","P31":"Q12045520","P31^label:cs":"Plastika","P131^label:cs":"Most","P6736":"19464"},"geometry":{"type":"Point","coordinates":[13.64208,50.50821]}},{"type":"Feature","properties":{"label:cs":"Keramická plastika Mušle v parku v ulici Josefa Skupy v Mostě","P31":"Q12045520","P31^label:cs":"Plastika","P131^label:cs":"Most","P6736":"19463"},"geometry":{"type":"Point","coordinates":[13.64015,50.50629]}},{"type":"Feature","properties":{"label:cs":"Kamenná plastika Múza před divadlem v Mostě","P31":"Q12045520","P31^label:cs":"Plastika","P131^label:cs":"Most","P6736":"18505"},"geometry":{"type":"Point","coordinates":[13.64138,50.50195]}},{"type":"Feature","properties":{"label:cs":"Kamenná plastika Ementál na Třídě Budovatelů v Mostě","P31":"Q12045520","P31^label:cs":"Plastika","P131^label:cs":"Most","P6736":"18504"},"geometry":{"type":"Point","coordinates":[13.63901,50.50358]}},{"type":"Feature","properties":{"label:cs":"Pomník Mostecké stávky 1932 v ulici Slovenského Národního Povstání v Mostě","P31":"Q4989906","P31^label:cs":"Pomník","P131^label:cs":"Most","P6736":"18467"},"geometry":{"type":"Point","coordinates":[13.62378,50.51204]}},{"type":"Feature","properties":{"label:cs":"Pomník Mostecké stávky 1920 v ulici Slovenského Národního Povstání v Mostě","P31":"Q4989906","P31^label:cs":"Pomník","P131^label:cs":"Most","P6736":"18466"},"geometry":{"type":"Point","coordinates":[13.62398,50.51201]}},{"type":"Feature","properties":{"label:cs":"Socha Splynutí v ulici Jaroslava Seiferta v Mostě","P31":"Q179700","P31^label:cs":"Socha","P131^label:cs":"Most","P6736":"17067"},"geometry":{"type":"Point","coordinates":[13.64251,50.51101]}},{"type":"Feature","properties":{"label:cs":"Kamenná plastika u sportovní haly v Mostě","P31":"Q12045520","P31^label:cs":"Plastika","P131^label:cs":"Most","P6736":"17066"},"geometry":{"type":"Point","coordinates":[13.64303,50.50989]}},{"type":"Feature","properties":{"label:cs":"Socha svaté Anny přemístěná z Chanova na hřbitově v Mostě","P31":"Q179700","P31^label:cs":"Socha","P131^label:cs":"Most","P6736":"16022"},"geometry":{"type":"Point","coordinates":[13.62783,50.50161]}},{"type":"Feature","properties":{"label:cs":"Kašna s lachtanem před nemocnicí v Mostě","P31":"Q12029081","P31^label:cs":"Kašna","P131^label:cs":"Most","P6736":"15973"},"geometry":{"type":"Point","coordinates":[13.62746,50.50802]}},{"type":"Feature","properties":{"label:cs":"Socha ležící ženy v zahradě zdravotnické školy v Mostě","P31":"Q179700","P31^label:cs":"Socha","P131^label:cs":"Most","P6736":"15972"},"geometry":{"type":"Point","coordinates":[13.63204,50.507]}},{"type":"Feature","properties":{"label:cs":"Socha dívky se psem na kruhovém objezdu v Žatecké ulici v Mostě","P31":"Q179700","P31^label:cs":"Socha","P131^label:cs":"Most","P6736":"15971"},"geometry":{"type":"Point","coordinates":[13.6338,50.50677]}},{"type":"Feature","properties":{"label:cs":"Pomník padlým rudoarmějcům na hřbitově v Mostě","P31":"Q575759","P31^label:cs":"Pomník padlým","P131^label:cs":"Most","P6736":"15965"},"geometry":{"type":"Point","coordinates":[13.6267,50.50216]}},{"type":"Feature","properties":{"label:cs":"Pomník obětem důlního neštěstí na dole Maršál Koněv 1963 na hřbitově v Mostě","P31":"Q4989906","P31^label:cs":"Pomník","P131^label:cs":"Most","P6736":"15964"},"geometry":{"type":"Point","coordinates":[13.62768,50.50208]}},{"type":"Feature","properties":{"label:cs":"Kříž od Vršan na hřbitově v Mostě","P31":"Q2309609","P31^label:cs":"Pamětní kříž","P131^label:cs":"Most","P6736":"15963"},"geometry":{"type":"Point","coordinates":[13.62759,50.50172]}},{"type":"Feature","properties":{"label:cs":"Kašna u Městského divadla v Mostě","P31":"Q12029081","P31^label:cs":"Kašna","P131^label:cs":"Most","P6736":"15943"},"geometry":{"type":"Point","coordinates":[13.64144,50.50179]}},{"type":"Feature","properties":{"label:cs":"Pomník popravených válečných zajatců z tábora Stalag na hřbitově v Mostě","P31":"Q575759","P31^label:cs":"Pomník padlým","P131^label:cs":"Most","P6736":"15942"},"geometry":{"type":"Point","coordinates":[13.62634,50.50108]}},{"type":"Feature","properties":{"label:cs":"Pomník zemřelých italských zajatců z 1.světové války na hřbitově v Mostě","P31":"Q575759","P31^label:cs":"Pomník padlým","P131^label:cs":"Most","P6736":"15941"},"geometry":{"type":"Point","coordinates":[13.62653,50.50135]}},{"type":"Feature","properties":{"label:cs":"Boží muka na hřbitově v Mostě","P31":"Q3395121","P31^label:cs":"Boží muka","P131^label:cs":"Most","P6736":"15939"},"geometry":{"type":"Point","coordinates":[13.62725,50.50191]}},{"type":"Feature","properties":{"label:cs":"Socha svatého Jana Nepomuckého z Židovic na hřbitově v Mostě","P31":"Q179700","P31^label:cs":"Socha","P131^label:cs":"Most","P6736":"15938"},"geometry":{"type":"Point","coordinates":[13.62751,50.50176]}},{"type":"Feature","properties":{"label:cs":"Kříž z Holešic na hřbitově v Mostě","P31":"Q2309609","P31^label:cs":"Pamětní kříž","P131^label:cs":"Most","P6736":"15937"},"geometry":{"type":"Point","coordinates":[13.62737,50.50186]}},{"type":"Feature","properties":{"label:cs":"Tak zvaný Odpočivný kámen z Libkovic na hřbitově v Mostě","P31":"Q11734477","P31^label:cs":"Památný kámen","P131^label:cs":"Most","P6736":"15936"},"geometry":{"type":"Point","coordinates":[13.62729,50.5019]}},{"type":"Feature","properties":{"label:cs":"Památník obětí důlního neštěstí na dole Jupiter 1902 na hřbitově v Mostě","P31":"Q5003624","P31^label:cs":"Památník","P131^label:cs":"Most","P6736":"15935"},"geometry":{"type":"Point","coordinates":[13.62729,50.50275]}},{"type":"Feature","properties":{"label:cs":"Keramická plastika na Třídě Budovatelů u sportovní haly v Mostě","P31":"Q12045520","P31^label:cs":"Plastika","P131^label:cs":"Most","P6736":"14682"},"geometry":{"type":"Point","coordinates":[13.6436,50.51027]}},{"type":"Feature","properties":{"label:cs":"Pomník Georgi Dimitrova v parku před školou v ulici Jakuba Arbesa v Mostě","P31":"Q4989906","P31^label:cs":"Pomník","P131^label:cs":"Most","P6736":"14300"},"geometry":{"type":"Point","coordinates":[13.63802,50.50909]}},{"type":"Feature","properties":{"label:cs":"Sochy alegorií živlů před Magistrátem v Mostě","P31":"Q179700","P31^label:cs":"Socha","P131^label:cs":"Most","P6736":"14299"},"geometry":{"type":"Point","coordinates":[13.64133,50.50278]}},{"type":"Feature","properties":{"label:cs":"Alegorie Průmyslu a Obchodu na Třídě Budovatelů u Magistrátu v Mostě","P31":"Q179700","P31^label:cs":"Socha","P131^label:cs":"Most","P6736":"14298"},"geometry":{"type":"Point","coordinates":[13.64023,50.50289]}},{"type":"Feature","properties":{"label:cs":"Pomník Floriana Leopolda Gassmanna u divadla v Mostě","P31":"Q4989906","P31^label:cs":"Pomník","P131^label:cs":"Most","P6736":"14297"},"geometry":{"type":"Point","coordinates":[13.64198,50.50206]}},{"type":"Feature","properties":{"label:cs":"Masarykův pomník na 1.náměstí v Mostě","P31":"Q4989906","P31^label:cs":"Pomník","P131^label:cs":"Most","P6736":"14296"},"geometry":{"type":"Point","coordinates":[13.64147,50.50216]}},{"type":"Feature","properties":{"label:cs":"Socha svatého Prokopa na 2.náměstí v Mostě","P31":"Q179700","P31^label:cs":"Socha","P131^label:cs":"Most","P6736":"14251"},"geometry":{"type":"Point","coordinates":[13.64231,50.50397]}},{"type":"Feature","properties":{"label:cs":"Mariánský sloup v parku v ulici Josefa Skupy v Mostě","P31":"Q4817","P31^label:cs":"Sloup","P131^label:cs":"Most","P6736":"14250"},"geometry":{"type":"Point","coordinates":[13.64029,50.50668]}},{"type":"Feature","properties":{"label:cs":"Morový sloup na 1.náměstí v Mostě","P31":"Q4817","P31^label:cs":"Sloup","P131^label:cs":"Most","P6736":"14249"},"geometry":{"type":"Point","coordinates":[13.64094,50.50188]}},{"type":"Feature","properties":{"label:cs":"Kašna na 1.náměstí v Mostě","P31":"Q12029081","P31^label:cs":"Kašna","P131^label:cs":"Most","P6736":"14248"},"geometry":{"type":"Point","coordinates":[13.64065,50.50218]}}]}