{"type":"FeatureCollection","features":[{"type":"Feature","properties":{"label:cs":"Socha vojáka s děckem u školy v ulici Zdeňka Štěpánka v Mostě","P31":"http://www.wikidata.org/entity/Q179700","P31^label:cs":"Socha","P131^label:cs":"Most","P6736":"20580"},"geometry":{"type":"Point","coordinates":[13.63909,50.49358]}},{"type":"Feature","properties":{"label:cs":"Kamenná plastika v parku v Zahradní ulici v Mostě","P31":"http://www.wikidata.org/entity/Q12045520","P31^label:cs":"Plastika","P131^label:cs":"Most","P6736":"20579"},"geometry":{"type":"Point","coordinates":[13.63717,50.49175]}},{"type":"Feature","properties":{"label:cs":"Plastika z kamene a kovu v parku v ulici Jaroslava Vrchlického v Mostě","P31":"http://www.wikidata.org/entity/Q12045520","P31^label:cs":"Plastika","P131^label:cs":"Most","P6736":"20578"},"geometry":{"type":"Point","coordinates":[13.63461,50.4919]}},{"type":"Feature","properties":{"label:cs":"Kašna u základní umělecké školy v Mostě","P31":"http://www.wikidata.org/entity/Q12029081","P31^label:cs":"Kašna","P131^label:cs":"Most","P6736":"19943"},"geometry":{"type":"Point","coordinates":[13.64282,50.49906]}},{"type":"Feature","properties":{"label:cs":"Socha Interkosmos před kinem Kosmos v Mostě","P31":"http://www.wikidata.org/entity/Q179700","P31^label:cs":"Socha","P131^label:cs":"Most","P6736":"14322"},"geometry":{"type":"Point","coordinates":[13.64107,50.49746]}}]}