{"type":"FeatureCollection","features":[{"type":"Feature","properties":{"label:cs":"Pomník Františka Niedermertla u muzea v Mostě","P31":"http://www.wikidata.org/entity/Q4989906","P31^label:cs":"Pomník","P131^label:cs":"Most","P6736":"28482"},"geometry":{"type":"Point","coordinates":[13.63937,50.51711]}},{"type":"Feature","properties":{"label:cs":"Památník bitvy o Most 1918 v parku u muzea v Mostě","P31":"http://www.wikidata.org/entity/Q5003624","P31^label:cs":"Památník","P131^label:cs":"Most","P6736":"28481"},"geometry":{"type":"Point","coordinates":[13.63914,50.51819]}},{"type":"Feature","properties":{"label:cs":"Socha Kocour magistra Kelleyho v ulici Oldřicha Hornofa v Mostě","P31":"http://www.wikidata.org/entity/Q179700","P31^label:cs":"Socha","P131^label:cs":"Most","P6736":"24114"},"geometry":{"type":"Point","coordinates":[13.62408,50.52295]}},{"type":"Feature","properties":{"label:cs":"Kříž u Oblastního Muzea v Mostě","P31":"http://www.wikidata.org/entity/Q2309609","P31^label:cs":"Pamětní kříž","P131^label:cs":"Most","P6736":"18489"},"geometry":{"type":"Point","coordinates":[13.63947,50.51767]}},{"type":"Feature","properties":{"label:cs":"Kříž u Oblastního Muzea v Mostě","P31":"http://www.wikidata.org/entity/Q2309609","P31^label:cs":"Pamětní kříž","P131^label:cs":"Most","P6736":"18488"},"geometry":{"type":"Point","coordinates":[13.63943,50.51761]}},{"type":"Feature","properties":{"label:cs":"Kříž u Oblastního Muzea v Mostě","P31":"http://www.wikidata.org/entity/Q2309609","P31^label:cs":"Pamětní kříž","P131^label:cs":"Most","P6736":"18487"},"geometry":{"type":"Point","coordinates":[13.6394,50.51759]}},{"type":"Feature","properties":{"label:cs":"Kříž u Oblastního Muzea v Mostě","P31":"http://www.wikidata.org/entity/Q2309609","P31^label:cs":"Pamětní kříž","P131^label:cs":"Most","P6736":"18486"},"geometry":{"type":"Point","coordinates":[13.63938,50.51753]}},{"type":"Feature","properties":{"label:cs":"Socha svatého Jana Nepomuckého u Oblastního Muzea v Mostě","P31":"http://www.wikidata.org/entity/Q179700","P31^label:cs":"Socha","P131^label:cs":"Most","P6736":"18485"},"geometry":{"type":"Point","coordinates":[13.63959,50.51757]}},{"type":"Feature","properties":{"label:cs":"Socha Ctností k blaženosti na kruhovém objezdu u Oblastního Muzea v Mostě","P31":"http://www.wikidata.org/entity/Q179700","P31^label:cs":"Socha","P131^label:cs":"Most","P6736":"18484"},"geometry":{"type":"Point","coordinates":[13.63914,50.51622]}},{"type":"Feature","properties":{"label:cs":"Kříž u kostela svatého Václava v Mostě","P31":"http://www.wikidata.org/entity/Q2309609","P31^label:cs":"Pamětní kříž","P131^label:cs":"Most","P6736":"18483"},"geometry":{"type":"Point","coordinates":[13.63779,50.51709]}},{"type":"Feature","properties":{"label:cs":"Pomník Jana Husa u domu Československé církve husitské v Mostě","P31":"http://www.wikidata.org/entity/Q4989906","P31^label:cs":"Pomník","P131^label:cs":"Most","P6736":"18482"},"geometry":{"type":"Point","coordinates":[13.63707,50.51624]}},{"type":"Feature","properties":{"label:cs":"Kapličky Křížové cesty v ulici Jana Žižky v Mostě","P31":"http://www.wikidata.org/entity/Q14552192","P31^label:cs":"Kaplička","P131^label:cs":"Most","P6736":"18481"},"geometry":{"type":"Point","coordinates":[13.63525,50.51719]}},{"type":"Feature","properties":{"label:cs":"Kamenná plastika Intermezzo v parku v Zahražanské ulici v Mostě","P31":"http://www.wikidata.org/entity/Q12045520","P31^label:cs":"Plastika","P131^label:cs":"Most","P6736":"18469"},"geometry":{"type":"Point","coordinates":[13.63243,50.515]}},{"type":"Feature","properties":{"label:cs":"Socha magistra Eduarda Kellyho v areálu hradu Hněvín v Mostě","P31":"http://www.wikidata.org/entity/Q179700","P31^label:cs":"Socha","P131^label:cs":"Most","P6736":"16119"},"geometry":{"type":"Point","coordinates":[13.63246,50.52039]}},{"type":"Feature","properties":{"label:cs":"Plastika 'Duch Středohoří' u parkoviště před vstupem do hradu Hněvín","P31":"http://www.wikidata.org/entity/Q12045520","P31^label:cs":"Plastika","P131^label:cs":"Most","P6736":"16118"},"geometry":{"type":"Point","coordinates":[13.63371,50.52024]}},{"type":"Feature","properties":{"label:cs":"Památník Rudé armády v Mostě v ulici Československé armády","P31":"http://www.wikidata.org/entity/Q5003624","P31^label:cs":"Památník","P131^label:cs":"Most","P6736":"14073"},"geometry":{"type":"Point","coordinates":[13.63846,50.51644]}}]}