{"type":"FeatureCollection","features":[{"type":"Feature","properties":{"label:cs":"Kaplička naproti domu 133 v Tuchořicích","P31":"http://www.wikidata.org/entity/Q14552192","P31^label:cs":"Kaplička","P131^label:cs":"Tuchořice","P6736":"38660"},"geometry":{"type":"Point","coordinates":[13.6607,50.28635]}},{"type":"Feature","properties":{"label:cs":"Pomník padlým v 1. světové válce u hřbitova v Tuchořicích","P31":"http://www.wikidata.org/entity/Q575759","P31^label:cs":"Pomník padlým","P131^label:cs":"Tuchořice","P6736":"38659"},"geometry":{"type":"Point","coordinates":[13.65319,50.28868]}},{"type":"Feature","properties":{"label:cs":"Kaple Nanebevzetí Panny Marie u Tuchořic","P31":"http://www.wikidata.org/entity/Q108325","P31^label:cs":"Kaple","P131^label:cs":"Tuchořice","P6736":"38607"},"geometry":{"type":"Point","coordinates":[13.65294,50.28909]}},{"type":"Feature","properties":{"label:cs":"Kříž u křižovatky v Tuchořicích","P31":"http://www.wikidata.org/entity/Q2309609","P31^label:cs":"Pamětní kříž","P131^label:cs":"Tuchořice","P6736":"38606"},"geometry":{"type":"Point","coordinates":[13.65842,50.28561]}},{"type":"Feature","properties":{"label:cs":"Sloup se sochou Panny Marie v Tuchořicích","P31":"http://www.wikidata.org/entity/Q4817","P31^label:cs":"Sloup","P131^label:cs":"Tuchořice","P6736":"38605"},"geometry":{"type":"Point","coordinates":[13.66282,50.28473]}},{"type":"Feature","properties":{"label:cs":"Kaple v Tuchořicích","P31":"http://www.wikidata.org/entity/Q108325","P31^label:cs":"Kaple","P131^label:cs":"Tuchořice","P6736":"38604"},"geometry":{"type":"Point","coordinates":[13.66306,50.28483]}}]}