{"type":"FeatureCollection","features":[{"type":"Feature","properties":{"label:cs":"Kříž západně od Černic u Korytného rybníka","P31":"http://www.wikidata.org/entity/Q2309609","P31^label:cs":"Pamětní kříž","P131^label:cs":"Chanovice","P6736":"7452"},"geometry":{"type":"Point","coordinates":[13.66285,49.4198]}},{"type":"Feature","properties":{"label:cs":"Kříž severozápadně od Defurových Lažan","P31":"http://www.wikidata.org/entity/Q2309609","P31^label:cs":"Pamětní kříž","P131^label:cs":"Chanovice","P6736":"5935"},"geometry":{"type":"Point","coordinates":[13.6643,49.4119]}},{"type":"Feature","properties":{"label:cs":"Kříž západně od Korytného rybníka","P31":"http://www.wikidata.org/entity/Q2309609","P31^label:cs":"Pamětní kříž","P131^label:cs":"Kvášňovice","P6736":"7450"},"geometry":{"type":"Point","coordinates":[13.65729,49.4234]}},{"type":"Feature","properties":{"label:cs":"Kříž východně od Kvášňovic u rozcestí","P31":"http://www.wikidata.org/entity/Q2309609","P31^label:cs":"Pamětní kříž","P131^label:cs":"Kvášňovice","P6736":"5938"},"geometry":{"type":"Point","coordinates":[13.64602,49.41195]}},{"type":"Feature","properties":{"label:cs":"Kříž východně od Kvášňovic","P31":"http://www.wikidata.org/entity/Q2309609","P31^label:cs":"Pamětní kříž","P131^label:cs":"Kvášňovice","P6736":"5937"},"geometry":{"type":"Point","coordinates":[13.6495,49.41261]}},{"type":"Feature","properties":{"label:cs":"Kříž východně od Kvášňovic u památného stromu","P31":"http://www.wikidata.org/entity/Q2309609","P31^label:cs":"Pamětní kříž","P131^label:cs":"Kvášňovice","P6736":"5936"},"geometry":{"type":"Point","coordinates":[13.65712,49.41276]}},{"type":"Feature","properties":{"label:cs":"Kříž východně od Kvášňovic na rozcestí","P31":"http://www.wikidata.org/entity/Q2309609","P31^label:cs":"Pamětní kříž","P131^label:cs":"Kvášňovice","P6736":"1864"},"geometry":{"type":"Point","coordinates":[13.64555,49.41387]}},{"type":"Feature","properties":{"label:cs":"Kříž severně od Kvášňovic","P31":"http://www.wikidata.org/entity/Q2309609","P31^label:cs":"Pamětní kříž","P131^label:cs":"Kvášňovice","P6736":"1863"},"geometry":{"type":"Point","coordinates":[13.64856,49.41733]}}]}