{"type":"FeatureCollection","features":[{"type":"Feature","properties":{"label:cs":"Kamenná plastika Mystérium v parku za kostelem Nanebevzetí Panny Marie v Mostě","P31":"Q12045520","P31^label:cs":"Plastika","P131^label:cs":"Most","P6736":"24119"},"geometry":{"type":"Point","coordinates":[13.64918,50.51853]}},{"type":"Feature","properties":{"label:cs":"Kamenná plastika Cesta proměny v parku za kostelem Nanebevzetí Panny Marie v Mostě","P31":"Q12045520","P31^label:cs":"Plastika","P131^label:cs":"Most","P6736":"24116"},"geometry":{"type":"Point","coordinates":[13.64907,50.51864]}},{"type":"Feature","properties":{"label:cs":"Kamenná plastika Píseň písní v parku u kostela Nanebevzetí Panny Marie v Mostě","P31":"Q12045520","P31^label:cs":"Plastika","P131^label:cs":"Most","P6736":"24115"},"geometry":{"type":"Point","coordinates":[13.64901,50.51853]}},{"type":"Feature","properties":{"label:cs":"Portál ze zrušeného kostela svatého Václava za kostelem Nanebevzetí v Mostě","P31":"?","P31^label:cs":"Něco jiného","P131^label:cs":"Most","P6736":"18657"},"geometry":{"type":"Point","coordinates":[13.64968,50.51796]}},{"type":"Feature","properties":{"label:cs":"Dvojice soch ze souboru alegorií ctností v nikách zdi za kostelem Svatého Ducha v Mostě","P31":"Q179700","P31^label:cs":"Socha","P131^label:cs":"Most","P6736":"18501"},"geometry":{"type":"Point","coordinates":[13.64875,50.51746]}},{"type":"Feature","properties":{"label:cs":"Dvojice soch ze souboru alegorií ctností v nikách zdi za kostelem Nanebevzetí Panny Marie v Mostě","P31":"Q179700","P31^label:cs":"Socha","P131^label:cs":"Most","P6736":"18499"},"geometry":{"type":"Point","coordinates":[13.64906,50.51756]}},{"type":"Feature","properties":{"label:cs":"Dvojice soch ze souboru alegorií ctností v nikách zdi za kostelem Nanebevzetí Panny Marie v Mostě","P31":"Q179700","P31^label:cs":"Socha","P131^label:cs":"Most","P6736":"18496"},"geometry":{"type":"Point","coordinates":[13.64919,50.51762]}},{"type":"Feature","properties":{"label:cs":"Kamenná plastika Vnitřní modlitba u kostela Nanebevzetí Panny Marie v Mostě","P31":"Q12045520","P31^label:cs":"Plastika","P131^label:cs":"Most","P6736":"18495"},"geometry":{"type":"Point","coordinates":[13.64939,50.51801]}},{"type":"Feature","properties":{"label:cs":"Socha Lotova žena v parku u kostela Nanebevzetí Panny Marie v Mostě","P31":"Q179700","P31^label:cs":"Socha","P131^label:cs":"Most","P6736":"18494"},"geometry":{"type":"Point","coordinates":[13.64916,50.51829]}},{"type":"Feature","properties":{"label:cs":"Socha Zahražanská Madona v parku u kostela Nanebevzetí Panny Marie v Mostě","P31":"Q179700","P31^label:cs":"Socha","P131^label:cs":"Most","P6736":"18493"},"geometry":{"type":"Point","coordinates":[13.64938,50.5183]}},{"type":"Feature","properties":{"label:cs":"Socha ze souboru alegorií ctností v nice zdi u kostela Nanebevzetí Panny Marie v Mostě","P31":"Q179700","P31^label:cs":"Socha","P131^label:cs":"Most","P6736":"18492"},"geometry":{"type":"Point","coordinates":[13.64955,50.51838]}},{"type":"Feature","properties":{"label:cs":"Socha svatého Františka z Assisi v nice zdi u kostela Nanebevzetí Panny Marie v Mostě","P31":"Q179700","P31^label:cs":"Socha","P131^label:cs":"Most","P6736":"18491"},"geometry":{"type":"Point","coordinates":[13.64942,50.51865]}},{"type":"Feature","properties":{"label:cs":"Socha Stařec v parku u kostela Nanebevzetí Panny Marie v Mostě","P31":"Q179700","P31^label:cs":"Socha","P131^label:cs":"Most","P6736":"18490"},"geometry":{"type":"Point","coordinates":[13.6488,50.51852]}},{"type":"Feature","properties":{"label:cs":"Sousoší svatého Jana Nepomuckého v parku u kostela Nanebevzetí v Mostě","P31":"Q179700","P31^label:cs":"Socha","P131^label:cs":"Most","P6736":"14152"},"geometry":{"type":"Point","coordinates":[13.64781,50.51892]}},{"type":"Feature","properties":{"label:cs":"Sloup v u kostela v Mostě","P31":"Q4817","P31^label:cs":"Sloup","P131^label:cs":"Most","P6736":"9695"},"geometry":{"type":"Point","coordinates":[13.64803,50.51802]}},{"type":"Feature","properties":{"label:cs":"Sloup se sochou svatého Jana Nepomuckého v Mostě","P31":"Q4817","P31^label:cs":"Sloup","P131^label:cs":"Most","P6736":"9694"},"geometry":{"type":"Point","coordinates":[13.64848,50.51802]}}]}