{"type":"FeatureCollection","features":[{"type":"Feature","properties":{"label:cs":"Keramická plastika v parku u Městské knihovny v Mostě","P31":"http://www.wikidata.org/entity/Q12045520","P31^label:cs":"Plastika","P131^label:cs":"Most","P6736":"38187"},"geometry":{"type":"Point","coordinates":[13.65399,50.50675]}},{"type":"Feature","properties":{"label:cs":"Kamenná plastika Květ u Základní umělecké školy v Mostě","P31":"http://www.wikidata.org/entity/Q12045520","P31^label:cs":"Plastika","P131^label:cs":"Most","P6736":"38162"},"geometry":{"type":"Point","coordinates":[13.65475,50.50587]}},{"type":"Feature","properties":{"label:cs":"Památník spojeneckých náletů 1944-45 v parku Šibeník v Mostě","P31":"http://www.wikidata.org/entity/Q5003624","P31^label:cs":"Památník","P131^label:cs":"Most","P6736":"38161"},"geometry":{"type":"Point","coordinates":[13.65083,50.50177]}},{"type":"Feature","properties":{"label:cs":"Plastika Hnízdo u vchodu do dětského domova v Mostě","P31":"http://www.wikidata.org/entity/Q12045520","P31^label:cs":"Plastika","P131^label:cs":"Most","P6736":"38160"},"geometry":{"type":"Point","coordinates":[13.65915,50.50636]}},{"type":"Feature","properties":{"label:cs":"Kamenná plastika v parku Šibeník v Mostě","P31":"http://www.wikidata.org/entity/Q12045520","P31^label:cs":"Plastika","P131^label:cs":"Most","P6736":"20583"},"geometry":{"type":"Point","coordinates":[13.64604,50.50133]}},{"type":"Feature","properties":{"label:cs":"Socha Sen v parku Šibeník u Moskevské ulice v Mostě","P31":"http://www.wikidata.org/entity/Q179700","P31^label:cs":"Socha","P131^label:cs":"Most","P6736":"19462"},"geometry":{"type":"Point","coordinates":[13.64563,50.50525]}},{"type":"Feature","properties":{"label:cs":"Socha Satyr u školy v ulici U Stadionu v Mostě","P31":"http://www.wikidata.org/entity/Q179700","P31^label:cs":"Socha","P131^label:cs":"Most","P6736":"18898"},"geometry":{"type":"Point","coordinates":[13.64859,50.50776]}},{"type":"Feature","properties":{"label:cs":"Kamenná plastika Rybí song v parku Opavia v Mostě","P31":"http://www.wikidata.org/entity/Q12045520","P31^label:cs":"Plastika","P131^label:cs":"Most","P6736":"18897"},"geometry":{"type":"Point","coordinates":[13.65319,50.50712]}},{"type":"Feature","properties":{"label:cs":"Socha Voda před knihovnou v Moskevské ulici v Mostě","P31":"http://www.wikidata.org/entity/Q179700","P31^label:cs":"Socha","P131^label:cs":"Most","P6736":"18896"},"geometry":{"type":"Point","coordinates":[13.65346,50.50617]}},{"type":"Feature","properties":{"label:cs":"Socha Živá voda v Barvířské ulici v Mostě","P31":"http://www.wikidata.org/entity/Q179700","P31^label:cs":"Socha","P131^label:cs":"Most","P6736":"18503"},"geometry":{"type":"Point","coordinates":[13.64915,50.51273]}},{"type":"Feature","properties":{"label:cs":"Socha Matka a dítě v parku v ulici Jana Kubelíka v Mostě","P31":"http://www.wikidata.org/entity/Q179700","P31^label:cs":"Socha","P131^label:cs":"Most","P6736":"17064"},"geometry":{"type":"Point","coordinates":[13.6558,50.50588]}},{"type":"Feature","properties":{"label:cs":"Socha Fotbalisté před fotbalovým stadionem v Mostě","P31":"http://www.wikidata.org/entity/Q179700","P31^label:cs":"Socha","P131^label:cs":"Most","P6736":"16098"},"geometry":{"type":"Point","coordinates":[13.64585,50.50993]}},{"type":"Feature","properties":{"label:cs":"Socha Staroslovanská modla v parku v ulici Jaroslava Ježka v Mostě","P31":"http://www.wikidata.org/entity/Q179700","P31^label:cs":"Socha","P131^label:cs":"Most","P6736":"15946"},"geometry":{"type":"Point","coordinates":[13.65857,50.50364]}},{"type":"Feature","properties":{"label:cs":"Pomník Julia Fučíka před školou v ulici U Stadionu v Mostě","P31":"http://www.wikidata.org/entity/Q4989906","P31^label:cs":"Pomník","P131^label:cs":"Most","P6736":"14301"},"geometry":{"type":"Point","coordinates":[13.64809,50.50751]}},{"type":"Feature","properties":{"label:cs":"Pomník padlým v 1. a 2. světové válce v Rudolicích","P31":"http://www.wikidata.org/entity/Q575759","P31^label:cs":"Pomník padlým","P131^label:cs":"Most","P6736":"16009"},"geometry":{"type":"Point","coordinates":[13.66557,50.51024]}}]}