{
    "type": "FeatureCollection",
    "features": [
        {
            "type": "Feature",
            "properties": {
                "label:cs": "Kříž jihovýchodně od Vísky",
                "P31": "Pamětní kříž",
                "P31^label:cs": "Pamětní kříž",
                "P131^label:cs": "Čmelíny",
                "P6736": "8554"
            },
            "geometry": {
                "type": "Point",
                "coordinates": [
                    13.66626,
                    49.48691
                ]
            }
        },
        {
            "type": "Feature",
            "properties": {
                "label:cs": "Památník založení obce ve Vísce",
                "P31": "Památník",
                "P31^label:cs": "Památník",
                "P131^label:cs": "Čmelíny",
                "P6736": "8552"
            },
            "geometry": {
                "type": "Point",
                "coordinates": [
                    13.66165,
                    49.48912
                ]
            }
        },
        {
            "type": "Feature",
            "properties": {
                "label:cs": "Kříž ve Vísce v zahradě",
                "P31": "Pamětní kříž",
                "P31^label:cs": "Pamětní kříž",
                "P131^label:cs": "Čmelíny",
                "P6736": "8553"
            },
            "geometry": {
                "type": "Point",
                "coordinates": [
                    13.66173,
                    49.4884
                ]
            }
        },
        {
            "type": "Feature",
            "properties": {
                "label:cs": "Památník založení obce v Čmelínech",
                "P31": "Památník",
                "P31^label:cs": "Památník",
                "P131^label:cs": "Čmelíny",
                "P6736": "8551"
            },
            "geometry": {
                "type": "Point",
                "coordinates": [
                    13.65501,
                    49.4887
                ]
            }
        },
        {
            "type": "Feature",
            "properties": {
                "label:cs": "Pomník padlým ve Vísce",
                "P31": "Pomník padlým",
                "P31^label:cs": "Pomník padlým",
                "P131^label:cs": "Čmelíny",
                "P6736": "4985"
            },
            "geometry": {
                "type": "Point",
                "coordinates": [
                    13.6617,
                    49.48913
                ]
            }
        },
        {
            "type": "Feature",
            "properties": {
                "label:cs": "Kříž na křižovatce v Čemínech",
                "P31": "Pamětní kříž",
                "P31^label:cs": "Pamětní kříž",
                "P131^label:cs": "Čmelíny",
                "P6736": "4984"
            },
            "geometry": {
                "type": "Point",
                "coordinates": [
                    13.65499,
                    49.48824
                ]
            }
        },
        {
            "type": "Feature",
            "properties": {
                "label:cs": "Pomník padlým ve Čmelínech",
                "P31": "Pomník padlým",
                "P31^label:cs": "Pomník padlým",
                "P131^label:cs": "Čmelíny",
                "P6736": "4983"
            },
            "geometry": {
                "type": "Point",
                "coordinates": [
                    13.655,
                    49.48867
                ]
            }
        },
        {
            "type": "Feature",
            "properties": {
                "label:cs": "Kříž ve Čmelínech u kaple",
                "P31": "Pamětní kříž",
                "P31^label:cs": "Pamětní kříž",
                "P131^label:cs": "Čmelíny",
                "P6736": "4956"
            },
            "geometry": {
                "type": "Point",
                "coordinates": [
                    13.65476,
                    49.48863
                ]
            }
        },
        {
            "type": "Feature",
            "properties": {
                "label:cs": "Kaple ve Čmelínech",
                "P31": "Kaple",
                "P31^label:cs": "Kaple",
                "P131^label:cs": "Čmelíny",
                "P6736": "4955"
            },
            "geometry": {
                "type": "Point",
                "coordinates": [
                    13.6547,
                    49.48867
                ]
            }
        },
        {
            "type": "Feature",
            "properties": {
                "label:cs": "Kaple ve Vísce",
                "P31": "Kaple",
                "P31^label:cs": "Kaple",
                "P131^label:cs": "Čmelíny",
                "P6736": "4954"
            },
            "geometry": {
                "type": "Point",
                "coordinates": [
                    13.66051,
                    49.48963
                ]
            }
        },
        {
            "type": "Feature",
            "properties": {
                "label:cs": "Kříž ve Vísce na rozcestí",
                "P31": "Pamětní kříž",
                "P31^label:cs": "Pamětní kříž",
                "P131^label:cs": "Čmelíny",
                "P6736": "4953"
            },
            "geometry": {
                "type": "Point",
                "coordinates": [
                    13.66262,
                    49.48882
                ]
            }
        },
        {
            "type": "Feature",
            "properties": {
                "label:cs": "Kříž západně od Čmelín",
                "P31": "Pamětní kříž",
                "P31^label:cs": "Pamětní kříž",
                "P131^label:cs": "Čmelíny",
                "P6736": "1363"
            },
            "geometry": {
                "type": "Point",
                "coordinates": [
                    13.64898,
                    49.48946
                ]
            }
        }
    ]
}