{"type":"FeatureCollection","features":[{"type":"Feature","properties":{"label:cs":"Kříž v Životicích u rozcestí","P31":"Q2309609","P31^label:cs":"Pamětní kříž","P131^label:cs":"Životice","P6736":"8563"},"geometry":{"type":"Point","coordinates":[13.68431,49.46431]}},{"type":"Feature","properties":{"label:cs":"Pomník padlým v Životicích","P31":"Q575759","P31^label:cs":"Pomník padlým","P131^label:cs":"Životice","P6736":"8562"},"geometry":{"type":"Point","coordinates":[13.68369,49.46458]}},{"type":"Feature","properties":{"label:cs":"Kříž jižně od Životic u polní cesty","P31":"Q2309609","P31^label:cs":"Pamětní kříž","P131^label:cs":"Životice","P6736":"8561"},"geometry":{"type":"Point","coordinates":[13.68475,49.46191]}},{"type":"Feature","properties":{"label:cs":"Kříž u kaple v Životicích","P31":"Q2309609","P31^label:cs":"Pamětní kříž","P131^label:cs":"Životice","P6736":"8560"},"geometry":{"type":"Point","coordinates":[13.68562,49.46663]}},{"type":"Feature","properties":{"label:cs":"Kříž v Životicích u křižovatky","P31":"Q2309609","P31^label:cs":"Pamětní kříž","P131^label:cs":"Životice","P6736":"8559"},"geometry":{"type":"Point","coordinates":[13.68394,49.46453]}},{"type":"Feature","properties":{"label:cs":"Kaple v Životicích","P31":"Q108325","P31^label:cs":"Kaple","P131^label:cs":"Životice","P6736":"8558"},"geometry":{"type":"Point","coordinates":[13.68568,49.46667]}},{"type":"Feature","properties":{"label:cs":"Kříž severně od Kotouně u lesa","P31":"Q2309609","P31^label:cs":"Pamětní kříž","P131^label:cs":"Oselce","P6736":"8432"},"geometry":{"type":"Point","coordinates":[13.67438,49.45713]}},{"type":"Feature","properties":{"label:cs":"Kříž severně od Kotouně u Spáleného rybníka","P31":"Q2309609","P31^label:cs":"Pamětní kříž","P131^label:cs":"Oselce","P6736":"8430"},"geometry":{"type":"Point","coordinates":[13.66811,49.46021]}},{"type":"Feature","properties":{"label:cs":"Kříž severně od Kotouně u rozcestí","P31":"Q2309609","P31^label:cs":"Pamětní kříž","P131^label:cs":"Oselce","P6736":"8429"},"geometry":{"type":"Point","coordinates":[13.6789,49.45448]}}]}