{"type":"FeatureCollection","features":[{"type":"Feature","properties":{"label:cs":"Kamenná plastika Jaro v parku u ulice Ke Kostelu ve Vtelně","P31":"http://www.wikidata.org/entity/Q12045520","P31^label:cs":"Plastika","P131^label:cs":"Most","P6736":"18899"},"geometry":{"type":"Point","coordinates":[13.67261,50.48853]}},{"type":"Feature","properties":{"label:cs":"Socha Mosty v nás před Centrem Benedikt v Mostě","P31":"http://www.wikidata.org/entity/Q179700","P31^label:cs":"Socha","P131^label:cs":"Most","P6736":"16011"},"geometry":{"type":"Point","coordinates":[13.671,50.49293]}},{"type":"Feature","properties":{"label:cs":"Podstavec ulomeného kříže v Mostecké ulici ve Vtelně","P31":"http://www.wikidata.org/entity/Q2309609","P31^label:cs":"Pamětní kříž","P131^label:cs":"Most","P6736":"16010"},"geometry":{"type":"Point","coordinates":[13.67174,50.49062]}},{"type":"Feature","properties":{"label:cs":"Kaplička Libkovické křížové cesty ve Vtelně","P31":"http://www.wikidata.org/entity/Q14552192","P31^label:cs":"Kaplička","P131^label:cs":"Most","P6736":"15970"},"geometry":{"type":"Point","coordinates":[13.66876,50.4885]}},{"type":"Feature","properties":{"label:cs":"Kaplička Libkovické křížové cesty ve Vtelně","P31":"http://www.wikidata.org/entity/Q14552192","P31^label:cs":"Kaplička","P131^label:cs":"Most","P6736":"15969"},"geometry":{"type":"Point","coordinates":[13.66895,50.4884]}},{"type":"Feature","properties":{"label:cs":"Kaplička z Libkovické křížové cesty ve Vtelně","P31":"http://www.wikidata.org/entity/Q14552192","P31^label:cs":"Kaplička","P131^label:cs":"Most","P6736":"15968"},"geometry":{"type":"Point","coordinates":[13.66908,50.48826]}},{"type":"Feature","properties":{"label:cs":"Kaplička z Libkovické křížové cesty umístěné ve Vtelně","P31":"http://www.wikidata.org/entity/Q14552192","P31^label:cs":"Kaplička","P131^label:cs":"Most","P6736":"15967"},"geometry":{"type":"Point","coordinates":[13.66915,50.48794]}},{"type":"Feature","properties":{"label:cs":"Kříž v parku v ulici Ke Kostelu ve Vtelně","P31":"http://www.wikidata.org/entity/Q2309609","P31^label:cs":"Pamětní kříž","P131^label:cs":"Most","P6736":"15966"},"geometry":{"type":"Point","coordinates":[13.67228,50.48842]}},{"type":"Feature","properties":{"label:cs":"Socha svatého Floriána z Kopist u zdi kostela ve Vtelně","P31":"http://www.wikidata.org/entity/Q179700","P31^label:cs":"Socha","P131^label:cs":"Most","P6736":"15962"},"geometry":{"type":"Point","coordinates":[13.66865,50.48733]}},{"type":"Feature","properties":{"label:cs":"Socha svatého Floriána z Chanova v ulici Ke Kostelu ve Vtelně","P31":"http://www.wikidata.org/entity/Q179700","P31^label:cs":"Socha","P131^label:cs":"Most","P6736":"15961"},"geometry":{"type":"Point","coordinates":[13.67019,50.48734]}},{"type":"Feature","properties":{"label:cs":"Tři přemístěné smírčí kříže v Mostě-Vtelně","P31":"http://www.wikidata.org/entity/Q1640496","P31^label:cs":"Smírčí kříž","P131^label:cs":"Most","P6736":"13947"},"geometry":{"type":"Point","coordinates":[13.67248,50.49022]}}]}