{"type":"FeatureCollection","features":[{"type":"Feature","properties":{"label:cs":"Kaplička v Oselcích v Zahradě","P31":"http://www.wikidata.org/entity/Q14552192","P31^label:cs":"Kaplička","P131^label:cs":"Oselce","P6736":"8413"},"geometry":{"type":"Point","coordinates":[13.67234,49.43615]}},{"type":"Feature","properties":{"label:cs":"Pomník obětem druhé světové války v Oselcích","P31":"http://www.wikidata.org/entity/Q575759","P31^label:cs":"Pomník padlým","P131^label:cs":"Oselce","P6736":"8414"},"geometry":{"type":"Point","coordinates":[13.67234,49.43637]}},{"type":"Feature","properties":{"label:cs":"Pomník padlým v první světové válce v Oselcích","P31":"http://www.wikidata.org/entity/Q5003624","P31^label:cs":"Památník","P131^label:cs":"Oselce","P6736":"8415"},"geometry":{"type":"Point","coordinates":[13.67234,49.43642]}},{"type":"Feature","properties":{"label:cs":"Kříž východně od Oselců","P31":"http://www.wikidata.org/entity/Q2309609","P31^label:cs":"Pamětní kříž","P131^label:cs":"Oselce","P6736":"8416"},"geometry":{"type":"Point","coordinates":[13.67899,49.43586]}},{"type":"Feature","properties":{"label:cs":"Kříž v Oselcích u silnice","P31":"http://www.wikidata.org/entity/Q2309609","P31^label:cs":"Pamětní kříž","P131^label:cs":"Oselce","P6736":"8417"},"geometry":{"type":"Point","coordinates":[13.67067,49.43604]}},{"type":"Feature","properties":{"label:cs":"Kříž severně od Oselců u zahrady","P31":"http://www.wikidata.org/entity/Q2309609","P31^label:cs":"Pamětní kříž","P131^label:cs":"Oselce","P6736":"8418"},"geometry":{"type":"Point","coordinates":[13.66823,49.43749]}},{"type":"Feature","properties":{"label:cs":"Kaple v Oselcích","P31":"http://www.wikidata.org/entity/Q108325","P31^label:cs":"Kaple","P131^label:cs":"Oselce","P6736":"8422"},"geometry":{"type":"Point","coordinates":[13.67305,49.43773]}},{"type":"Feature","properties":{"label:cs":"Kříž u kaple v Oselcích","P31":"http://www.wikidata.org/entity/Q2309609","P31^label:cs":"Pamětní kříž","P131^label:cs":"Oselce","P6736":"8423"},"geometry":{"type":"Point","coordinates":[13.67297,49.43768]}}]}