{"type":"FeatureCollection","features":[{"type":"Feature","properties":{"label:cs":"Kříž v Horažďovicích u nádraží","P31":"Q2309609","P31^label:cs":"Pamětní kříž","P131^label:cs":"Horažďovice","P6736":"10063"},"geometry":{"type":"Point","coordinates":[13.7065,49.32017]}},{"type":"Feature","properties":{"label:cs":"Sloup u Plzeňské ulice v Horažďovicích","P31":"Q4817","P31^label:cs":"Sloup","P131^label:cs":"Horažďovice","P6736":"7470"},"geometry":{"type":"Point","coordinates":[13.70104,49.32301]}},{"type":"Feature","properties":{"label:cs":"Socha svatého Floriána v Horažďovicích","P31":"Q179700","P31^label:cs":"Socha","P131^label:cs":"Horažďovice","P6736":"7318"},"geometry":{"type":"Point","coordinates":[13.69868,49.3223]}},{"type":"Feature","properties":{"label:cs":"Kaplička v Zářečí u Horažďovic","P31":"Q14552192","P31^label:cs":"Kaplička","P131^label:cs":"Horažďovice","P6736":"7317"},"geometry":{"type":"Point","coordinates":[13.69697,49.32199]}},{"type":"Feature","properties":{"label:cs":"Kříž v Horažďovicích v Nábřežní ulici","P31":"Q2309609","P31^label:cs":"Pamětní kříž","P131^label:cs":"Horažďovice","P6736":"7316"},"geometry":{"type":"Point","coordinates":[13.69997,49.3196]}},{"type":"Feature","properties":{"label:cs":"Kříž jižně od Horažďovic u Sádek","P31":"Q2309609","P31^label:cs":"Pamětní kříž","P131^label:cs":"Horažďovice","P6736":"7315"},"geometry":{"type":"Point","coordinates":[13.70581,49.3159]}},{"type":"Feature","properties":{"label:cs":"Kříž v Horažďovicích v Husově ulici","P31":"Q2309609","P31^label:cs":"Pamětní kříž","P131^label:cs":"Horažďovice","P6736":"4877"},"geometry":{"type":"Point","coordinates":[13.70346,49.31965]}},{"type":"Feature","properties":{"label:cs":"Kaplička v Horažďovicích v Husově ulici","P31":"Q14552192","P31^label:cs":"Kaplička","P131^label:cs":"Horažďovice","P6736":"4876"},"geometry":{"type":"Point","coordinates":[13.70315,49.31948]}},{"type":"Feature","properties":{"label:cs":"Pomník padlým v Horažďovicích","P31":"Q575759","P31^label:cs":"Pomník padlým","P131^label:cs":"Horažďovice","P6736":"4875"},"geometry":{"type":"Point","coordinates":[13.6997,49.32113]}},{"type":"Feature","properties":{"label:cs":"Památník v Horažďovicích v Husově ulici","P31":"Q5003624","P31^label:cs":"Památník","P131^label:cs":"Horažďovice","P6736":"4874"},"geometry":{"type":"Point","coordinates":[13.70462,49.32055]}},{"type":"Feature","properties":{"label:cs":"Boží muka u Horažďovic na kruhovém objezdu","P31":"Q3395121","P31^label:cs":"Boží muka","P131^label:cs":"Horažďovice","P6736":"4873"},"geometry":{"type":"Point","coordinates":[13.70644,49.32279]}},{"type":"Feature","properties":{"label:cs":"Mariánský sloup v Horažďovicích","P31":"Q4817","P31^label:cs":"Sloup","P131^label:cs":"Horažďovice","P6736":"3747"},"geometry":{"type":"Point","coordinates":[13.70068,49.32101]}},{"type":"Feature","properties":{"label:cs":"Boží muka u Horažďovic","P31":"Q3395121","P31^label:cs":"Boží muka","P131^label:cs":"Horažďovice","P6736":"1541"},"geometry":{"type":"Point","coordinates":[13.7024,49.31737]}}]}