{"type":"FeatureCollection","features":[{"type":"Feature","properties":{"label:cs":"Kříž jihovýchodně od Mlečic","P31":"Pamětní kříž","P31^label:cs":"Pamětní kříž","P131^label:cs":"Mlečice","P6736":"8063"},"geometry":{"type":"Point","coordinates":[13.7083,49.91439]}},{"type":"Feature","properties":{"label:cs":"Kříž jižně od Mlečic","P31":"Pamětní kříž","P31^label:cs":"Pamětní kříž","P131^label:cs":"Mlečice","P6736":"8062"},"geometry":{"type":"Point","coordinates":[13.69581,49.91778]}},{"type":"Feature","properties":{"label:cs":"Kříž v Mlečicích na rozcestí","P31":"Pamětní kříž","P31^label:cs":"Pamětní kříž","P131^label:cs":"Mlečice","P6736":"3902"},"geometry":{"type":"Point","coordinates":[13.69348,49.9215]}},{"type":"Feature","properties":{"label:cs":"Kříž u kostela v Mlečicích","P31":"Pamětní kříž","P31^label:cs":"Pamětní kříž","P131^label:cs":"Mlečice","P6736":"3901"},"geometry":{"type":"Point","coordinates":[13.69768,49.91992]}},{"type":"Feature","properties":{"label:cs":"Pomník padlým v Mlečicích","P31":"Pomník padlým","P31^label:cs":"Pomník padlým","P131^label:cs":"Mlečice","P6736":"3900"},"geometry":{"type":"Point","coordinates":[13.69518,49.91975]}},{"type":"Feature","properties":{"label:cs":"Socha Panny Marie v Mlečicích","P31":"Socha","P31^label:cs":"Socha","P131^label:cs":"Mlečice","P6736":"3899"},"geometry":{"type":"Point","coordinates":[13.69572,49.91954]}},{"type":"Feature","properties":{"label:cs":"Kaple v Terešovské Huti","P31":"Kaple","P31^label:cs":"Kaple","P131^label:cs":"Terešov","P6736":"3898"},"geometry":{"type":"Point","coordinates":[13.7039,49.91017]}},{"type":"Feature","properties":{"label:cs":"Kříž na křižovatce u Terešovské Huti","P31":"Pamětní kříž","P31^label:cs":"Pamětní kříž","P131^label:cs":"Terešov","P6736":"2646"},"geometry":{"type":"Point","coordinates":[13.7053,49.91132]}},{"type":"Feature","properties":{"label:cs":"Kříž východně od Mlečic","P31":"Pamětní kříž","P31^label:cs":"Pamětní kříž","P131^label:cs":"Mlečice","P6736":"2064"},"geometry":{"type":"Point","coordinates":[13.69926,49.9199]}},{"type":"Feature","properties":{"label:cs":"Kříž nad Mlečicemi","P31":"Pamětní kříž","P31^label:cs":"Pamětní kříž","P131^label:cs":"Mlečice","P6736":"2063"},"geometry":{"type":"Point","coordinates":[13.6924,49.91741]}}]}