{"type":"FeatureCollection","features":[{"type":"Feature","properties":{"label:cs":"Kříž u silnice severozápadně od Malnic","P31":"http://www.wikidata.org/entity/Q2309609","P31^label:cs":"Pamětní kříž","P131^label:cs":"Postoloprty","P6736":"40426"},"geometry":{"type":"Point","coordinates":[13.70967,50.33548]}},{"type":"Feature","properties":{"label:cs":"Zvonice na hřbitově u Skupic","P31":"http://www.wikidata.org/entity/Q200334","P31^label:cs":"Zvonice","P131^label:cs":"Postoloprty","P6736":"40430"},"geometry":{"type":"Point","coordinates":[13.7027,50.34508]}},{"type":"Feature","properties":{"label:cs":"Kříž v poli u silnice severovýchodně od Skupic","P31":"http://www.wikidata.org/entity/Q2309609","P31^label:cs":"Pamětní kříž","P131^label:cs":"Postoloprty","P6736":"40429"},"geometry":{"type":"Point","coordinates":[13.70119,50.34287]}},{"type":"Feature","properties":{"label:cs":"Kaplička na východním okraji Skupic","P31":"http://www.wikidata.org/entity/Q14552192","P31^label:cs":"Kaplička","P131^label:cs":"Postoloprty","P6736":"40428"},"geometry":{"type":"Point","coordinates":[13.69865,50.34054]}},{"type":"Feature","properties":{"label:cs":"Kaple na návsi ve Skupicích","P31":"http://www.wikidata.org/entity/Q108325","P31^label:cs":"Kaple","P131^label:cs":"Postoloprty","P6736":"40427"},"geometry":{"type":"Point","coordinates":[13.69508,50.3388]}},{"type":"Feature","properties":{"label:cs":"Pomník padlým ve světové válce u Skupic","P31":"http://www.wikidata.org/entity/Q575759","P31^label:cs":"Pomník padlým","P131^label:cs":"Postoloprty","P6736":"11289"},"geometry":{"type":"Point","coordinates":[13.6972,50.33647]}}]}