{"type":"FeatureCollection","features":[{"type":"Feature","properties":{"label:cs":"Kříž u posvátné studánky Křtitelna severně od Drahoňova Újezdu","P31":"http://www.wikidata.org/entity/Q2309609","P31^label:cs":"Pamětní kříž","P131^label:cs":"Drahoňův Újezd","P6736":"28011"},"geometry":{"type":"Point","coordinates":[13.73065,49.88424]}},{"type":"Feature","properties":{"label:cs":"Kříž západně od Třebnušky","P31":"http://www.wikidata.org/entity/Q2309609","P31^label:cs":"Pamětní kříž","P131^label:cs":"Terešov","P6736":"8048"},"geometry":{"type":"Point","coordinates":[13.71208,49.89204]}},{"type":"Feature","properties":{"label:cs":"Kříž v Třebnušce u kaple","P31":"http://www.wikidata.org/entity/Q2309609","P31^label:cs":"Pamětní kříž","P131^label:cs":"Zbiroh","P6736":"8049"},"geometry":{"type":"Point","coordinates":[13.71985,49.89207]}},{"type":"Feature","properties":{"label:cs":"Kaple v Třebnušce","P31":"http://www.wikidata.org/entity/Q108325","P31^label:cs":"Kaple","P131^label:cs":"Zbiroh","P6736":"8050"},"geometry":{"type":"Point","coordinates":[13.71997,49.89213]}},{"type":"Feature","properties":{"label:cs":"Kříž jižně od Třebnušky","P31":"http://www.wikidata.org/entity/Q2309609","P31^label:cs":"Pamětní kříž","P131^label:cs":"Zbiroh","P6736":"8051"},"geometry":{"type":"Point","coordinates":[13.72397,49.88913]}},{"type":"Feature","properties":{"label:cs":"Kříž u Sýkorova Mlýna","P31":"http://www.wikidata.org/entity/Q2309609","P31^label:cs":"Pamětní kříž","P131^label:cs":"Zbiroh","P6736":"8059"},"geometry":{"type":"Point","coordinates":[13.73233,49.89403]}}]}