{"type":"FeatureCollection","features":[{"type":"Feature","properties":{"label:cs":"Pomník Tomáše Garrigue Masaryka v areálu nemocnice v Rakovníku","P31":"http://www.wikidata.org/entity/Q4989906","P31^label:cs":"Pomník","P131^label:cs":"Rakovník","P6736":"42140"},"geometry":{"type":"Point","coordinates":[13.71593,50.10781]}},{"type":"Feature","properties":{"label:cs":"Pomník padlým rudoarmějcům na hřbitově v Rakovníku","P31":"http://www.wikidata.org/entity/Q575759","P31^label:cs":"Pomník padlým","P131^label:cs":"Rakovník","P6736":"42138"},"geometry":{"type":"Point","coordinates":[13.7241,50.10843]}},{"type":"Feature","properties":{"label:cs":"Kovová plastika Řecký oheň nad hřbitovem v Rakovníku","P31":"http://www.wikidata.org/entity/Q12045520","P31^label:cs":"Plastika","P131^label:cs":"Rakovník","P6736":"42137"},"geometry":{"type":"Point","coordinates":[13.72392,50.10877]}},{"type":"Feature","properties":{"label:cs":"Kaple svatého Rocha na hřbitově v Rakovníku","P31":"http://www.wikidata.org/entity/Q108325","P31^label:cs":"Kaple","P131^label:cs":"Rakovník","P6736":"42136"},"geometry":{"type":"Point","coordinates":[13.72342,50.10684]}},{"type":"Feature","properties":{"label:cs":"Dřevěná zvonice na hřbitově v Rakovníku","P31":"http://www.wikidata.org/entity/Q200334","P31^label:cs":"Zvonice","P131^label:cs":"Rakovník","P6736":"42135"},"geometry":{"type":"Point","coordinates":[13.72462,50.10704]}}]}