{"type":"FeatureCollection","features":[{"type":"Feature","properties":{"label:cs":"Kříž v severní části Babína","P31":"Q2309609","P31^label:cs":"Pamětní kříž","P131^label:cs":"Horažďovice","P6736":"5878"},"geometry":{"type":"Point","coordinates":[13.72791,49.34886]}},{"type":"Feature","properties":{"label:cs":"Kříž na rozcestí v Babíně","P31":"Q2309609","P31^label:cs":"Pamětní kříž","P131^label:cs":"Horažďovice","P6736":"5877"},"geometry":{"type":"Point","coordinates":[13.72584,49.34734]}},{"type":"Feature","properties":{"label:cs":"Kaple v Babíně","P31":"Q108325","P31^label:cs":"Kaple","P131^label:cs":"Horažďovice","P6736":"5876"},"geometry":{"type":"Point","coordinates":[13.72736,49.34723]}},{"type":"Feature","properties":{"label:cs":"Kříž u kaple v Babíně","P31":"Q2309609","P31^label:cs":"Pamětní kříž","P131^label:cs":"Horažďovice","P6736":"5875"},"geometry":{"type":"Point","coordinates":[13.72731,49.34716]}},{"type":"Feature","properties":{"label:cs":"Boží muka jižně od Babína","P31":"Q3395121","P31^label:cs":"Boží muka","P131^label:cs":"Horažďovice","P6736":"5874"},"geometry":{"type":"Point","coordinates":[13.72631,49.34168]}}]}