{"type":"FeatureCollection","features":[{"type":"Feature","properties":{"label:cs":"Kovové obelisky u vstupu do Čermákových sadů v Rakovníku","P31":"http://www.wikidata.org/entity/Q4817","P31^label:cs":"Sloup","P131^label:cs":"Rakovník","P6736":"42155"},"geometry":{"type":"Point","coordinates":[13.73396,50.10239]}},{"type":"Feature","properties":{"label:cs":"Pamětní deska generála Hasala na gymnáziu na Žižkově náměstí v Rakovníku","P31":"http://www.wikidata.org/entity/Q721747","P31^label:cs":"Pamětní deska","P131^label:cs":"Rakovník","P6736":"42153"},"geometry":{"type":"Point","coordinates":[13.73317,50.10417]}},{"type":"Feature","properties":{"label:cs":"Pamětní deska Zikmunda Wintera na gymnáziu na Žižkově náměstí v Rakovníku","P31":"http://www.wikidata.org/entity/Q721747","P31^label:cs":"Pamětní deska","P131^label:cs":"Rakovník","P6736":"42152"},"geometry":{"type":"Point","coordinates":[13.73311,50.10418]}},{"type":"Feature","properties":{"label:cs":"Pomník obětí okupace 1939-45 na Žižkově náměstí v Rakovníku","P31":"http://www.wikidata.org/entity/Q4989906","P31^label:cs":"Pomník","P131^label:cs":"Rakovník","P6736":"42130"},"geometry":{"type":"Point","coordinates":[13.73393,50.10399]}},{"type":"Feature","properties":{"label:cs":"Pomník Františka Palackého v parku u kostela svatého Bartoloměje v Rakovníku","P31":"http://www.wikidata.org/entity/Q4989906","P31^label:cs":"Pomník","P131^label:cs":"Rakovník","P6736":"42127"},"geometry":{"type":"Point","coordinates":[13.73316,50.10345]}},{"type":"Feature","properties":{"label:cs":"Pomník Antonína Dvořáka v parku u kostela svatého Baroloměje v Rakovníku","P31":"http://www.wikidata.org/entity/Q4989906","P31^label:cs":"Pomník","P131^label:cs":"Rakovník","P6736":"42125"},"geometry":{"type":"Point","coordinates":[13.73332,50.10328]}},{"type":"Feature","properties":{"label:cs":"Pomník Bedřicha Smetany v Čermákových sadech v Rakovníku","P31":"http://www.wikidata.org/entity/Q4989906","P31^label:cs":"Pomník","P131^label:cs":"Rakovník","P6736":"42124"},"geometry":{"type":"Point","coordinates":[13.73384,50.10258]}},{"type":"Feature","properties":{"label:cs":"Socha T. G. Masaryka v Rakovníku v Čermákových sadech","P31":"http://www.wikidata.org/entity/Q179700","P31^label:cs":"Socha","P131^label:cs":"Rakovník","P6736":"26233"},"geometry":{"type":"Point","coordinates":[13.7331,50.10295]}},{"type":"Feature","properties":{"label:cs":"Kříž v Rakovníku na křižovatce ulic Pražská a Smetanova","P31":"http://www.wikidata.org/entity/Q2309609","P31^label:cs":"Pamětní kříž","P131^label:cs":"Rakovník","P6736":"26232"},"geometry":{"type":"Point","coordinates":[13.7345,50.1038]}},{"type":"Feature","properties":{"label:cs":"Kaple v Rakovníku na křižovatce ulic Frant. Diepolta a Wintrova","P31":"http://www.wikidata.org/entity/Q108325","P31^label:cs":"Kaple","P131^label:cs":"Rakovník","P6736":"26231"},"geometry":{"type":"Point","coordinates":[13.73972,50.10173]}},{"type":"Feature","properties":{"label:cs":"Zvonice na Husově náměstí v Rakovníku","P31":"http://www.wikidata.org/entity/Q200334","P31^label:cs":"Zvonice","P131^label:cs":"Rakovník","P6736":"18068"},"geometry":{"type":"Point","coordinates":[13.73315,50.10398]}}]}