{"type":"FeatureCollection","features":[{"type":"Feature","properties":{"label:cs":"Kříž severně od Mladého Smolivce","P31":"Pamětní kříž","P31^label:cs":"Pamětní kříž","P131^label:cs":"Mladý Smolivec","P6736":"5804"},"geometry":{"type":"Point","coordinates":[13.74005,49.51261]}},{"type":"Feature","properties":{"label:cs":"Kaplička jižně od Starého Smolivce","P31":"Kaplička","P31^label:cs":"Kaplička","P131^label:cs":"Mladý Smolivec","P6736":"5803"},"geometry":{"type":"Point","coordinates":[13.74772,49.52186]}},{"type":"Feature","properties":{"label:cs":"Pomník padlým ve Starém Smolivci","P31":"Pomník padlým","P31^label:cs":"Pomník padlým","P131^label:cs":"Mladý Smolivec","P6736":"5802"},"geometry":{"type":"Point","coordinates":[13.74866,49.52485]}},{"type":"Feature","properties":{"label:cs":"Smírčí kříž západně od Starého Smolivce","P31":"Smírčí kříž","P31^label:cs":"Smírčí kříž","P131^label:cs":"Mladý Smolivec","P6736":"5801"},"geometry":{"type":"Point","coordinates":[13.73804,49.52509]}},{"type":"Feature","properties":{"label:cs":"Kříž západně od Starého Smolivce","P31":"Pamětní kříž","P31^label:cs":"Pamětní kříž","P131^label:cs":"Mladý Smolivec","P6736":"5800"},"geometry":{"type":"Point","coordinates":[13.73739,49.52459]}},{"type":"Feature","properties":{"label:cs":"Památník bitvy jižně od Radošic","P31":"Památník","P31^label:cs":"Památník","P131^label:cs":"Mladý Smolivec","P6736":"5798"},"geometry":{"type":"Point","coordinates":[13.73341,49.52457]}}]}