{"type":"FeatureCollection","features":[{"type":"Feature","properties":{"label:cs":"Kaplička severozápadně od Kasejovic","P31":"Kaplička","P31^label:cs":"Kaplička","P131^label:cs":"Kasejovice","P6736":"8578"},"geometry":{"type":"Point","coordinates":[13.7345,49.46786]}},{"type":"Feature","properties":{"label:cs":"Kaplička v Kasejovicích u křižovatky","P31":"Kaplička","P31^label:cs":"Kaplička","P131^label:cs":"Kasejovice","P6736":"8576"},"geometry":{"type":"Point","coordinates":[13.7382,49.46622]}},{"type":"Feature","properties":{"label:cs":"Kašna v Kasejovicích","P31":"Kašna","P31^label:cs":"Kašna","P131^label:cs":"Kasejovice","P6736":"8575"},"geometry":{"type":"Point","coordinates":[13.73958,49.46453]}},{"type":"Feature","properties":{"label:cs":"Pomník obětem nacismu v Kasejovicích","P31":"Pomník padlým","P31^label:cs":"Pomník padlým","P131^label:cs":"Kasejovice","P6736":"8574"},"geometry":{"type":"Point","coordinates":[13.73876,49.46337]}},{"type":"Feature","properties":{"label:cs":"Kříž východně od Kasejovic u křižovatky","P31":"Pamětní kříž","P31^label:cs":"Pamětní kříž","P131^label:cs":"Kasejovice","P6736":"8573"},"geometry":{"type":"Point","coordinates":[13.74685,49.45989]}},{"type":"Feature","properties":{"label:cs":"Kříž jižně od Kasejovic u zahrad","P31":"Pamětní kříž","P31^label:cs":"Pamětní kříž","P131^label:cs":"Kasejovice","P6736":"8572"},"geometry":{"type":"Point","coordinates":[13.74621,49.45686]}},{"type":"Feature","properties":{"label:cs":"Kříž v Kasejovicích u zahrady","P31":"Pamětní kříž","P31^label:cs":"Pamětní kříž","P131^label:cs":"Kasejovice","P6736":"8571"},"geometry":{"type":"Point","coordinates":[13.73561,49.46276]}},{"type":"Feature","properties":{"label:cs":"Kříž jižně od Kasejovic u železničního přejezdu","P31":"Pamětní kříž","P31^label:cs":"Pamětní kříž","P131^label:cs":"Kasejovice","P6736":"8570"},"geometry":{"type":"Point","coordinates":[13.73666,49.46129]}},{"type":"Feature","properties":{"label:cs":"Kříž v Kasejovicích u křižovatky","P31":"Pamětní kříž","P31^label:cs":"Pamětní kříž","P131^label:cs":"Kasejovice","P6736":"8569"},"geometry":{"type":"Point","coordinates":[13.73614,49.4643]}},{"type":"Feature","properties":{"label:cs":"Kříž jižně od Kasejovic","P31":"Pamětní kříž","P31^label:cs":"Pamětní kříž","P131^label:cs":"Kasejovice","P6736":"5814"},"geometry":{"type":"Point","coordinates":[13.74244,49.45718]}},{"type":"Feature","properties":{"label:cs":"Kaplička v Kasejovicích u cesty na Lnáře","P31":"Kaplička","P31^label:cs":"Kaplička","P131^label:cs":"Kasejovice","P6736":"5813"},"geometry":{"type":"Point","coordinates":[13.74253,49.46169]}},{"type":"Feature","properties":{"label:cs":"Památník v Kasejovicích na náměstí","P31":"Památník","P31^label:cs":"Památník","P131^label:cs":"Kasejovice","P6736":"5812"},"geometry":{"type":"Point","coordinates":[13.73972,49.46464]}},{"type":"Feature","properties":{"label:cs":"Kříž v Kasejovicích u kostela","P31":"Pamětní kříž","P31^label:cs":"Pamětní kříž","P131^label:cs":"Kasejovice","P6736":"5811"},"geometry":{"type":"Point","coordinates":[13.74015,49.46499]}},{"type":"Feature","properties":{"label:cs":"Kaplička v Kasejovicích před kostelem vpravo od brány","P31":"Kaplička","P31^label:cs":"Kaplička","P131^label:cs":"Kasejovice","P6736":"5810"},"geometry":{"type":"Point","coordinates":[13.74004,49.46493]}},{"type":"Feature","properties":{"label:cs":"Kaplička v Kasejovicích před kostelem vlevo od brány","P31":"Kaplička","P31^label:cs":"Kaplička","P131^label:cs":"Kasejovice","P6736":"5809"},"geometry":{"type":"Point","coordinates":[13.73992,49.46495]}},{"type":"Feature","properties":{"label:cs":"Kříž severovýchodně od Kasejovic","P31":"Pamětní kříž","P31^label:cs":"Pamětní kříž","P131^label:cs":"Kasejovice","P6736":"5808"},"geometry":{"type":"Point","coordinates":[13.7427,49.46535]}}]}