{"type":"FeatureCollection","features":[{"type":"Feature","properties":{"label:cs":"Pomník padlým západně od Zahorčiček","P31":"http://www.wikidata.org/entity/Q575759","P31^label:cs":"Pomník padlým","P131^label:cs":"Hradiště","P6736":"8367"},"geometry":{"type":"Point","coordinates":[13.75653,49.4267]}},{"type":"Feature","properties":{"label:cs":"Kříž západně od Zahorčiček","P31":"http://www.wikidata.org/entity/Q2309609","P31^label:cs":"Pamětní kříž","P131^label:cs":"Hradiště","P6736":"8366"},"geometry":{"type":"Point","coordinates":[13.75709,49.4268]}},{"type":"Feature","properties":{"label:cs":"Kříž severně od Zahorčiček","P31":"http://www.wikidata.org/entity/Q2309609","P31^label:cs":"Pamětní kříž","P131^label:cs":"Hradiště","P6736":"8365"},"geometry":{"type":"Point","coordinates":[13.75788,49.42859]}},{"type":"Feature","properties":{"label:cs":"Kaple v Zahorčičkách","P31":"http://www.wikidata.org/entity/Q108325","P31^label:cs":"Kaple","P131^label:cs":"Hradiště","P6736":"8364"},"geometry":{"type":"Point","coordinates":[13.75851,49.42736]}},{"type":"Feature","properties":{"label:cs":"Kříž u kaple v Zahorčičkách","P31":"http://www.wikidata.org/entity/Q2309609","P31^label:cs":"Pamětní kříž","P131^label:cs":"Hradiště","P6736":"8363"},"geometry":{"type":"Point","coordinates":[13.75856,49.42737]}},{"type":"Feature","properties":{"label:cs":"Kaple ve Hradišti u Kasejovic","P31":"http://www.wikidata.org/entity/Q108325","P31^label:cs":"Kaple","P131^label:cs":"Hradiště","P6736":"5819"},"geometry":{"type":"Point","coordinates":[13.75615,49.43955]}}]}