{"type":"FeatureCollection","features":[{"type":"Feature","properties":{"label:cs":"hraniční kameny mezi Kadovem a Slatinou","P31":"http://www.wikidata.org/entity/Q921099","P31^label:cs":"Hraniční kámen","P131^label:cs":"Slatina","P6736":"20802"},"geometry":{"type":"Point","coordinates":[13.76056,49.39846]}},{"type":"Feature","properties":{"label:cs":"Kříž v Kadově u kostela","P31":"http://www.wikidata.org/entity/Q2309609","P31^label:cs":"Pamětní kříž","P131^label:cs":"Kadov","P6736":"6807"},"geometry":{"type":"Point","coordinates":[13.77481,49.40298]}},{"type":"Feature","properties":{"label:cs":"Pomník padlým v Kadově","P31":"http://www.wikidata.org/entity/Q575759","P31^label:cs":"Pomník padlým","P131^label:cs":"Kadov","P6736":"6806"},"geometry":{"type":"Point","coordinates":[13.77453,49.40288]}},{"type":"Feature","properties":{"label:cs":"Kaplička v Kadově","P31":"http://www.wikidata.org/entity/Q14552192","P31^label:cs":"Kaplička","P131^label:cs":"Kadov","P6736":"6805"},"geometry":{"type":"Point","coordinates":[13.77448,49.4015]}},{"type":"Feature","properties":{"label:cs":"Kříž západně od Kadova na rozcestí","P31":"http://www.wikidata.org/entity/Q2309609","P31^label:cs":"Pamětní kříž","P131^label:cs":"Kadov","P6736":"1685"},"geometry":{"type":"Point","coordinates":[13.77119,49.40242]}},{"type":"Feature","properties":{"label:cs":"Kříž v lese západně od Kadova","P31":"http://www.wikidata.org/entity/Q2309609","P31^label:cs":"Pamětní kříž","P131^label:cs":"Kadov","P6736":"1684"},"geometry":{"type":"Point","coordinates":[13.76106,49.40219]}}]}