{"type":"FeatureCollection","features":[{"type":"Feature","properties":{"label:cs":"Kříž na severním okraji Metel","P31":"http://www.wikidata.org/entity/Q2309609","P31^label:cs":"Pamětní kříž","P131^label:cs":"Předmíř","P6736":"42038"},"geometry":{"type":"Point","coordinates":[13.77002,49.50674]}},{"type":"Feature","properties":{"label:cs":"Kříž na návsi v Metlech","P31":"http://www.wikidata.org/entity/Q2309609","P31^label:cs":"Pamětní kříž","P131^label:cs":"Předmíř","P6736":"7724"},"geometry":{"type":"Point","coordinates":[13.7647,49.5022]}},{"type":"Feature","properties":{"label:cs":"Památník povodně v Metlech","P31":"http://www.wikidata.org/entity/Q5003624","P31^label:cs":"Památník","P131^label:cs":"Předmíř","P6736":"7723"},"geometry":{"type":"Point","coordinates":[13.76413,49.50199]}},{"type":"Feature","properties":{"label:cs":"Boží muka v Metlech u Metelského potoka","P31":"http://www.wikidata.org/entity/Q3395121","P31^label:cs":"Boží muka","P131^label:cs":"Předmíř","P6736":"7722"},"geometry":{"type":"Point","coordinates":[13.76434,49.50181]}},{"type":"Feature","properties":{"label:cs":"Kaple v Metlech","P31":"http://www.wikidata.org/entity/Q108325","P31^label:cs":"Kaple","P131^label:cs":"Předmíř","P6736":"7721"},"geometry":{"type":"Point","coordinates":[13.76403,49.50138]}}]}