{"type":"FeatureCollection","features":[{"type":"Feature","properties":{"label:cs":"Pomník Bohumila Baroše jižně od Cheznovic","P31":"http://www.wikidata.org/entity/Q4989906","P31^label:cs":"Pomník","P131^label:cs":"Cheznovice","P6736":"7169"},"geometry":{"type":"Point","coordinates":[13.7931,49.76958]}},{"type":"Feature","properties":{"label:cs":"Pomník Václava Miloty jižně od Cheznovic","P31":"http://www.wikidata.org/entity/Q4989906","P31^label:cs":"Pomník","P131^label:cs":"Cheznovice","P6736":"7170"},"geometry":{"type":"Point","coordinates":[13.79323,49.76973]}},{"type":"Feature","properties":{"label:cs":"Pomník Vladimíra Čepeláka jižně od Cheznovic","P31":"http://www.wikidata.org/entity/Q4989906","P31^label:cs":"Pomník","P131^label:cs":"Cheznovice","P6736":"7171"},"geometry":{"type":"Point","coordinates":[13.79332,49.76958]}},{"type":"Feature","properties":{"label:cs":"Kaple v Cheznovicích","P31":"http://www.wikidata.org/entity/Q108325","P31^label:cs":"Kaple","P131^label:cs":"Cheznovice","P6736":"13058"},"geometry":{"type":"Point","coordinates":[13.78664,49.77881]}},{"type":"Feature","properties":{"label:cs":"Pomník padlým v Cheznovicích","P31":"http://www.wikidata.org/entity/Q575759","P31^label:cs":"Pomník padlým","P131^label:cs":"Cheznovice","P6736":"13059"},"geometry":{"type":"Point","coordinates":[13.78652,49.77885]}},{"type":"Feature","properties":{"label:cs":"Podstavec východně od Cheznovic","P31":"http://www.wikidata.org/entity/?","P31^label:cs":"Neznámý","P131^label:cs":"Cheznovice","P6736":"13124"},"geometry":{"type":"Point","coordinates":[13.79001,49.78104]}}]}