{"type":"FeatureCollection","features":[{"type":"Feature","properties":{"label:cs":"Boží muka z roku 1708","P31":"http://www.wikidata.org/entity/Q3395121","P31^label:cs":"Boží muka","P131^label:cs":"Dubí","P6736":"12106"},"geometry":{"type":"Point","coordinates":[13.78125,50.66496]}},{"type":"Feature","properties":{"label:cs":"Kaple svatého Jana Nepomuckého v Pozorce","P31":"http://www.wikidata.org/entity/Q108325","P31^label:cs":"Kaple","P131^label:cs":"Dubí","P6736":"15822"},"geometry":{"type":"Point","coordinates":[13.79326,50.66092]}},{"type":"Feature","properties":{"label:cs":"Kaple svatého Huberta ve Mstišově","P31":"http://www.wikidata.org/entity/Q108325","P31^label:cs":"Kaple","P131^label:cs":"Dubí","P6736":"15823"},"geometry":{"type":"Point","coordinates":[13.78113,50.66503]}},{"type":"Feature","properties":{"label:cs":"Kamenný stůl u kaple svatého Huberta ve Mstišově","P31":"http://www.wikidata.org/entity/Q11734477","P31^label:cs":"Památný kámen","P131^label:cs":"Dubí","P6736":"15824"},"geometry":{"type":"Point","coordinates":[13.781,50.66506]}},{"type":"Feature","properties":{"label:cs":"Pomník obětem válek v Sadové ulici v Pozorce","P31":"http://www.wikidata.org/entity/Q4989906","P31^label:cs":"Pomník","P131^label:cs":"Dubí","P6736":"15825"},"geometry":{"type":"Point","coordinates":[13.79343,50.66301]}}]}