{"type":"FeatureCollection","features":[{"type":"Feature","properties":{"label:cs":"Kašna před lázněmi v Dubí","P31":"Kašna","P31^label:cs":"Kašna","P131^label:cs":"Dubí","P6736":"25751"},"geometry":{"type":"Point","coordinates":[13.78426,50.68578]}},{"type":"Feature","properties":{"label:cs":"Socha dívky před lázněmi v Dubí","P31":"Socha","P31^label:cs":"Socha","P131^label:cs":"Dubí","P6736":"25750"},"geometry":{"type":"Point","coordinates":[13.78401,50.68593]}},{"type":"Feature","properties":{"label:cs":"Socha ležící ženy v lázeňském parku v Dubí","P31":"Socha","P31^label:cs":"Socha","P131^label:cs":"Dubí","P6736":"25749"},"geometry":{"type":"Point","coordinates":[13.78361,50.6867]}},{"type":"Feature","properties":{"label:cs":"Socha svatého Huberta na nároží domu v Myslbekově ulici v Dubí u Teplic","P31":"Socha","P31^label:cs":"Socha","P131^label:cs":"Dubí","P6736":"18668"},"geometry":{"type":"Point","coordinates":[13.78281,50.68749]}},{"type":"Feature","properties":{"label:cs":"Památný kámen u Dubí","P31":"Památný kámen","P31^label:cs":"Památný kámen","P131^label:cs":"Dubí","P6736":"12105"},"geometry":{"type":"Point","coordinates":[13.79875,50.69286]}}]}