{"type":"FeatureCollection","features":[{"type":"Feature","properties":{"label:cs":"Kříž severně od Líšné","P31":"http://www.wikidata.org/entity/Q2309609","P31^label:cs":"Pamětní kříž","P131^label:cs":"Líšná","P6736":"4917"},"geometry":{"type":"Point","coordinates":[13.80228,49.88841]}},{"type":"Feature","properties":{"label:cs":"Kříž východně od Líšné","P31":"http://www.wikidata.org/entity/Q2309609","P31^label:cs":"Pamětní kříž","P131^label:cs":"Líšná","P6736":"4916"},"geometry":{"type":"Point","coordinates":[13.80797,49.88399]}},{"type":"Feature","properties":{"label:cs":"Kříž před kostelem v Líšné","P31":"http://www.wikidata.org/entity/Q2309609","P31^label:cs":"Pamětní kříž","P131^label:cs":"Líšná","P6736":"4915"},"geometry":{"type":"Point","coordinates":[13.80472,49.88437]}},{"type":"Feature","properties":{"label:cs":"Pomník padlým v Líšné","P31":"http://www.wikidata.org/entity/Q575759","P31^label:cs":"Pomník padlým","P131^label:cs":"Líšná","P6736":"4914"},"geometry":{"type":"Point","coordinates":[13.80472,49.88431]}},{"type":"Feature","properties":{"label:cs":"Kříž jižně od Líšné","P31":"http://www.wikidata.org/entity/Q2309609","P31^label:cs":"Pamětní kříž","P131^label:cs":"Líšná","P6736":"4913"},"geometry":{"type":"Point","coordinates":[13.80264,49.88335]}}]}