{"type":"FeatureCollection","features":[{"type":"Feature","properties":{"label:cs":"Pamětní deska Rudolfa Szoboszlaye na nádraží v Lounech","P31":"Pamětní deska","P31^label:cs":"Pamětní deska","P131^label:cs":"Louny","P6736":"20222"},"geometry":{"type":"Point","coordinates":[13.82319,50.36108]}},{"type":"Feature","properties":{"label:cs":"Kaplička v Husově ulici z Černčic do Loun","P31":"Kaplička","P31^label:cs":"Kaplička","P131^label:cs":"Černčice","P6736":"20221"},"geometry":{"type":"Point","coordinates":[13.83519,50.36053]}},{"type":"Feature","properties":{"label:cs":"Kaplička u kostela v Černčicích","P31":"Kaplička","P31^label:cs":"Kaplička","P131^label:cs":"Černčice","P6736":"20220"},"geometry":{"type":"Point","coordinates":[13.84265,50.36131]}},{"type":"Feature","properties":{"label:cs":"Kaplička u silnice na severním okraji Černčic","P31":"Kaplička","P31^label:cs":"Kaplička","P131^label:cs":"Černčice","P6736":"20219"},"geometry":{"type":"Point","coordinates":[13.84196,50.36225]}},{"type":"Feature","properties":{"label:cs":"Pomník padlým ve Vršovicích u Loun","P31":"Pomník padlým","P31^label:cs":"Pomník padlým","P131^label:cs":"Vršovice","P6736":"9414"},"geometry":{"type":"Point","coordinates":[13.84235,50.36807]}}]}