{"type":"FeatureCollection","features":[{"type":"Feature","properties":{"label:cs":"Smírčí kříž východně od Újezdce","P31":"http://www.wikidata.org/entity/Q1640496","P31^label:cs":"Smírčí kříž","P131^label:cs":"Bělčice","P6736":"7709"},"geometry":{"type":"Point","coordinates":[13.85243,49.50154]}},{"type":"Feature","properties":{"label:cs":"Kříž východně od Újezdce","P31":"http://www.wikidata.org/entity/Q2309609","P31^label:cs":"Pamětní kříž","P131^label:cs":"Bělčice","P6736":"7708"},"geometry":{"type":"Point","coordinates":[13.8521,49.50145]}},{"type":"Feature","properties":{"label:cs":"Kříž západně od Bělčic u křižovatky","P31":"http://www.wikidata.org/entity/Q2309609","P31^label:cs":"Pamětní kříž","P131^label:cs":"Bělčice","P6736":"7707"},"geometry":{"type":"Point","coordinates":[13.86172,49.50237]}},{"type":"Feature","properties":{"label:cs":"Kříž jihovýchodně od Záhrobí","P31":"http://www.wikidata.org/entity/Q2309609","P31^label:cs":"Pamětní kříž","P131^label:cs":"Bělčice","P6736":"8504"},"geometry":{"type":"Point","coordinates":[13.852,49.50665]}},{"type":"Feature","properties":{"label:cs":"Kříž u kaple v Záhrobí","P31":"http://www.wikidata.org/entity/Q2309609","P31^label:cs":"Pamětní kříž","P131^label:cs":"Bělčice","P6736":"8502"},"geometry":{"type":"Point","coordinates":[13.84892,49.50862]}},{"type":"Feature","properties":{"label:cs":"Kaple v Záhrobí","P31":"http://www.wikidata.org/entity/Q108325","P31^label:cs":"Kaple","P131^label:cs":"Bělčice","P6736":"8501"},"geometry":{"type":"Point","coordinates":[13.84885,49.50864]}}]}