{"type":"FeatureCollection","features":[{"type":"Feature","properties":{"label:cs":"Kříž na Komenského náměstí v Černčicích","P31":"Q2309609","P31^label:cs":"Pamětní kříž","P131^label:cs":"Černčice","P6736":"20218"},"geometry":{"type":"Point","coordinates":[13.84407,50.36266]}},{"type":"Feature","properties":{"label:cs":"Pomník osvobození na Václavském náměstí v Černčicích","P31":"Q4989906","P31^label:cs":"Pomník","P131^label:cs":"Černčice","P6736":"20217"},"geometry":{"type":"Point","coordinates":[13.84482,50.36118]}},{"type":"Feature","properties":{"label:cs":"Pomník obětem okupace 1939-1945 na Masarykově náměstí v Černčicích","P31":"Q4989906","P31^label:cs":"Pomník","P131^label:cs":"Černčice","P6736":"20216"},"geometry":{"type":"Point","coordinates":[13.84816,50.36145]}},{"type":"Feature","properties":{"label:cs":"Pomník padlým v Oboře u Loun","P31":"Q575759","P31^label:cs":"Pomník padlým","P131^label:cs":"Obora","P6736":"9430"},"geometry":{"type":"Point","coordinates":[13.86291,50.37312]}},{"type":"Feature","properties":{"label:cs":"Pomník padlým v Oboře","P31":"Q575759","P31^label:cs":"Pomník padlým","P131^label:cs":"Obora","P6736":"9429"},"geometry":{"type":"Point","coordinates":[13.863,50.37311]}},{"type":"Feature","properties":{"label:cs":"Památník osvobození v Oboře","P31":"Q5003624","P31^label:cs":"Památník","P131^label:cs":"Obora","P6736":"9428"},"geometry":{"type":"Point","coordinates":[13.86122,50.37261]}},{"type":"Feature","properties":{"label:cs":"Kříž před Oborou u silnice","P31":"Q2309609","P31^label:cs":"Pamětní kříž","P131^label:cs":"Obora","P6736":"9427"},"geometry":{"type":"Point","coordinates":[13.85831,50.37032]}}]}