{"type":"FeatureCollection","features":[{"type":"Feature","properties":{"label:cs":"Kříž v Rožmitálu pod Třemšínem v Čelakovské-Rajské ulici","P31":"http://www.wikidata.org/entity/Q2309609","P31^label:cs":"Pamětní kříž","P131^label:cs":"Rožmitál pod Třemšínem","P6736":"10477"},"geometry":{"type":"Point","coordinates":[13.87487,49.60249]}},{"type":"Feature","properties":{"label:cs":"Kříž v Rožmitálu pod Třemšínem v Palackého ulici u křižovatky","P31":"http://www.wikidata.org/entity/Q2309609","P31^label:cs":"Pamětní kříž","P131^label:cs":"Rožmitál pod Třemšínem","P6736":"10476"},"geometry":{"type":"Point","coordinates":[13.86944,49.60019]}},{"type":"Feature","properties":{"label:cs":"Pomník padlým v Rožmitálu pod Třemšínem","P31":"http://www.wikidata.org/entity/Q575759","P31^label:cs":"Pomník padlým","P131^label:cs":"Rožmitál pod Třemšínem","P6736":"10475"},"geometry":{"type":"Point","coordinates":[13.8675,49.60093]}},{"type":"Feature","properties":{"label:cs":"Kašna v Rožmitálu pod Třemšínem v parku","P31":"http://www.wikidata.org/entity/Q12029081","P31^label:cs":"Kašna","P131^label:cs":"Rožmitál pod Třemšínem","P6736":"10474"},"geometry":{"type":"Point","coordinates":[13.86643,49.60121]}},{"type":"Feature","properties":{"label:cs":"Socha svatého Václava v Rožmitálu pod Třemšínem","P31":"http://www.wikidata.org/entity/Q179700","P31^label:cs":"Socha","P131^label:cs":"Rožmitál pod Třemšínem","P6736":"10473"},"geometry":{"type":"Point","coordinates":[13.86536,49.60192]}},{"type":"Feature","properties":{"label:cs":"Socha svatého Jana Nepomuckého v Rožmitále pod Třemšínem","P31":"http://www.wikidata.org/entity/Q179700","P31^label:cs":"Socha","P131^label:cs":"Rožmitál pod Třemšínem","P6736":"10472"},"geometry":{"type":"Point","coordinates":[13.86533,49.60185]}}]}