{"type":"FeatureCollection","features":[{"type":"Feature","properties":{"label:cs":"Památník významných událostí města v Blatné","P31":"Q5003624","P31^label:cs":"Památník","P131^label:cs":"Blatná","P6736":"8510"},"geometry":{"type":"Point","coordinates":[13.88268,49.42681]}},{"type":"Feature","properties":{"label:cs":"Plastika v Blatné v třídě J. P. Koubka","P31":"Q12045520","P31^label:cs":"Plastika","P131^label:cs":"Blatná","P6736":"8509"},"geometry":{"type":"Point","coordinates":[13.8827,49.42724]}},{"type":"Feature","properties":{"label:cs":"Památník Jana Amose Komenského v Blatné","P31":"Q5003624","P31^label:cs":"Památník","P131^label:cs":"Blatná","P6736":"8483"},"geometry":{"type":"Point","coordinates":[13.88426,49.42664]}},{"type":"Feature","properties":{"label:cs":"Kříž v Blatné u Spálené ulice","P31":"Q2309609","P31^label:cs":"Pamětní kříž","P131^label:cs":"Blatná","P6736":"8482"},"geometry":{"type":"Point","coordinates":[13.88485,49.42677]}},{"type":"Feature","properties":{"label:cs":"Památník v Husových sadech v Blatné","P31":"Q5003624","P31^label:cs":"Památník","P131^label:cs":"Blatná","P6736":"8345"},"geometry":{"type":"Point","coordinates":[13.87752,49.43032]}},{"type":"Feature","properties":{"label:cs":"Socha svatého Václava v Blatné","P31":"Q179700","P31^label:cs":"Socha","P131^label:cs":"Blatná","P6736":"7636"},"geometry":{"type":"Point","coordinates":[13.8751,49.4308]}},{"type":"Feature","properties":{"label:cs":"Smírčí kříž v Blatné u potoka","P31":"Q1640496","P31^label:cs":"Smírčí kříž","P131^label:cs":"Blatná","P6736":"7635"},"geometry":{"type":"Point","coordinates":[13.87799,49.42831]}}]}