{"type":"FeatureCollection","features":[{"type":"Feature","properties":{"label:cs":"Pomník padlým na hřbitově ve Lštění","P31":"http://www.wikidata.org/entity/Q575759","P31^label:cs":"Pomník padlým","P131^label:cs":"Radhostice","P6736":"16287"},"geometry":{"type":"Point","coordinates":[13.88048,49.0692]}},{"type":"Feature","properties":{"label:cs":"Kaple svatého Vojtěcha ve Lštění jižně od kostela","P31":"http://www.wikidata.org/entity/Q108325","P31^label:cs":"Kaple","P131^label:cs":"Radhostice","P6736":"16288"},"geometry":{"type":"Point","coordinates":[13.88076,49.06771]}},{"type":"Feature","properties":{"label:cs":"Kaple Panny Marie Klatovské v ohradní zdi hřbitova ve Lštění","P31":"http://www.wikidata.org/entity/Q108325","P31^label:cs":"Kaple","P131^label:cs":"Radhostice","P6736":"16289"},"geometry":{"type":"Point","coordinates":[13.88058,49.06922]}},{"type":"Feature","properties":{"label:cs":"Kaple Nanebevzetí Panny Marie nad kostelem ve Lštění","P31":"http://www.wikidata.org/entity/Q108325","P31^label:cs":"Kaple","P131^label:cs":"Radhostice","P6736":"16292"},"geometry":{"type":"Point","coordinates":[13.87925,49.06886]}},{"type":"Feature","properties":{"label:cs":"Kříž u jižní hřbitovní zdi ve Lštění","P31":"http://www.wikidata.org/entity/Q2309609","P31^label:cs":"Pamětní kříž","P131^label:cs":"Radhostice","P6736":"16293"},"geometry":{"type":"Point","coordinates":[13.88003,49.06887]}},{"type":"Feature","properties":{"label:cs":"Kříž při západním okraji Lštění","P31":"http://www.wikidata.org/entity/Q2309609","P31^label:cs":"Pamětní kříž","P131^label:cs":"Radhostice","P6736":"16296"},"geometry":{"type":"Point","coordinates":[13.87589,49.06816]}},{"type":"Feature","properties":{"label:cs":"Kříž západně od Lštění","P31":"http://www.wikidata.org/entity/Q2309609","P31^label:cs":"Pamětní kříž","P131^label:cs":"Radhostice","P6736":"16303"},"geometry":{"type":"Point","coordinates":[13.87158,49.06981]}},{"type":"Feature","properties":{"label:cs":"Kříž ve Lštění u bývalé školy","P31":"http://www.wikidata.org/entity/Q2309609","P31^label:cs":"Pamětní kříž","P131^label:cs":"Radhostice","P6736":"18105"},"geometry":{"type":"Point","coordinates":[13.8779,49.06771]}}]}