{"type":"FeatureCollection","features":[{"type":"Feature","properties":{"label:cs":"Kaplička severozápadně od Bělčic","P31":"Q14552192","P31^label:cs":"Kaplička","P131^label:cs":"Bělčice","P6736":"8505"},"geometry":{"type":"Point","coordinates":[13.8696,49.50549]}},{"type":"Feature","properties":{"label:cs":"Kříž v Bělčicích u křižovatky","P31":"Q2309609","P31^label:cs":"Pamětní kříž","P131^label:cs":"Bělčice","P6736":"8476"},"geometry":{"type":"Point","coordinates":[13.86965,49.50282]}},{"type":"Feature","properties":{"label:cs":"Kříž západně od Bělčic u zahrad","P31":"Q2309609","P31^label:cs":"Pamětní kříž","P131^label:cs":"Bělčice","P6736":"8475"},"geometry":{"type":"Point","coordinates":[13.86532,49.50211]}},{"type":"Feature","properties":{"label:cs":"Kříž v Bělčicích v Rožmitálské ulici","P31":"Q2309609","P31^label:cs":"Pamětní kříž","P131^label:cs":"Bělčice","P6736":"8474"},"geometry":{"type":"Point","coordinates":[13.87515,49.50708]}},{"type":"Feature","properties":{"label:cs":"Kříž v Bělčicích v parku","P31":"Q2309609","P31^label:cs":"Pamětní kříž","P131^label:cs":"Bělčice","P6736":"8473"},"geometry":{"type":"Point","coordinates":[13.88343,49.50316]}},{"type":"Feature","properties":{"label:cs":"Kříž jihovýchodně od Bělčic u zahrady","P31":"Q2309609","P31^label:cs":"Pamětní kříž","P131^label:cs":"Bělčice","P6736":"8472"},"geometry":{"type":"Point","coordinates":[13.88622,49.50153]}},{"type":"Feature","properties":{"label:cs":"Kříž jihovýchodně od Bělčic u okraje lesa","P31":"Q2309609","P31^label:cs":"Pamětní kříž","P131^label:cs":"Bělčice","P6736":"8471"},"geometry":{"type":"Point","coordinates":[13.88594,49.49984]}},{"type":"Feature","properties":{"label:cs":"Kříž u remízku jihovýchodně od Bělčic","P31":"Q2309609","P31^label:cs":"Pamětní kříž","P131^label:cs":"Bělčice","P6736":"8469"},"geometry":{"type":"Point","coordinates":[13.88283,49.49735]}},{"type":"Feature","properties":{"label:cs":"Pluh jižně od Bělčic","P31":"Q5003624","P31^label:cs":"Památník","P131^label:cs":"Bělčice","P6736":"8468"},"geometry":{"type":"Point","coordinates":[13.87481,49.49866]}},{"type":"Feature","properties":{"label:cs":"Socha svaté Barbory v Bělčicích","P31":"Q179700","P31^label:cs":"Socha","P131^label:cs":"Bělčice","P6736":"8467"},"geometry":{"type":"Point","coordinates":[13.87366,49.50323]}},{"type":"Feature","properties":{"label:cs":"Kašna na náměstí v Bělčicích","P31":"Q12029081","P31^label:cs":"Kašna","P131^label:cs":"Bělčice","P6736":"8465"},"geometry":{"type":"Point","coordinates":[13.87623,49.50251]}},{"type":"Feature","properties":{"label:cs":"Kříž východně od Bělčic u zahrad","P31":"Q2309609","P31^label:cs":"Pamětní kříž","P131^label:cs":"Bělčice","P6736":"8463"},"geometry":{"type":"Point","coordinates":[13.88605,49.50226]}},{"type":"Feature","properties":{"label:cs":"Pomník padlým v Bělčicích","P31":"Q575759","P31^label:cs":"Pomník padlým","P131^label:cs":"Bělčice","P6736":"8008"},"geometry":{"type":"Point","coordinates":[13.87475,49.50304]}},{"type":"Feature","properties":{"label:cs":"Socha svatého Jana Nepomuckého v Bělčicích","P31":"Q179700","P31^label:cs":"Socha","P131^label:cs":"Bělčice","P6736":"7706"},"geometry":{"type":"Point","coordinates":[13.87657,49.50241]}},{"type":"Feature","properties":{"label:cs":"Kříž jižně od Bělčic","P31":"Q2309609","P31^label:cs":"Pamětní kříž","P131^label:cs":"Bělčice","P6736":"1219"},"geometry":{"type":"Point","coordinates":[13.87505,49.49928]}}]}