{"type":"FeatureCollection","features":[{"type":"Feature","properties":{"label:cs":"Litinový kříž před kostelem v Mrtníku","P31":"http://www.wikidata.org/entity/Q2309609","P31^label:cs":"Pamětní kříž","P131^label:cs":"Hvozdec","P6736":"14196"},"geometry":{"type":"Point","coordinates":[13.87268,49.80043]}},{"type":"Feature","properties":{"label:cs":"Dřevěný kříž před kostelem v Mrtníku","P31":"http://www.wikidata.org/entity/Q2309609","P31^label:cs":"Pamětní kříž","P131^label:cs":"Hvozdec","P6736":"14197"},"geometry":{"type":"Point","coordinates":[13.87264,49.80029]}},{"type":"Feature","properties":{"label:cs":"Kaplička na hřbitově v Mrtníku","P31":"http://www.wikidata.org/entity/Q14552192","P31^label:cs":"Kaplička","P131^label:cs":"Hvozdec","P6736":"14200"},"geometry":{"type":"Point","coordinates":[13.87317,49.80037]}},{"type":"Feature","properties":{"label:cs":"Boží muka pod kostelem v Mrtníku","P31":"http://www.wikidata.org/entity/Q3395121","P31^label:cs":"Boží muka","P131^label:cs":"Hvozdec","P6736":"14219"},"geometry":{"type":"Point","coordinates":[13.8745,49.80056]}},{"type":"Feature","properties":{"label:cs":"Kříž mezi Hvozdcem a Mrtníkem","P31":"http://www.wikidata.org/entity/Q2309609","P31^label:cs":"Pamětní kříž","P131^label:cs":"Hvozdec","P6736":"14263"},"geometry":{"type":"Point","coordinates":[13.87518,49.80292]}},{"type":"Feature","properties":{"label:cs":"Pomník padlým ve Hvozdci","P31":"http://www.wikidata.org/entity/Q575759","P31^label:cs":"Pomník padlým","P131^label:cs":"Hvozdec","P6736":"14264"},"geometry":{"type":"Point","coordinates":[13.87896,49.80714]}},{"type":"Feature","properties":{"label:cs":"Kříž u kaple ve Hvozdci","P31":"http://www.wikidata.org/entity/Q2309609","P31^label:cs":"Pamětní kříž","P131^label:cs":"Hvozdec","P6736":"14265"},"geometry":{"type":"Point","coordinates":[13.87874,49.80922]}},{"type":"Feature","properties":{"label:cs":"Kaple ve Hvozdci","P31":"http://www.wikidata.org/entity/Q108325","P31^label:cs":"Kaple","P131^label:cs":"Hvozdec","P6736":"14266"},"geometry":{"type":"Point","coordinates":[13.87872,49.8092]}}]}