{"type":"FeatureCollection","features":[{"type":"Feature","properties":{"label:cs":"Pamětní deska Tomáše Háka na domě třída J. P. Koubka č. 81 v Blatné","P31":"http://www.wikidata.org/entity/Q721747","P31^label:cs":"Pamětní deska","P131^label:cs":"Blatná","P6736":"42190"},"geometry":{"type":"Point","coordinates":[13.88284,49.42733]}},{"type":"Feature","properties":{"label:cs":"Pamětní deska Karla Strakatého na domě třída J. P. Koubka č. 87 v Blatné","P31":"http://www.wikidata.org/entity/Q721747","P31^label:cs":"Pamětní deska","P131^label:cs":"Blatná","P6736":"42189"},"geometry":{"type":"Point","coordinates":[13.88271,49.42651]}},{"type":"Feature","properties":{"label:cs":"Pamětní deska Jana Pravoslova Koubka na domě třída J. P. Koubka č. 240 v Blatné","P31":"http://www.wikidata.org/entity/Q721747","P31^label:cs":"Pamětní deska","P131^label:cs":"Blatná","P6736":"42188"},"geometry":{"type":"Point","coordinates":[13.88263,49.4264]}},{"type":"Feature","properties":{"label:cs":"Pamětní deska Jana Pravoslova Koubka na domě třída J. P. Koubka č. 12 v Blatné","P31":"http://www.wikidata.org/entity/Q721747","P31^label:cs":"Pamětní deska","P131^label:cs":"Blatná","P6736":"42187"},"geometry":{"type":"Point","coordinates":[13.88207,49.42618]}},{"type":"Feature","properties":{"label:cs":"Socha Matky s dítětem v Blatné","P31":"http://www.wikidata.org/entity/Q179700","P31^label:cs":"Socha","P131^label:cs":"Blatná","P6736":"42183"},"geometry":{"type":"Point","coordinates":[13.8821,49.42582]}},{"type":"Feature","properties":{"label:cs":"Kašna na třídě J. P. Koubka v Blatné","P31":"http://www.wikidata.org/entity/Q12029081","P31^label:cs":"Kašna","P131^label:cs":"Blatná","P6736":"42181"},"geometry":{"type":"Point","coordinates":[13.88266,49.42702]}},{"type":"Feature","properties":{"label:cs":"Plastika v Blatné v třídě J. P. Koubka","P31":"http://www.wikidata.org/entity/Q12045520","P31^label:cs":"Plastika","P131^label:cs":"Blatná","P6736":"8509"},"geometry":{"type":"Point","coordinates":[13.8827,49.42724]}},{"type":"Feature","properties":{"label:cs":"Památník významných událostí města v Blatné","P31":"http://www.wikidata.org/entity/Q5003624","P31^label:cs":"Památník","P131^label:cs":"Blatná","P6736":"8510"},"geometry":{"type":"Point","coordinates":[13.88268,49.42681]}},{"type":"Feature","properties":{"label:cs":"Památník Jana Amose Komenského v Blatné","P31":"http://www.wikidata.org/entity/Q5003624","P31^label:cs":"Památník","P131^label:cs":"Blatná","P6736":"8483"},"geometry":{"type":"Point","coordinates":[13.88426,49.42664]}},{"type":"Feature","properties":{"label:cs":"Kříž v Blatné u Spálené ulice","P31":"http://www.wikidata.org/entity/Q2309609","P31^label:cs":"Pamětní kříž","P131^label:cs":"Blatná","P6736":"8482"},"geometry":{"type":"Point","coordinates":[13.88485,49.42677]}},{"type":"Feature","properties":{"label:cs":"Památník v Husových sadech v Blatné","P31":"http://www.wikidata.org/entity/Q5003624","P31^label:cs":"Památník","P131^label:cs":"Blatná","P6736":"8345"},"geometry":{"type":"Point","coordinates":[13.87752,49.43032]}},{"type":"Feature","properties":{"label:cs":"Socha svatého Václava v Blatné","P31":"http://www.wikidata.org/entity/Q179700","P31^label:cs":"Socha","P131^label:cs":"Blatná","P6736":"7636"},"geometry":{"type":"Point","coordinates":[13.8751,49.4308]}},{"type":"Feature","properties":{"label:cs":"Smírčí kříž v Blatné u potoka","P31":"http://www.wikidata.org/entity/Q1640496","P31^label:cs":"Smírčí kříž","P131^label:cs":"Blatná","P6736":"7635"},"geometry":{"type":"Point","coordinates":[13.87799,49.42831]}}]}