{"type":"FeatureCollection","features":[{"type":"Feature","properties":{"label:cs":"Kaple Navštívení Panny Marie západně od Slavětína","P31":"Q108325","P31^label:cs":"Kaple","P131^label:cs":"Slavětín","P6736":"20209"},"geometry":{"type":"Point","coordinates":[13.90106,50.34789]}},{"type":"Feature","properties":{"label:cs":"Kříž u polní cesty západně od Slavětína","P31":"Q2309609","P31^label:cs":"Pamětní kříž","P131^label:cs":"Slavětín","P6736":"20207"},"geometry":{"type":"Point","coordinates":[13.90307,50.34954]}},{"type":"Feature","properties":{"label:cs":"Socha svatého Jana Nepomuckého na Svatojánském náměstí ve Slavětíně","P31":"Q179700","P31^label:cs":"Socha","P131^label:cs":"Slavětín","P6736":"20205"},"geometry":{"type":"Point","coordinates":[13.90665,50.35009]}},{"type":"Feature","properties":{"label:cs":"Pamětní busta Konstantina Biebla na rodném domě v Slavětíně","P31":"Q4989906","P31^label:cs":"Pomník","P131^label:cs":"Slavětín","P6736":"20203"},"geometry":{"type":"Point","coordinates":[13.90655,50.35074]}},{"type":"Feature","properties":{"label:cs":"Masarykův pomník v Slavětíně","P31":"Q4989906","P31^label:cs":"Pomník","P131^label:cs":"Slavětín","P6736":"20201"},"geometry":{"type":"Point","coordinates":[13.90709,50.35178]}},{"type":"Feature","properties":{"label:cs":"Menhir zvaný Baba u polní cesty severně od Slavětína","P31":"Q193475","P31^label:cs":"Menhir","P131^label:cs":"Slavětín","P6736":"20199"},"geometry":{"type":"Point","coordinates":[13.89843,50.35561]}}]}