{"type":"FeatureCollection","features":[{"type":"Feature","properties":{"label:cs":"Hrobka hrabat Schaumburgů z Hanau na hřbitově v Hořovicích","P31":"http://www.wikidata.org/entity/?","P31^label:cs":"Něco jiného","P131^label:cs":"Hořovice","P6736":"35257"},"geometry":{"type":"Point","coordinates":[13.91618,49.83584]}},{"type":"Feature","properties":{"label:cs":"Hrobka hrabat z Vrbna na hřbitově v Hořovicích","P31":"http://www.wikidata.org/entity/?","P31^label:cs":"Něco jiného","P131^label:cs":"Hořovice","P6736":"35256"},"geometry":{"type":"Point","coordinates":[13.91551,49.83593]}},{"type":"Feature","properties":{"label:cs":"Pomník Václava rytíře Rosenbauma v Hořovicích","P31":"http://www.wikidata.org/entity/Q4989906","P31^label:cs":"Pomník","P131^label:cs":"Hořovice","P6736":"14282"},"geometry":{"type":"Point","coordinates":[13.91536,49.83589]}},{"type":"Feature","properties":{"label:cs":"Kříž u Příbramské ulice v Hořovicích","P31":"http://www.wikidata.org/entity/Q2309609","P31^label:cs":"Pamětní kříž","P131^label:cs":"Hořovice","P6736":"14281"},"geometry":{"type":"Point","coordinates":[13.91375,49.83549]}},{"type":"Feature","properties":{"label:cs":"Kříž u zdi kostela svatého Jiljí v Hořovicích","P31":"http://www.wikidata.org/entity/Q2309609","P31^label:cs":"Pamětní kříž","P131^label:cs":"Hořovice","P6736":"14274"},"geometry":{"type":"Point","coordinates":[13.9101,49.83584]}},{"type":"Feature","properties":{"label:cs":"Kříž u kostela svatého Jiljí v Hořovicích","P31":"http://www.wikidata.org/entity/Q2309609","P31^label:cs":"Pamětní kříž","P131^label:cs":"Hořovice","P6736":"14273"},"geometry":{"type":"Point","coordinates":[13.90993,49.83594]}},{"type":"Feature","properties":{"label:cs":"Socha svatého Rocha u kostela svatého Jiljí v Hořovicích","P31":"http://www.wikidata.org/entity/Q179700","P31^label:cs":"Socha","P131^label:cs":"Hořovice","P6736":"14272"},"geometry":{"type":"Point","coordinates":[13.90986,49.83615]}}]}