{"type":"FeatureCollection","features":[{"type":"Feature","properties":{"label:cs":"Kříž při cestě mezi Uzenicemi a Choboten","P31":"http://www.wikidata.org/entity/Q2309609","P31^label:cs":"Pamětní kříž","P131^label:cs":"Uzenice","P6736":"41341"},"geometry":{"type":"Point","coordinates":[13.94509,49.4696]}},{"type":"Feature","properties":{"label:cs":"Kříž severozápadně od Černívska II","P31":"http://www.wikidata.org/entity/Q2309609","P31^label:cs":"Pamětní kříž","P131^label:cs":"Uzeničky","P6736":"8452"},"geometry":{"type":"Point","coordinates":[13.93079,49.47673]}},{"type":"Feature","properties":{"label:cs":"Kříž severozápadně od Černívska","P31":"http://www.wikidata.org/entity/Q2309609","P31^label:cs":"Pamětní kříž","P131^label:cs":"Uzeničky","P6736":"8451"},"geometry":{"type":"Point","coordinates":[13.93089,49.47668]}},{"type":"Feature","properties":{"label:cs":"Kříž jižně od Černívska","P31":"http://www.wikidata.org/entity/Q2309609","P31^label:cs":"Pamětní kříž","P131^label:cs":"Uzeničky","P6736":"8449"},"geometry":{"type":"Point","coordinates":[13.93505,49.47455]}},{"type":"Feature","properties":{"label:cs":"Kříž u kostela v Černívsku","P31":"http://www.wikidata.org/entity/Q2309609","P31^label:cs":"Pamětní kříž","P131^label:cs":"Uzeničky","P6736":"8448"},"geometry":{"type":"Point","coordinates":[13.93582,49.4754]}}]}