{"type":"FeatureCollection","features":[{"type":"Feature","properties":{"label:cs":"Pomník padlým z války 1866 na hřbitově v Chabařovicích","P31":"http://www.wikidata.org/entity/Q575759","P31^label:cs":"Pomník padlým","P131^label:cs":"Chabařovice","P6736":"32931"},"geometry":{"type":"Point","coordinates":[13.94267,50.67134]}},{"type":"Feature","properties":{"label:cs":"Smírčí kříže v zahradě knihovny v Chabařovicích","P31":"http://www.wikidata.org/entity/Q1640496","P31^label:cs":"Smírčí kříž","P131^label:cs":"Chabařovice","P6736":"20759"},"geometry":{"type":"Point","coordinates":[13.94349,50.67183]}},{"type":"Feature","properties":{"label:cs":"Masarykův pomník v parku v Masarykově ulici v Chabařovicích","P31":"http://www.wikidata.org/entity/Q4989906","P31^label:cs":"Pomník","P131^label:cs":"Chabařovice","P6736":"15221"},"geometry":{"type":"Point","coordinates":[13.93863,50.67736]}},{"type":"Feature","properties":{"label:cs":"Kříž v ulici Marie Kršňákové v Chabařovicích","P31":"http://www.wikidata.org/entity/Q2309609","P31^label:cs":"Pamětní kříž","P131^label:cs":"Chabařovice","P6736":"14609"},"geometry":{"type":"Point","coordinates":[13.94245,50.67566]}},{"type":"Feature","properties":{"label:cs":"Smírčí kříž v zahradě domu v Nádražní ulici v Chabařovicích","P31":"http://www.wikidata.org/entity/Q1640496","P31^label:cs":"Smírčí kříž","P131^label:cs":"Chabařovice","P6736":"14608"},"geometry":{"type":"Point","coordinates":[13.93709,50.67387]}},{"type":"Feature","properties":{"label:cs":"Kříž v Ústecké ulici v Chabařovicích","P31":"http://www.wikidata.org/entity/Q2309609","P31^label:cs":"Pamětní kříž","P131^label:cs":"Chabařovice","P6736":"14607"},"geometry":{"type":"Point","coordinates":[13.94816,50.67179]}},{"type":"Feature","properties":{"label:cs":"Kříž v Nádražní ulici v Chabařovicích","P31":"http://www.wikidata.org/entity/Q2309609","P31^label:cs":"Pamětní kříž","P131^label:cs":"Chabařovice","P6736":"14606"},"geometry":{"type":"Point","coordinates":[13.93564,50.67292]}},{"type":"Feature","properties":{"label:cs":"Kaple na hřbitově v Chabařovicích","P31":"http://www.wikidata.org/entity/Q108325","P31^label:cs":"Kaple","P131^label:cs":"Chabařovice","P6736":"14605"},"geometry":{"type":"Point","coordinates":[13.94291,50.67119]}},{"type":"Feature","properties":{"label:cs":"Památník vítězství husitů v bitvě 1426","P31":"http://www.wikidata.org/entity/Q5003624","P31^label:cs":"Památník","P131^label:cs":"Chabařovice","P6736":"14604"},"geometry":{"type":"Point","coordinates":[13.951,50.67018]}},{"type":"Feature","properties":{"label:cs":"Kaple svatého Jana Křtitele v Chabařovicích","P31":"http://www.wikidata.org/entity/Q108325","P31^label:cs":"Kaple","P131^label:cs":"Chabařovice","P6736":"14603"},"geometry":{"type":"Point","coordinates":[13.9516,50.67018]}},{"type":"Feature","properties":{"label:cs":"Pomník Fridricha Schöna na místě bývalého dolu Fridrich II","P31":"http://www.wikidata.org/entity/Q4989906","P31^label:cs":"Pomník","P131^label:cs":"Chabařovice","P6736":"13473"},"geometry":{"type":"Point","coordinates":[13.93126,50.67488]}},{"type":"Feature","properties":{"label:cs":"Socha svatého Jana Nepomuckého u kostela na Husově náměstí v Chabařovicích","P31":"http://www.wikidata.org/entity/Q179700","P31^label:cs":"Socha","P131^label:cs":"Chabařovice","P6736":"13472"},"geometry":{"type":"Point","coordinates":[13.94316,50.67281]}},{"type":"Feature","properties":{"label:cs":"Mariánský sloup na Husově náměstí v Chabařovicích","P31":"http://www.wikidata.org/entity/Q4817","P31^label:cs":"Sloup","P131^label:cs":"Chabařovice","P6736":"13471"},"geometry":{"type":"Point","coordinates":[13.94202,50.67292]}},{"type":"Feature","properties":{"label:cs":"Pomník Antonu Güttlerovi padlému v bitvě 1813","P31":"http://www.wikidata.org/entity/Q575759","P31^label:cs":"Pomník padlým","P131^label:cs":"Chabařovice","P6736":"9450"},"geometry":{"type":"Point","coordinates":[13.94236,50.6714]}},{"type":"Feature","properties":{"label:cs":"Pomník padlým rudoarmějcům v Chabařovicích","P31":"http://www.wikidata.org/entity/Q575759","P31^label:cs":"Pomník padlým","P131^label:cs":"Chabařovice","P6736":"9449"},"geometry":{"type":"Point","coordinates":[13.9426,50.67136]}},{"type":"Feature","properties":{"label:cs":"Pomník padlým v Chabařovicích","P31":"http://www.wikidata.org/entity/Q575759","P31^label:cs":"Pomník padlým","P131^label:cs":"Chabařovice","P6736":"9448"},"geometry":{"type":"Point","coordinates":[13.94228,50.67147]}}]}