{"type":"FeatureCollection","features":[{"type":"Feature","properties":{"label:cs":"Kříž jižně od Litochovic","P31":"http://www.wikidata.org/entity/Q2309609","P31^label:cs":"Pamětní kříž","P131^label:cs":"Litochovice","P6736":"17618"},"geometry":{"type":"Point","coordinates":[13.93511,49.15177]}},{"type":"Feature","properties":{"label:cs":"Návesní kaple svatého Jana Nepomuckého v Marčovicích","P31":"http://www.wikidata.org/entity/Q108325","P31^label:cs":"Kaple","P131^label:cs":"Předslavice","P6736":"17595"},"geometry":{"type":"Point","coordinates":[13.94559,49.13866]}},{"type":"Feature","properties":{"label:cs":"Kříž u návesní kaple v Marčovicích","P31":"http://www.wikidata.org/entity/Q2309609","P31^label:cs":"Pamětní kříž","P131^label:cs":"Předslavice","P6736":"17596"},"geometry":{"type":"Point","coordinates":[13.94563,49.13863]}},{"type":"Feature","properties":{"label:cs":"Boží muka nad křižovatkou starých úvozových cest západně od Marčovic","P31":"http://www.wikidata.org/entity/Q3395121","P31^label:cs":"Boží muka","P131^label:cs":"Předslavice","P6736":"17598"},"geometry":{"type":"Point","coordinates":[13.93865,49.13914]}},{"type":"Feature","properties":{"label:cs":"Pamětní deska Františka Teplého v Marčovicích čp. 5","P31":"http://www.wikidata.org/entity/Q721747","P31^label:cs":"Pamětní deska","P131^label:cs":"Předslavice","P6736":"17599"},"geometry":{"type":"Point","coordinates":[13.94548,49.1389]}},{"type":"Feature","properties":{"label:cs":"Kříž severozápadně od Marčovic","P31":"http://www.wikidata.org/entity/Q2309609","P31^label:cs":"Pamětní kříž","P131^label:cs":"Předslavice","P6736":"17616"},"geometry":{"type":"Point","coordinates":[13.9402,49.14613]}}]}