{"type":"FeatureCollection","features":[{"type":"Feature","properties":{"label:cs":"Pamětní deska Jaroslava Stehlíka v Hořešovicích","P31":"http://www.wikidata.org/entity/Q721747","P31^label:cs":"Pamětní deska","P131^label:cs":"Hořešovice","P6736":"40104"},"geometry":{"type":"Point","coordinates":[13.96619,50.27007]}},{"type":"Feature","properties":{"label:cs":"Pamětní deska Václava Vernera v Hořešovicích","P31":"http://www.wikidata.org/entity/Q721747","P31^label:cs":"Pamětní deska","P131^label:cs":"Hořešovice","P6736":"40103"},"geometry":{"type":"Point","coordinates":[13.96737,50.27016]}},{"type":"Feature","properties":{"label:cs":"Výklenková kaplička v Hořešovicích","P31":"http://www.wikidata.org/entity/Q14552192","P31^label:cs":"Kaplička","P131^label:cs":"Hořešovice","P6736":"40102"},"geometry":{"type":"Point","coordinates":[13.96806,50.27042]}},{"type":"Feature","properties":{"label:cs":"Pomník obětem 2. světové války v Hořešovicích","P31":"http://www.wikidata.org/entity/Q4989906","P31^label:cs":"Pomník","P131^label:cs":"Hořešovice","P6736":"40101"},"geometry":{"type":"Point","coordinates":[13.96643,50.27154]}},{"type":"Feature","properties":{"label:cs":"Pomník padlým v Hořešovicích","P31":"http://www.wikidata.org/entity/Q575759","P31^label:cs":"Pomník padlým","P131^label:cs":"Hořešovice","P6736":"40100"},"geometry":{"type":"Point","coordinates":[13.9664,50.27152]}},{"type":"Feature","properties":{"label:cs":"Zvonice u kostela v Hořešovicích","P31":"http://www.wikidata.org/entity/Q200334","P31^label:cs":"Zvonice","P131^label:cs":"Hořešovice","P6736":"40099"},"geometry":{"type":"Point","coordinates":[13.96708,50.27193]}},{"type":"Feature","properties":{"label:cs":"Centrální kříž hřbitova v Hořešovicích","P31":"http://www.wikidata.org/entity/Q2309609","P31^label:cs":"Pamětní kříž","P131^label:cs":"Hořešovice","P6736":"40098"},"geometry":{"type":"Point","coordinates":[13.96429,50.2734]}},{"type":"Feature","properties":{"label:cs":"Kříž u hřbitova v Hořešovicích","P31":"http://www.wikidata.org/entity/Q2309609","P31^label:cs":"Pamětní kříž","P131^label:cs":"Hořešovice","P6736":"40097"},"geometry":{"type":"Point","coordinates":[13.96408,50.27311]}},{"type":"Feature","properties":{"label:cs":"Socha svatého Jana Nepomuckého v Hořešovicích","P31":"http://www.wikidata.org/entity/Q179700","P31^label:cs":"Socha","P131^label:cs":"Hořešovice","P6736":"15088"},"geometry":{"type":"Point","coordinates":[13.96677,50.27183]}},{"type":"Feature","properties":{"label:cs":"Kříž v Hořešovicích na návsi","P31":"http://www.wikidata.org/entity/Q2309609","P31^label:cs":"Pamětní kříž","P131^label:cs":"Hořešovice","P6736":"15087"},"geometry":{"type":"Point","coordinates":[13.96673,50.27142]}},{"type":"Feature","properties":{"label:cs":"Pomník obětem 1. světové války v Hořešovičkách","P31":"http://www.wikidata.org/entity/Q575759","P31^label:cs":"Pomník padlým","P131^label:cs":"Hořešovičky","P6736":"40095"},"geometry":{"type":"Point","coordinates":[13.95595,50.27473]}}]}