{"type":"FeatureCollection","features":[{"type":"Feature","properties":{"label:cs":"Kříž na rozcestí silnice do Suché","P31":"http://www.wikidata.org/entity/Q2309609","P31^label:cs":"Pamětní kříž","P131^label:cs":"Řehlovice","P6736":"14726"},"geometry":{"type":"Point","coordinates":[13.96385,50.60844]}},{"type":"Feature","properties":{"label:cs":"Socha svatého Jana Nepomuckého u kostela v Řehlovicích","P31":"http://www.wikidata.org/entity/Q179700","P31^label:cs":"Socha","P131^label:cs":"Řehlovice","P6736":"14451"},"geometry":{"type":"Point","coordinates":[13.95322,50.60728]}},{"type":"Feature","properties":{"label:cs":"Kříž u rozcestí ke hřbitovu v Řehlovicích","P31":"http://www.wikidata.org/entity/Q2309609","P31^label:cs":"Pamětní kříž","P131^label:cs":"Řehlovice","P6736":"14450"},"geometry":{"type":"Point","coordinates":[13.95637,50.6067]}},{"type":"Feature","properties":{"label:cs":"Opravený podstavec rozbitého kříže v Řehlovicích u silnice na Hbrovany","P31":"http://www.wikidata.org/entity/Q2309609","P31^label:cs":"Pamětní kříž","P131^label:cs":"Řehlovice","P6736":"14449"},"geometry":{"type":"Point","coordinates":[13.95899,50.60613]}},{"type":"Feature","properties":{"label:cs":"Hřbitovní kaple v Řehlovicích","P31":"http://www.wikidata.org/entity/Q108325","P31^label:cs":"Kaple","P131^label:cs":"Řehlovice","P6736":"14448"},"geometry":{"type":"Point","coordinates":[13.95811,50.60696]}},{"type":"Feature","properties":{"label:cs":"Kříž na rozcestí u Pelikánova mlýna ve Stadicích","P31":"http://www.wikidata.org/entity/Q2309609","P31^label:cs":"Pamětní kříž","P131^label:cs":"Řehlovice","P6736":"14447"},"geometry":{"type":"Point","coordinates":[13.96797,50.60403]}}]}