{"type":"FeatureCollection","features":[{"type":"Feature","properties":{"label:cs":"Sousoší Kalvárie v Březnici na mostě","P31":"Q179700","P31^label:cs":"Socha","P131^label:cs":"Březnice","P6736":"10499"},"geometry":{"type":"Point","coordinates":[13.95381,49.55701]}},{"type":"Feature","properties":{"label:cs":"Socha svatého Dismy v Březnici na mostě","P31":"Q179700","P31^label:cs":"Socha","P131^label:cs":"Březnice","P6736":"10498"},"geometry":{"type":"Point","coordinates":[13.9543,49.55708]}},{"type":"Feature","properties":{"label:cs":"Busta Hanuše z Kolovrat v Březnici v parku","P31":"Q179700","P31^label:cs":"Socha","P131^label:cs":"Březnice","P6736":"10497"},"geometry":{"type":"Point","coordinates":[13.95475,49.55844]}},{"type":"Feature","properties":{"label:cs":"Památník stromu republiky v Březnici","P31":"Q5003624","P31^label:cs":"Památník","P131^label:cs":"Březnice","P6736":"10496"},"geometry":{"type":"Point","coordinates":[13.9547,49.55852]}},{"type":"Feature","properties":{"label:cs":"Socha panny Marie v Březnici na mostě","P31":"Q179700","P31^label:cs":"Socha","P131^label:cs":"Březnice","P6736":"10484"},"geometry":{"type":"Point","coordinates":[13.9538,49.55693]}},{"type":"Feature","properties":{"label:cs":"Kaplička v Březnici u mostu","P31":"Q14552192","P31^label:cs":"Kaplička","P131^label:cs":"Březnice","P6736":"10483"},"geometry":{"type":"Point","coordinates":[13.95452,49.55701]}},{"type":"Feature","properties":{"label:cs":"Socha svatého Jana Nepomuckého v Březnici","P31":"Q179700","P31^label:cs":"Socha","P131^label:cs":"Březnice","P6736":"10482"},"geometry":{"type":"Point","coordinates":[13.95435,49.55699]}},{"type":"Feature","properties":{"label:cs":"Socha svatého Dismase v Březnici","P31":"Q179700","P31^label:cs":"Socha","P131^label:cs":"Březnice","P6736":"7049"},"geometry":{"type":"Point","coordinates":[13.95433,49.55708]}}]}