{"type":"FeatureCollection","features":[{"type":"Feature","properties":{"label:cs":"Kaplička na severním okraji Klobuk","P31":"http://www.wikidata.org/entity/Q14552192","P31^label:cs":"Kaplička","P131^label:cs":"Klobuky","P6736":"27911"},"geometry":{"type":"Point","coordinates":[13.98721,50.296]}},{"type":"Feature","properties":{"label:cs":"Kašna na návsi v Klobukách","P31":"http://www.wikidata.org/entity/Q12029081","P31^label:cs":"Kašna","P131^label:cs":"Klobuky","P6736":"27910"},"geometry":{"type":"Point","coordinates":[13.98767,50.29424]}},{"type":"Feature","properties":{"label:cs":"Pomník padlým na návsi v Klobukách","P31":"http://www.wikidata.org/entity/Q575759","P31^label:cs":"Pomník padlým","P131^label:cs":"Klobuky","P6736":"27909"},"geometry":{"type":"Point","coordinates":[13.9878,50.29425]}},{"type":"Feature","properties":{"label:cs":"Pamětní deska Václava Konopáska na škole v Klobukách","P31":"http://www.wikidata.org/entity/Q721747","P31^label:cs":"Pamětní deska","P131^label:cs":"Klobuky","P6736":"27908"},"geometry":{"type":"Point","coordinates":[13.99028,50.29439]}},{"type":"Feature","properties":{"label:cs":"Pamětní deska Jindřicha Šimona Baara na kostele v Klobukách","P31":"http://www.wikidata.org/entity/Q721747","P31^label:cs":"Pamětní deska","P131^label:cs":"Klobuky","P6736":"27907"},"geometry":{"type":"Point","coordinates":[13.99297,50.29376]}},{"type":"Feature","properties":{"label:cs":"Pamětní desky Janů Malypetrů na domě 11 v Klobukách","P31":"http://www.wikidata.org/entity/Q721747","P31^label:cs":"Pamětní deska","P131^label:cs":"Klobuky","P6736":"27906"},"geometry":{"type":"Point","coordinates":[13.99094,50.29359]}},{"type":"Feature","properties":{"label:cs":"Menhir Kamenný pastýř u Klobuk","P31":"http://www.wikidata.org/entity/Q193475","P31^label:cs":"Menhir","P131^label:cs":"Klobuky","P6736":"8936"},"geometry":{"type":"Point","coordinates":[13.98449,50.30126]}}]}