{"type":"FeatureCollection","features":[{"type":"Feature","properties":{"label:cs":"Boží muka u kaple v Knínici","P31":"Boží muka","P31^label:cs":"Boží muka","P131^label:cs":"Libouchec","P6736":"17335"},"geometry":{"type":"Point","coordinates":[14.00043,50.73556]}},{"type":"Feature","properties":{"label:cs":"Obnovený kříž v Knínicích","P31":"Pamětní kříž","P31^label:cs":"Pamětní kříž","P131^label:cs":"Libouchec","P6736":"14863"},"geometry":{"type":"Point","coordinates":[13.9999,50.73575]}},{"type":"Feature","properties":{"label:cs":"Kaplička v Knínicích u Libouchce","P31":"Kaplička","P31^label:cs":"Kaplička","P131^label:cs":"Libouchec","P6736":"9445"},"geometry":{"type":"Point","coordinates":[14.00041,50.73549]}},{"type":"Feature","properties":{"label:cs":"Smírčí kříže v Knínicích u Libouchce","P31":"Smírčí kříž","P31^label:cs":"Smírčí kříž","P131^label:cs":"Libouchec","P6736":"9444"},"geometry":{"type":"Point","coordinates":[14.00056,50.73552]}},{"type":"Feature","properties":{"label:cs":"Pomník padlým v Knínicích u Libouchce","P31":"Pomník padlým","P31^label:cs":"Pomník padlým","P131^label:cs":"Libouchec","P6736":"9443"},"geometry":{"type":"Point","coordinates":[14.00055,50.73547]}}]}