{"type":"FeatureCollection","features":[{"type":"Feature","properties":{"label:cs":"Mariánský sloup na Svaté Hoře","P31":"http://www.wikidata.org/entity/Q4817","P31^label:cs":"Sloup","P131^label:cs":"Příbram","P6736":"23100"},"geometry":{"type":"Point","coordinates":[14.01848,49.68511]}},{"type":"Feature","properties":{"label:cs":"Kaplička ve zdi klášterní zahrady na Svaté Hoře","P31":"http://www.wikidata.org/entity/Q14552192","P31^label:cs":"Kaplička","P131^label:cs":"Příbram","P6736":"23102"},"geometry":{"type":"Point","coordinates":[14.01845,49.68582]}},{"type":"Feature","properties":{"label:cs":"Kříž u cesty z Příbrami na Svatou Horu","P31":"http://www.wikidata.org/entity/Q2309609","P31^label:cs":"Pamětní kříž","P131^label:cs":"Příbram","P6736":"23103"},"geometry":{"type":"Point","coordinates":[14.01845,49.68694]}},{"type":"Feature","properties":{"label:cs":"Památník Dr. J. Theurera v Příbrami","P31":"http://www.wikidata.org/entity/Q5003624","P31^label:cs":"Památník","P131^label:cs":"Příbram","P6736":"23104"},"geometry":{"type":"Point","coordinates":[14.01756,49.68797]}},{"type":"Feature","properties":{"label:cs":"Socha svatého Václava v Příbrami","P31":"http://www.wikidata.org/entity/Q179700","P31^label:cs":"Socha","P131^label:cs":"Příbram","P6736":"23105"},"geometry":{"type":"Point","coordinates":[14.01426,49.68924]}},{"type":"Feature","properties":{"label:cs":"Socha svatého Jana Nepomuckého u kostela svatého Jakuba Většího v Příbrami","P31":"http://www.wikidata.org/entity/Q179700","P31^label:cs":"Socha","P131^label:cs":"Příbram","P6736":"23106"},"geometry":{"type":"Point","coordinates":[14.00952,49.6886]}},{"type":"Feature","properties":{"label:cs":"Kašna na náměstí Tomáše Garrigua Masaryka v Příbrami","P31":"http://www.wikidata.org/entity/Q12029081","P31^label:cs":"Kašna","P131^label:cs":"Příbram","P6736":"23107"},"geometry":{"type":"Point","coordinates":[14.00887,49.68905]}}]}