{"type":"FeatureCollection","features":[{"type":"Feature","properties":{"label:cs":"Pomník obětem tramvajového neštěstí 1947 na Bukově","P31":"http://www.wikidata.org/entity/Q4989906","P31^label:cs":"Pomník","P131^label:cs":"Ústí nad Labem","P6736":"13364"},"geometry":{"type":"Point","coordinates":[14.00764,50.67963]}},{"type":"Feature","properties":{"label:cs":"Pomník Julia Fučíka v parčíku na Masarykově ulici na Bukově","P31":"http://www.wikidata.org/entity/Q4989906","P31^label:cs":"Pomník","P131^label:cs":"Ústí nad Labem","P6736":"13360"},"geometry":{"type":"Point","coordinates":[14.0097,50.67861]}},{"type":"Feature","properties":{"label:cs":"Kamenná plastika v Alešově ulici v Klíši","P31":"http://www.wikidata.org/entity/Q12045520","P31^label:cs":"Plastika","P131^label:cs":"Ústí nad Labem","P6736":"18440"},"geometry":{"type":"Point","coordinates":[14.01665,50.67385]}},{"type":"Feature","properties":{"label:cs":"Kašna ve Vrchlického sadech na Klíši","P31":"http://www.wikidata.org/entity/Q12029081","P31^label:cs":"Kašna","P131^label:cs":"Ústí nad Labem","P6736":"16663"},"geometry":{"type":"Point","coordinates":[14.01784,50.66816]}},{"type":"Feature","properties":{"label:cs":"Keramické sochy berana s ovcemi před školkou v ulici Na Spálence na Klíši","P31":"http://www.wikidata.org/entity/Q179700","P31^label:cs":"Socha","P131^label:cs":"Ústí nad Labem","P6736":"16545"},"geometry":{"type":"Point","coordinates":[14.01257,50.66729]}}]}