{"type":"FeatureCollection","features":[{"type":"Feature","properties":{"label:cs":"Socha svatého Jana Nepomuckého v Lučkovicích","P31":"Q179700","P31^label:cs":"Socha","P131^label:cs":"Mirotice","P6736":"6813"},"geometry":{"type":"Point","coordinates":[14.00257,49.44147]}},{"type":"Feature","properties":{"label:cs":"Kříž u mostu v Lučkovicích","P31":"Q2309609","P31^label:cs":"Pamětní kříž","P131^label:cs":"Mirotice","P6736":"6812"},"geometry":{"type":"Point","coordinates":[14.00271,49.44147]}},{"type":"Feature","properties":{"label:cs":"Kříž na rozcestí východně od Lučkovic","P31":"Q2309609","P31^label:cs":"Pamětní kříž","P131^label:cs":"Mirotice","P6736":"1987"},"geometry":{"type":"Point","coordinates":[14.00482,49.44093]}},{"type":"Feature","properties":{"label:cs":"Boží muka východně od Lučkovic","P31":"Q3395121","P31^label:cs":"Boží muka","P131^label:cs":"Mirotice","P6736":"1986"},"geometry":{"type":"Point","coordinates":[14.00463,49.44085]}},{"type":"Feature","properties":{"label:cs":"Kříž východně od Lučkovic","P31":"Q2309609","P31^label:cs":"Pamětní kříž","P131^label:cs":"Mirotice","P6736":"1985"},"geometry":{"type":"Point","coordinates":[14.00339,49.44156]}}]}