{"type":"FeatureCollection","features":[{"type":"Feature","properties":{"label:cs":"Kaple svaté Rosalie ve Vraném","P31":"http://www.wikidata.org/entity/Q108325","P31^label:cs":"Kaple","P131^label:cs":"Vraný","P6736":"27831"},"geometry":{"type":"Point","coordinates":[14.01731,50.33067]}},{"type":"Feature","properties":{"label:cs":"Kašna ve Vraném","P31":"http://www.wikidata.org/entity/Q12029081","P31^label:cs":"Kašna","P131^label:cs":"Vraný","P6736":"27830"},"geometry":{"type":"Point","coordinates":[14.01721,50.32715]}},{"type":"Feature","properties":{"label:cs":"Socha Madony v centru Vraného","P31":"http://www.wikidata.org/entity/Q179700","P31^label:cs":"Socha","P131^label:cs":"Vraný","P6736":"27829"},"geometry":{"type":"Point","coordinates":[14.01577,50.32678]}},{"type":"Feature","properties":{"label:cs":"Pomník výročí povýšení na městečko v centru Vraného","P31":"http://www.wikidata.org/entity/Q4989906","P31^label:cs":"Pomník","P131^label:cs":"Vraný","P6736":"27828"},"geometry":{"type":"Point","coordinates":[14.01679,50.3265]}},{"type":"Feature","properties":{"label:cs":"Socha svatého Jana Nepomuckého v centru Vraného","P31":"http://www.wikidata.org/entity/Q179700","P31^label:cs":"Socha","P131^label:cs":"Vraný","P6736":"27827"},"geometry":{"type":"Point","coordinates":[14.01662,50.32662]}},{"type":"Feature","properties":{"label:cs":"Pomník Jaroslava Věšína v centru Vraného","P31":"http://www.wikidata.org/entity/Q4989906","P31^label:cs":"Pomník","P131^label:cs":"Vraný","P6736":"27826"},"geometry":{"type":"Point","coordinates":[14.01657,50.32637]}},{"type":"Feature","properties":{"label:cs":"Socha svatého Václava v centru Vraného","P31":"http://www.wikidata.org/entity/Q179700","P31^label:cs":"Socha","P131^label:cs":"Vraný","P6736":"27825"},"geometry":{"type":"Point","coordinates":[14.01628,50.32622]}},{"type":"Feature","properties":{"label:cs":"Kaplička křížové cesty na ohradní zdi kostela ve Vraném","P31":"http://www.wikidata.org/entity/Q14552192","P31^label:cs":"Kaplička","P131^label:cs":"Vraný","P6736":"27821"},"geometry":{"type":"Point","coordinates":[14.0131,50.32667]}},{"type":"Feature","properties":{"label:cs":"Socha Svatopluka Čecha před zámkem ve Vraném","P31":"http://www.wikidata.org/entity/Q179700","P31^label:cs":"Socha","P131^label:cs":"Vraný","P6736":"27818"},"geometry":{"type":"Point","coordinates":[14.01258,50.32634]}},{"type":"Feature","properties":{"label:cs":"Pomník padlým ve Vraném","P31":"http://www.wikidata.org/entity/Q575759","P31^label:cs":"Pomník padlým","P131^label:cs":"Vraný","P6736":"9122"},"geometry":{"type":"Point","coordinates":[14.01472,50.3264]}},{"type":"Feature","properties":{"label:cs":"Pomník obětem holokaustu ve Vraném","P31":"http://www.wikidata.org/entity/Q575759","P31^label:cs":"Pomník padlým","P131^label:cs":"Vraný","P6736":"9121"},"geometry":{"type":"Point","coordinates":[14.01435,50.32618]}}]}