{"type":"FeatureCollection","features":[{"type":"Feature","properties":{"label:cs":"Boží muka u kaple v Knínicích","P31":"http://www.wikidata.org/entity/Q3395121","P31^label:cs":"Boží muka","P131^label:cs":"Libouchec","P6736":"17335"},"geometry":{"type":"Point","coordinates":[14.00043,50.73556]}},{"type":"Feature","properties":{"label:cs":"Kříž v Knínicích","P31":"http://www.wikidata.org/entity/Q2309609","P31^label:cs":"Pamětní kříž","P131^label:cs":"Libouchec","P6736":"14863"},"geometry":{"type":"Point","coordinates":[13.99978,50.73578]}},{"type":"Feature","properties":{"label:cs":"Kaple v Knínicích u Libouchce","P31":"http://www.wikidata.org/entity/Q108325","P31^label:cs":"Kaple","P131^label:cs":"Libouchec","P6736":"9445"},"geometry":{"type":"Point","coordinates":[14.00041,50.73549]}},{"type":"Feature","properties":{"label:cs":"Smírčí kříže v Knínicích u Libouchce","P31":"http://www.wikidata.org/entity/Q1640496","P31^label:cs":"Smírčí kříž","P131^label:cs":"Libouchec","P6736":"9444"},"geometry":{"type":"Point","coordinates":[14.0006,50.73549]}},{"type":"Feature","properties":{"label:cs":"Pomník padlým v Knínicích u Libouchce","P31":"http://www.wikidata.org/entity/Q575759","P31^label:cs":"Pomník padlým","P131^label:cs":"Libouchec","P6736":"9443"},"geometry":{"type":"Point","coordinates":[14.00055,50.73547]}}]}