{"type":"FeatureCollection","features":[{"type":"Feature","properties":{"label:cs":"Lavička Václava Havla v kampusu univerzity v Ústí nad Labem","P31":"http://www.wikidata.org/entity/Q4989906","P31^label:cs":"Pomník","P131^label:cs":"Ústí nad Labem","P6736":"42620"},"geometry":{"type":"Point","coordinates":[14.02392,50.66523]}},{"type":"Feature","properties":{"label:cs":"Pomník Václava Sedláčka v kampusu univerzity v Ústí nad Labem","P31":"http://www.wikidata.org/entity/Q4989906","P31^label:cs":"Pomník","P131^label:cs":"Ústí nad Labem","P6736":"42619"},"geometry":{"type":"Point","coordinates":[14.02371,50.66491]}},{"type":"Feature","properties":{"label:cs":"Pamětní deska Mathiase Franze Ulbrechta na kostele Nanebevzetí v Ústí nad Labem","P31":"http://www.wikidata.org/entity/Q721747","P31^label:cs":"Pamětní deska","P131^label:cs":"Ústí nad Labem","P6736":"40578"},"geometry":{"type":"Point","coordinates":[14.0402,50.65911]}},{"type":"Feature","properties":{"label:cs":"Pamětní deska Františku Zajíčkovi na západním nádraží v Ústí nad Labem","P31":"http://www.wikidata.org/entity/Q721747","P31^label:cs":"Pamětní deska","P131^label:cs":"Ústí nad Labem","P6736":"34764"},"geometry":{"type":"Point","coordinates":[14.02964,50.65839]}},{"type":"Feature","properties":{"label:cs":"Pamětní deska Lilly Hornig na domě Masarykova 70 v Ústí nad Labem","P31":"http://www.wikidata.org/entity/Q721747","P31^label:cs":"Pamětní deska","P131^label:cs":"Ústí nad Labem","P6736":"30639"},"geometry":{"type":"Point","coordinates":[14.03114,50.66616]}},{"type":"Feature","properties":{"label:cs":"Kovová plastika Chodci u multifunkčního centra univerzity v Ústí nad Labem","P31":"http://www.wikidata.org/entity/Q12045520","P31^label:cs":"Plastika","P131^label:cs":"Ústí nad Labem","P6736":"29270"},"geometry":{"type":"Point","coordinates":[14.02565,50.66537]}},{"type":"Feature","properties":{"label:cs":"Kovová plastika u vstupu do kampusu univerzity v Ústí nad Labem","P31":"http://www.wikidata.org/entity/Q12045520","P31^label:cs":"Plastika","P131^label:cs":"Ústí nad Labem","P6736":"29269"},"geometry":{"type":"Point","coordinates":[14.02437,50.66637]}},{"type":"Feature","properties":{"label:cs":"Svislá fontána u schodů k Domu kultury v Ústí nad Labem","P31":"http://www.wikidata.org/entity/Q12029081","P31^label:cs":"Kašna","P131^label:cs":"Ústí nad Labem","P6736":"28597"},"geometry":{"type":"Point","coordinates":[14.0394,50.66204]}},{"type":"Feature","properties":{"label:cs":"Fontána 3 v Městských sadech v Ústí nad Labem","P31":"http://www.wikidata.org/entity/Q12029081","P31^label:cs":"Kašna","P131^label:cs":"Ústí nad Labem","P6736":"28444"},"geometry":{"type":"Point","coordinates":[14.02662,50.66674]}},{"type":"Feature","properties":{"label:cs":"Fontána 1 v Městských sadech v Ústí nad Labem","P31":"http://www.wikidata.org/entity/Q12029081","P31^label:cs":"Kašna","P131^label:cs":"Ústí nad Labem","P6736":"28442"},"geometry":{"type":"Point","coordinates":[14.02827,50.66559]}},{"type":"Feature","properties":{"label:cs":"Kamenná plastika u domu Rooseveltova 5154 v Ústí nad Labem","P31":"http://www.wikidata.org/entity/Q12045520","P31^label:cs":"Plastika","P131^label:cs":"Ústí nad Labem","P6736":"28441"},"geometry":{"type":"Point","coordinates":[14.03245,50.6655]}},{"type":"Feature","properties":{"label:cs":"Kovová plastika u vstupu do kostela Nanebevzetí v Ústí nad Labem","P31":"http://www.wikidata.org/entity/Q12045520","P31^label:cs":"Plastika","P131^label:cs":"Ústí nad Labem","P6736":"28032"},"geometry":{"type":"Point","coordinates":[14.04011,50.65903]}},{"type":"Feature","properties":{"label:cs":"Betonová plastika Ježek v parku Republiky v Ústí nad Labem","P31":"http://www.wikidata.org/entity/Q12045520","P31^label:cs":"Plastika","P131^label:cs":"Ústí nad Labem","P6736":"25774"},"geometry":{"type":"Point","coordinates":[14.04002,50.66359]}},{"type":"Feature","properties":{"label:cs":"Deska odklonu věže kostela Nanebevzetí Panny Marie v Ústí nad Labem","P31":"http://www.wikidata.org/entity/Q3328263","P31^label:cs":"Památná dlažba","P131^label:cs":"Ústí nad Labem","P6736":"25310"},"geometry":{"type":"Point","coordinates":[14.04001,50.65906]}},{"type":"Feature","properties":{"label:cs":"Pamětní deska padlému dragounovi Jordanovi 30. 8. 1813 v Dlouhé ulici v Ústí nad Labem","P31":"http://www.wikidata.org/entity/Q721747","P31^label:cs":"Pamětní deska","P131^label:cs":"Ústí nad Labem","P6736":"21996"},"geometry":{"type":"Point","coordinates":[14.03855,50.66103]}},{"type":"Feature","properties":{"label:cs":"Pamětní deska Leopolda Pölzla v průchodu do atria Magistrátu v Ústí nad Labem","P31":"http://www.wikidata.org/entity/Q721747","P31^label:cs":"Pamětní deska","P131^label:cs":"Ústí nad Labem","P6736":"21995"},"geometry":{"type":"Point","coordinates":[14.03727,50.66049]}},{"type":"Feature","properties":{"label:cs":"Plastika Labe u obchodního domu Labe v Ústí nad Labem","P31":"http://www.wikidata.org/entity/Q12045520","P31^label:cs":"Plastika","P131^label:cs":"Ústí nad Labem","P6736":"19036"},"geometry":{"type":"Point","coordinates":[14.03713,50.65937]}},{"type":"Feature","properties":{"label:cs":"Kovová plastika před Fakultou umění a designu univerzity v Ústí nad Labem","P31":"http://www.wikidata.org/entity/Q12045520","P31^label:cs":"Plastika","P131^label:cs":"Ústí nad Labem","P6736":"18957"},"geometry":{"type":"Point","coordinates":[14.02458,50.66611]}},{"type":"Feature","properties":{"label:cs":"Sochy vodních bytostí u vjezdu do budovy policie na Masarykově ulici v Ústí nad Labem","P31":"http://www.wikidata.org/entity/Q179700","P31^label:cs":"Socha","P131^label:cs":"Ústí nad Labem","P6736":"18784"},"geometry":{"type":"Point","coordinates":[14.03234,50.66476]}},{"type":"Feature","properties":{"label:cs":"Socha Dvojice na terase u hotelu Vladimir v Ústí nad Labem","P31":"http://www.wikidata.org/entity/Q179700","P31^label:cs":"Socha","P131^label:cs":"Ústí nad Labem","P6736":"18783"},"geometry":{"type":"Point","coordinates":[14.03265,50.66496]}},{"type":"Feature","properties":{"label:cs":"Socha havíře na rohu bývalé Weinmannovy vily v ulici Winstona Churchila v Ústí nad Labem","P31":"http://www.wikidata.org/entity/Q179700","P31^label:cs":"Socha","P131^label:cs":"Ústí nad Labem","P6736":"18782"},"geometry":{"type":"Point","coordinates":[14.03493,50.66471]}},{"type":"Feature","properties":{"label:cs":"Socha Totem v areálu letního kina v Ústí nad Labem","P31":"http://www.wikidata.org/entity/Q179700","P31^label:cs":"Socha","P131^label:cs":"Ústí nad Labem","P6736":"18781"},"geometry":{"type":"Point","coordinates":[14.03699,50.66484]}},{"type":"Feature","properties":{"label:cs":"Kovová plastika Setkání v atriu muzea v Ústí nad Labem","P31":"http://www.wikidata.org/entity/Q12045520","P31^label:cs":"Plastika","P131^label:cs":"Ústí nad Labem","P6736":"18415"},"geometry":{"type":"Point","coordinates":[14.03462,50.66082]}},{"type":"Feature","properties":{"label:cs":"Sloup se sochou Vítání před hotelem Vladimir v Ústí nad Labem","P31":"http://www.wikidata.org/entity/Q4817","P31^label:cs":"Sloup","P131^label:cs":"Ústí nad Labem","P6736":"17020"},"geometry":{"type":"Point","coordinates":[14.0325,50.66513]}},{"type":"Feature","properties":{"label:cs":"Socha Dvě ženy v atriu muzea v Ústí nad Labem","P31":"http://www.wikidata.org/entity/Q179700","P31^label:cs":"Socha","P131^label:cs":"Ústí nad Labem","P6736":"16714"},"geometry":{"type":"Point","coordinates":[14.03424,50.66076]}},{"type":"Feature","properties":{"label:cs":"Socha Pelikán v atriu muzea v Ústí nad Labem","P31":"http://www.wikidata.org/entity/Q179700","P31^label:cs":"Socha","P131^label:cs":"Ústí nad Labem","P6736":"16549"},"geometry":{"type":"Point","coordinates":[14.03465,50.66074]}},{"type":"Feature","properties":{"label:cs":"Kašna v Městských sadech v Ústí nad Labem","P31":"http://www.wikidata.org/entity/Q12029081","P31^label:cs":"Kašna","P131^label:cs":"Ústí nad Labem","P6736":"16543"},"geometry":{"type":"Point","coordinates":[14.02811,50.6666]}},{"type":"Feature","properties":{"label:cs":"Kašna na Lidickém náměstí v Ústí nad Labem","P31":"http://www.wikidata.org/entity/Q12029081","P31^label:cs":"Kašna","P131^label:cs":"Ústí nad Labem","P6736":"16542"},"geometry":{"type":"Point","coordinates":[14.0358,50.66016]}},{"type":"Feature","properties":{"label:cs":"Socha Bedřicha Smetany ve Smetanových sadech v Ústí nad Labem","P31":"http://www.wikidata.org/entity/Q179700","P31^label:cs":"Socha","P131^label:cs":"Ústí nad Labem","P6736":"15192"},"geometry":{"type":"Point","coordinates":[14.03387,50.66138]}},{"type":"Feature","properties":{"label:cs":"Socha Zašlápnutý had v parku letního kina v Ústí nad Labem","P31":"http://www.wikidata.org/entity/Q179700","P31^label:cs":"Socha","P131^label:cs":"Ústí nad Labem","P6736":"14642"},"geometry":{"type":"Point","coordinates":[14.03708,50.66421]}},{"type":"Feature","properties":{"label:cs":"Památník holokaustu v Městských sadech v Ústí nad Labem","P31":"http://www.wikidata.org/entity/Q5003624","P31^label:cs":"Památník","P131^label:cs":"Ústí nad Labem","P6736":"14402"},"geometry":{"type":"Point","coordinates":[14.02827,50.66579]}},{"type":"Feature","properties":{"label:cs":"Kříž na bývalém popravišti na Větruši v Ústí nad Labem","P31":"http://www.wikidata.org/entity/Q2309609","P31^label:cs":"Pamětní kříž","P131^label:cs":"Ústí nad Labem","P6736":"13697"},"geometry":{"type":"Point","coordinates":[14.03475,50.65536]}},{"type":"Feature","properties":{"label:cs":"Pomník Karla Eichlera v parku na Větruši v Ústí nad Labem","P31":"http://www.wikidata.org/entity/Q4989906","P31^label:cs":"Pomník","P131^label:cs":"Ústí nad Labem","P6736":"13696"},"geometry":{"type":"Point","coordinates":[14.03823,50.65385]}},{"type":"Feature","properties":{"label:cs":"Památník obětí náletů v dubnu 1945 pod vrchem Větruše","P31":"http://www.wikidata.org/entity/Q5003624","P31^label:cs":"Památník","P131^label:cs":"Ústí nad Labem","P6736":"13653"},"geometry":{"type":"Point","coordinates":[14.03267,50.65577]}},{"type":"Feature","properties":{"label:cs":"Kašna u divadla v Ústí nad Labem","P31":"http://www.wikidata.org/entity/Q12029081","P31^label:cs":"Kašna","P131^label:cs":"Ústí nad Labem","P6736":"9440"},"geometry":{"type":"Point","coordinates":[14.03502,50.66017]}},{"type":"Feature","properties":{"label:cs":"Sousoší v Ústí nad Labem u Lidického náměstí","P31":"http://www.wikidata.org/entity/Q179700","P31^label:cs":"Socha","P131^label:cs":"Ústí nad Labem","P6736":"7181"},"geometry":{"type":"Point","coordinates":[14.0381,50.66033]}},{"type":"Feature","properties":{"label:cs":"Zvonička v Ústí nad Labem u Lidického náměstí","P31":"http://www.wikidata.org/entity/Q10861631","P31^label:cs":"Zvonička","P131^label:cs":"Ústí nad Labem","P6736":"7180"},"geometry":{"type":"Point","coordinates":[14.03751,50.66027]}},{"type":"Feature","properties":{"label:cs":"Kašna v Ústí nad Labem na Lidickém náměstí","P31":"http://www.wikidata.org/entity/Q12029081","P31^label:cs":"Kašna","P131^label:cs":"Ústí nad Labem","P6736":"7179"},"geometry":{"type":"Point","coordinates":[14.03667,50.66026]}},{"type":"Feature","properties":{"label:cs":"Pomník padlých na Balkáně v Ústí nad Labem","P31":"http://www.wikidata.org/entity/Q575759","P31^label:cs":"Pomník padlým","P131^label:cs":"Ústí nad Labem","P6736":"7178"},"geometry":{"type":"Point","coordinates":[14.03626,50.66015]}},{"type":"Feature","properties":{"label:cs":"Památník města v Ústí nad Labem","P31":"http://www.wikidata.org/entity/Q5003624","P31^label:cs":"Památník","P131^label:cs":"Ústí nad Labem","P6736":"7177"},"geometry":{"type":"Point","coordinates":[14.03642,50.66014]}},{"type":"Feature","properties":{"label:cs":"Sloup se sochou svatého Antonína Paduánského v Ústí nad Labem","P31":"http://www.wikidata.org/entity/Q4817","P31^label:cs":"Sloup","P131^label:cs":"Ústí nad Labem","P6736":"7176"},"geometry":{"type":"Point","coordinates":[14.03983,50.66007]}}]}