{"type":"FeatureCollection","features":[{"type":"Feature","properties":{"label:cs":"Socha Naděje u nemocniční lékárny Masarykovy nemocnice v Ústí nad Labem","P31":"http://www.wikidata.org/entity/Q179700","P31^label:cs":"Socha","P131^label:cs":"Ústí nad Labem","P6736":"21392"},"geometry":{"type":"Point","coordinates":[14.02234,50.68024]}},{"type":"Feature","properties":{"label:cs":"Kamenná plastika u vjezdu do Masarykovy nemocnice","P31":"http://www.wikidata.org/entity/Q12045520","P31^label:cs":"Plastika","P131^label:cs":"Ústí nad Labem","P6736":"21385"},"geometry":{"type":"Point","coordinates":[14.022,50.68008]}},{"type":"Feature","properties":{"label:cs":"Kamenná plastika v areálu Masarykovy nemocnice","P31":"http://www.wikidata.org/entity/Q12045520","P31^label:cs":"Plastika","P131^label:cs":"Ústí nad Labem","P6736":"21384"},"geometry":{"type":"Point","coordinates":[14.02165,50.67975]}},{"type":"Feature","properties":{"label:cs":"Socha ženy v ulici Sociální péče v Ústí nad Labem","P31":"http://www.wikidata.org/entity/Q179700","P31^label:cs":"Socha","P131^label:cs":"Ústí nad Labem","P6736":"17574"},"geometry":{"type":"Point","coordinates":[14.02162,50.68079]}},{"type":"Feature","properties":{"label:cs":"Kamenná plastika u pavilonu D2 v Masarykově nemocnici","P31":"http://www.wikidata.org/entity/Q12045520","P31^label:cs":"Plastika","P131^label:cs":"Ústí nad Labem","P6736":"16884"},"geometry":{"type":"Point","coordinates":[14.02173,50.67862]}},{"type":"Feature","properties":{"label:cs":"Plastika československého lva u školy v Palachově ulici v Ústí nad Labem","P31":"http://www.wikidata.org/entity/Q12045520","P31^label:cs":"Plastika","P131^label:cs":"Ústí nad Labem","P6736":"24351"},"geometry":{"type":"Point","coordinates":[14.0227,50.6683]}},{"type":"Feature","properties":{"label:cs":"Abstraktní reliéf na budově bývalé pošty sídliště Skřivánek v Ústí nad Labem","P31":"http://www.wikidata.org/entity/Q245117","P31^label:cs":"Reliéf","P131^label:cs":"Ústí nad Labem","P6736":"33988"},"geometry":{"type":"Point","coordinates":[14.03938,50.66933]}},{"type":"Feature","properties":{"label:cs":"Fontána 9 v Městských sadech v Ústí nad Labem","P31":"http://www.wikidata.org/entity/Q12029081","P31^label:cs":"Kašna","P131^label:cs":"Ústí nad Labem","P6736":"30638"},"geometry":{"type":"Point","coordinates":[14.02919,50.66698]}},{"type":"Feature","properties":{"label:cs":"Fontána 8 v Městských sadech v Ústí nad Labem","P31":"http://www.wikidata.org/entity/Q12029081","P31^label:cs":"Kašna","P131^label:cs":"Ústí nad Labem","P6736":"28449"},"geometry":{"type":"Point","coordinates":[14.02372,50.66973]}},{"type":"Feature","properties":{"label:cs":"Fontána 7 v Městských sadech v Ústí nad Labem","P31":"http://www.wikidata.org/entity/Q12029081","P31^label:cs":"Kašna","P131^label:cs":"Ústí nad Labem","P6736":"28448"},"geometry":{"type":"Point","coordinates":[14.02433,50.66936]}},{"type":"Feature","properties":{"label:cs":"Fontána 6 v Městských sadech v Ústí nad Labem","P31":"http://www.wikidata.org/entity/Q12029081","P31^label:cs":"Kašna","P131^label:cs":"Ústí nad Labem","P6736":"28447"},"geometry":{"type":"Point","coordinates":[14.02422,50.66806]}},{"type":"Feature","properties":{"label:cs":"Fontána 5 v Městských sadech v Ústí nad Labem","P31":"http://www.wikidata.org/entity/Q12029081","P31^label:cs":"Kašna","P131^label:cs":"Ústí nad Labem","P6736":"28446"},"geometry":{"type":"Point","coordinates":[14.02509,50.66757]}},{"type":"Feature","properties":{"label:cs":"Fontána 4 v Městských sadech v Ústí nad Labem","P31":"http://www.wikidata.org/entity/Q12029081","P31^label:cs":"Kašna","P131^label:cs":"Ústí nad Labem","P6736":"28445"},"geometry":{"type":"Point","coordinates":[14.02551,50.66755]}},{"type":"Feature","properties":{"label:cs":"Fontána 2 v Městských sadech v Ústí nad Labem","P31":"http://www.wikidata.org/entity/Q12029081","P31^label:cs":"Kašna","P131^label:cs":"Ústí nad Labem","P6736":"28443"},"geometry":{"type":"Point","coordinates":[14.02744,50.66702]}},{"type":"Feature","properties":{"label:cs":"Socha Žena na slunci v zahradě polikliniky v Ústí nad Labem","P31":"http://www.wikidata.org/entity/Q179700","P31^label:cs":"Socha","P131^label:cs":"Ústí nad Labem","P6736":"24455"},"geometry":{"type":"Point","coordinates":[14.02892,50.6683]}},{"type":"Feature","properties":{"label:cs":"Betonové plastiky s mozaikami v ulici Ladova v Ústí nad Labem","P31":"http://www.wikidata.org/entity/Q12045520","P31^label:cs":"Plastika","P131^label:cs":"Ústí nad Labem","P6736":"24452"},"geometry":{"type":"Point","coordinates":[14.02701,50.67882]}},{"type":"Feature","properties":{"label:cs":"Kamenná plastika u střední školy v ulici Stará v Ústí nad Labem","P31":"http://www.wikidata.org/entity/Q12045520","P31^label:cs":"Plastika","P131^label:cs":"Ústí nad Labem","P6736":"24352"},"geometry":{"type":"Point","coordinates":[14.0296,50.6749]}},{"type":"Feature","properties":{"label:cs":"Kamenná plastika Matka Země v zahradě zdravotního zařízení v Malátově ulici v Ústí nad Labem","P31":"http://www.wikidata.org/entity/Q12045520","P31^label:cs":"Plastika","P131^label:cs":"Ústí nad Labem","P6736":"20024"},"geometry":{"type":"Point","coordinates":[14.03972,50.67133]}},{"type":"Feature","properties":{"label:cs":"Keramická plastika Plameny v parku Severní Terasa v Ústí nad Labem","P31":"http://www.wikidata.org/entity/Q12045520","P31^label:cs":"Plastika","P131^label:cs":"Ústí nad Labem","P6736":"19035"},"geometry":{"type":"Point","coordinates":[14.03281,50.67844]}},{"type":"Feature","properties":{"label:cs":"Socha Běžící děti v zahradě speciální školy Pod parkem v Ústí nad Labem","P31":"http://www.wikidata.org/entity/Q179700","P31^label:cs":"Socha","P131^label:cs":"Ústí nad Labem","P6736":"18986"},"geometry":{"type":"Point","coordinates":[14.02881,50.68041]}},{"type":"Feature","properties":{"label:cs":"Socha Dvojice v ulici SNP v Ústí nad Labem","P31":"http://www.wikidata.org/entity/Q179700","P31^label:cs":"Socha","P131^label:cs":"Ústí nad Labem","P6736":"18780"},"geometry":{"type":"Point","coordinates":[14.04044,50.66781]}},{"type":"Feature","properties":{"label:cs":"Pomník osvobození v Bělehradské ulici v Ústí nad Labem","P31":"http://www.wikidata.org/entity/Q4989906","P31^label:cs":"Pomník","P131^label:cs":"Ústí nad Labem","P6736":"18779"},"geometry":{"type":"Point","coordinates":[14.03488,50.67052]}},{"type":"Feature","properties":{"label:cs":"Socha Mateřství v parku Severní Terasa v Ústí nad Labem","P31":"http://www.wikidata.org/entity/Q179700","P31^label:cs":"Socha","P131^label:cs":"Ústí nad Labem","P6736":"18414"},"geometry":{"type":"Point","coordinates":[14.03132,50.67934]}},{"type":"Feature","properties":{"label:cs":"Socha Hudba v parku Severní Terasa v Ústí nad Labem","P31":"http://www.wikidata.org/entity/Q179700","P31^label:cs":"Socha","P131^label:cs":"Ústí nad Labem","P6736":"16592"},"geometry":{"type":"Point","coordinates":[14.0323,50.67867]}},{"type":"Feature","properties":{"label:cs":"Socha Manželé v parku Severní Terasa v Ústí nad Labem","P31":"http://www.wikidata.org/entity/Q179700","P31^label:cs":"Socha","P131^label:cs":"Ústí nad Labem","P6736":"16587"},"geometry":{"type":"Point","coordinates":[14.033,50.67802]}},{"type":"Feature","properties":{"label:cs":"Sochy dětí u dětského hřiště v Malátově ulici v Ústí nad Labem","P31":"http://www.wikidata.org/entity/Q179700","P31^label:cs":"Socha","P131^label:cs":"Ústí nad Labem","P6736":"16547"},"geometry":{"type":"Point","coordinates":[14.03803,50.67202]}},{"type":"Feature","properties":{"label:cs":"Socha Tančící rodina v parku Severní Terasa v Ústí nad Labem","P31":"http://www.wikidata.org/entity/Q179700","P31^label:cs":"Socha","P131^label:cs":"Ústí nad Labem","P6736":"14645"},"geometry":{"type":"Point","coordinates":[14.03099,50.67986]}},{"type":"Feature","properties":{"label:cs":"Pomník osvobození v Městských sadech v Ústí nad Labem","P31":"http://www.wikidata.org/entity/Q4989906","P31^label:cs":"Pomník","P131^label:cs":"Ústí nad Labem","P6736":"14403"},"geometry":{"type":"Point","coordinates":[14.02651,50.66707]}},{"type":"Feature","properties":{"label:cs":"Pomník obětem komunismu v Městských sadech v Ústí nad Labem","P31":"http://www.wikidata.org/entity/Q4989906","P31^label:cs":"Pomník","P131^label:cs":"Ústí nad Labem","P6736":"14401"},"geometry":{"type":"Point","coordinates":[14.02452,50.66883]}},{"type":"Feature","properties":{"label:cs":"Pomník obětem válek v Městských sadech v Ústí nad Labem","P31":"http://www.wikidata.org/entity/Q575759","P31^label:cs":"Pomník padlým","P131^label:cs":"Ústí nad Labem","P6736":"13477"},"geometry":{"type":"Point","coordinates":[14.02432,50.66814]}}]}