{"type":"FeatureCollection","features":[{"type":"Feature","properties":{"label:cs":"Kamenný kříž u silnice západně od Hostomic","P31":"Q2309609","P31^label:cs":"Pamětní kříž","P131^label:cs":"Hostomice","P6736":"17489"},"geometry":{"type":"Point","coordinates":[14.03767,49.82883]}},{"type":"Feature","properties":{"label:cs":"Boží muka u hřbitova v Hostomicích","P31":"Q3395121","P31^label:cs":"Boží muka","P131^label:cs":"Hostomice","P6736":"17488"},"geometry":{"type":"Point","coordinates":[14.03958,49.82672]}},{"type":"Feature","properties":{"label:cs":"Kříž u silnice východně od Bezdědic","P31":"Q2309609","P31^label:cs":"Pamětní kříž","P131^label:cs":"Hostomice","P6736":"17487"},"geometry":{"type":"Point","coordinates":[14.03225,49.83167]}},{"type":"Feature","properties":{"label:cs":"Kříž u silnice západně od Hostomic","P31":"Q2309609","P31^label:cs":"Pamětní kříž","P131^label:cs":"Hostomice","P6736":"17486"},"geometry":{"type":"Point","coordinates":[14.03559,49.83011]}},{"type":"Feature","properties":{"label:cs":"Kříž u kostela v Bezdědicích","P31":"Q2309609","P31^label:cs":"Pamětní kříž","P131^label:cs":"Hostomice","P6736":"17485"},"geometry":{"type":"Point","coordinates":[14.03097,49.83309]}},{"type":"Feature","properties":{"label:cs":"Kříž na návsi v Bezdědicích","P31":"Q2309609","P31^label:cs":"Pamětní kříž","P131^label:cs":"Hostomice","P6736":"17484"},"geometry":{"type":"Point","coordinates":[14.02846,49.83284]}},{"type":"Feature","properties":{"label:cs":"Pomník padlým v Bezdědicích","P31":"Q575759","P31^label:cs":"Pomník padlým","P131^label:cs":"Hostomice","P6736":"17483"},"geometry":{"type":"Point","coordinates":[14.02896,49.83287]}},{"type":"Feature","properties":{"label:cs":"Kříž u Radouše","P31":"Q2309609","P31^label:cs":"Pamětní kříž","P131^label:cs":"Hostomice","P6736":"2445"},"geometry":{"type":"Point","coordinates":[14.02147,49.83757]}}]}