{"type":"FeatureCollection","features":[{"type":"Feature","properties":{"label:cs":"Socha Dívka se psem v parku Severní Terasa v Ústí nad Labem","P31":"Socha","P31^label:cs":"Socha","P131^label:cs":"Ústí nad Labem","P6736":"19034"},"geometry":{"type":"Point","coordinates":[14.03098,50.68141]}},{"type":"Feature","properties":{"label:cs":"Keramická plastika Květ v jezírku parku Severní Terasa v Ústí nad Labem","P31":"Plastika","P31^label:cs":"Plastika","P131^label:cs":"Ústí nad Labem","P6736":"19033"},"geometry":{"type":"Point","coordinates":[14.03016,50.6816]}},{"type":"Feature","properties":{"label:cs":"Kříž u silnice z Božtěšic do Chuderova","P31":"Pamětní kříž","P31^label:cs":"Pamětní kříž","P131^label:cs":"Ústí nad Labem","P6736":"18755"},"geometry":{"type":"Point","coordinates":[14.02411,50.68813]}},{"type":"Feature","properties":{"label:cs":"Mozaiková plastika u školky v ulici Větrná v Ústí nad Labem","P31":"Plastika","P31^label:cs":"Plastika","P131^label:cs":"Ústí nad Labem","P6736":"18754"},"geometry":{"type":"Point","coordinates":[14.02708,50.68402]}},{"type":"Feature","properties":{"label:cs":"Socha Generace v ulici V Klidu v Ústí nad Labem","P31":"Socha","P31^label:cs":"Socha","P131^label:cs":"Ústí nad Labem","P6736":"18753"},"geometry":{"type":"Point","coordinates":[14.01975,50.68408]}},{"type":"Feature","properties":{"label:cs":"Kašna v Parku Severní Terasa v Ústí nad Labem","P31":"Kašna","P31^label:cs":"Kašna","P131^label:cs":"Ústí nad Labem","P6736":"16594"},"geometry":{"type":"Point","coordinates":[14.03108,50.68153]}},{"type":"Feature","properties":{"label:cs":"Kašna na dětském hřišti na Severní Terase v Ústí nad Labem","P31":"Kašna","P31^label:cs":"Kašna","P131^label:cs":"Ústí nad Labem","P6736":"16593"},"geometry":{"type":"Point","coordinates":[14.03087,50.68089]}},{"type":"Feature","properties":{"label:cs":"Socha Květinářka v parku Severní Terasa v Ústí nad Labem","P31":"Socha","P31^label:cs":"Socha","P131^label:cs":"Ústí nad Labem","P6736":"16591"},"geometry":{"type":"Point","coordinates":[14.03164,50.68107]}},{"type":"Feature","properties":{"label:cs":"Socha Klukovská rvačka v parku Severní Terasa v Ústí nad Labem","P31":"Socha","P31^label:cs":"Socha","P131^label:cs":"Ústí nad Labem","P6736":"16590"},"geometry":{"type":"Point","coordinates":[14.02954,50.68149]}},{"type":"Feature","properties":{"label:cs":"Socha matky s dítětem v parku Severní Terasa v Ústí nad Labem","P31":"Socha","P31^label:cs":"Socha","P131^label:cs":"Ústí nad Labem","P6736":"16589"},"geometry":{"type":"Point","coordinates":[14.02967,50.6823]}},{"type":"Feature","properties":{"label:cs":"Socha Rodina v parku Severní Terasa v Ústí nad Labem","P31":"Socha","P31^label:cs":"Socha","P131^label:cs":"Ústí nad Labem","P6736":"16588"},"geometry":{"type":"Point","coordinates":[14.03066,50.68246]}},{"type":"Feature","properties":{"label:cs":"Socha gymnastek v parku Severní Terasa v Ústí nad Labem","P31":"Socha","P31^label:cs":"Socha","P131^label:cs":"Ústí nad Labem","P6736":"16548"},"geometry":{"type":"Point","coordinates":[14.03096,50.68145]}},{"type":"Feature","properties":{"label:cs":"Socha Matka s dítětem v parku Severní Terasa v Ústí nad Labem","P31":"Socha","P31^label:cs":"Socha","P131^label:cs":"Ústí nad Labem","P6736":"14644"},"geometry":{"type":"Point","coordinates":[14.03126,50.68239]}},{"type":"Feature","properties":{"label:cs":"Pomník osvobození na Kočkově","P31":"Pomník","P31^label:cs":"Pomník","P131^label:cs":"Ústí nad Labem","P6736":"13342"},"geometry":{"type":"Point","coordinates":[14.03968,50.68437]}},{"type":"Feature","properties":{"label:cs":"Kříž v Božtěšicích","P31":"Pamětní kříž","P31^label:cs":"Pamětní kříž","P131^label:cs":"Ústí nad Labem","P6736":"13341"},"geometry":{"type":"Point","coordinates":[14.02229,50.6903]}},{"type":"Feature","properties":{"label:cs":"Kaple v obci Božtěšice","P31":"Kaple","P31^label:cs":"Kaple","P131^label:cs":"Ústí nad Labem","P6736":"13340"},"geometry":{"type":"Point","coordinates":[14.02221,50.69083]}}]}