{"type":"FeatureCollection","features":[{"type":"Feature","properties":{"label:cs":"Památník vyhlášení stratotypu Klonk u Suchomast","P31":"http://www.wikidata.org/entity/Q5003624","P31^label:cs":"Památník","P131^label:cs":"Suchomasty","P6736":"34880"},"geometry":{"type":"Point","coordinates":[14.05838,49.89835]}},{"type":"Feature","properties":{"label:cs":"Pomník padlým v Suchomastech","P31":"http://www.wikidata.org/entity/Q575759","P31^label:cs":"Pomník padlým","P131^label:cs":"Suchomasty","P6736":"34879"},"geometry":{"type":"Point","coordinates":[14.05541,49.89613]}},{"type":"Feature","properties":{"label:cs":"Kaple v Suchomastech","P31":"http://www.wikidata.org/entity/Q108325","P31^label:cs":"Kaple","P131^label:cs":"Suchomasty","P6736":"34878"},"geometry":{"type":"Point","coordinates":[14.05658,49.89543]}},{"type":"Feature","properties":{"label:cs":"Památník Františka Cajthamla - Liberté v Suchomastech","P31":"http://www.wikidata.org/entity/Q5003624","P31^label:cs":"Památník","P131^label:cs":"Suchomasty","P6736":"34877"},"geometry":{"type":"Point","coordinates":[14.06083,49.89468]}},{"type":"Feature","properties":{"label:cs":"Kříž u Tmaně u kostela svatého Jiří","P31":"http://www.wikidata.org/entity/Q2309609","P31^label:cs":"Pamětní kříž","P131^label:cs":"Tmaň","P6736":"9159"},"geometry":{"type":"Point","coordinates":[14.04188,49.9081]}}]}