{"type":"FeatureCollection","features":[{"type":"Feature","properties":{"label:cs":"Kříž u autobusové zastávky v Královicích","P31":"http://www.wikidata.org/entity/Q2309609","P31^label:cs":"Pamětní kříž","P131^label:cs":"Královice","P6736":"42701"},"geometry":{"type":"Point","coordinates":[14.05665,50.26208]}},{"type":"Feature","properties":{"label:cs":"Socha svatého Václava na mostě v Královicích","P31":"http://www.wikidata.org/entity/Q179700","P31^label:cs":"Socha","P131^label:cs":"Královice","P6736":"42700"},"geometry":{"type":"Point","coordinates":[14.05618,50.26246]}},{"type":"Feature","properties":{"label:cs":"Socha svatého Jana Nepomuckého na mostě v Královicích","P31":"http://www.wikidata.org/entity/Q179700","P31^label:cs":"Socha","P131^label:cs":"Královice","P6736":"42699"},"geometry":{"type":"Point","coordinates":[14.05626,50.26249]}},{"type":"Feature","properties":{"label:cs":"Pamětní deska Josefa Hlaváčka na návsi v Královicích","P31":"http://www.wikidata.org/entity/Q721747","P31^label:cs":"Pamětní deska","P131^label:cs":"Královice","P6736":"42698"},"geometry":{"type":"Point","coordinates":[14.05566,50.2631]}},{"type":"Feature","properties":{"label:cs":"Kaple na návsi v Královicích","P31":"http://www.wikidata.org/entity/Q108325","P31^label:cs":"Kaple","P131^label:cs":"Královice","P6736":"42697"},"geometry":{"type":"Point","coordinates":[14.05568,50.26335]}},{"type":"Feature","properties":{"label:cs":"Kříž u silnice severně od Královic","P31":"http://www.wikidata.org/entity/Q2309609","P31^label:cs":"Pamětní kříž","P131^label:cs":"Královice","P6736":"42696"},"geometry":{"type":"Point","coordinates":[14.06101,50.26745]}}]}