{"type":"FeatureCollection","features":[{"type":"Feature","properties":{"label:cs":"Kamenná plastika u školy Anežky České v Krásném Březně","P31":"http://www.wikidata.org/entity/Q12045520","P31^label:cs":"Plastika","P131^label:cs":"Ústí nad Labem","P6736":"24349"},"geometry":{"type":"Point","coordinates":[14.07144,50.67117]}},{"type":"Feature","properties":{"label:cs":"Kamenná plastika v parku u inspekce životního prostředí v Krásném Březně","P31":"http://www.wikidata.org/entity/Q12045520","P31^label:cs":"Plastika","P131^label:cs":"Ústí nad Labem","P6736":"21383"},"geometry":{"type":"Point","coordinates":[14.06792,50.67014]}},{"type":"Feature","properties":{"label:cs":"Kašna v parku u inspekce životního prostředí v Krásném Březně","P31":"http://www.wikidata.org/entity/Q12029081","P31^label:cs":"Kašna","P131^label:cs":"Ústí nad Labem","P6736":"21382"},"geometry":{"type":"Point","coordinates":[14.06807,50.67022]}},{"type":"Feature","properties":{"label:cs":"Kamenné plastiky v parku v ulici Vojanova v Krásném Březně","P31":"http://www.wikidata.org/entity/Q12045520","P31^label:cs":"Plastika","P131^label:cs":"Ústí nad Labem","P6736":"14643"},"geometry":{"type":"Point","coordinates":[14.0664,50.66991]}},{"type":"Feature","properties":{"label:cs":"Socha svatého Jana Nepomuckého u kostela svatého Floriána v Krásném Březně","P31":"http://www.wikidata.org/entity/Q179700","P31^label:cs":"Socha","P131^label:cs":"Ústí nad Labem","P6736":"13475"},"geometry":{"type":"Point","coordinates":[14.08132,50.66689]}}]}