{"type":"FeatureCollection","features":[{"type":"Feature","properties":{"label:cs":"Pomník posádky československé armády v ulici Tomanova ve Slaném","P31":"Q4989906","P31^label:cs":"Pomník","P131^label:cs":"Slaný","P6736":"25119"},"geometry":{"type":"Point","coordinates":[14.06755,50.23266]}},{"type":"Feature","properties":{"label:cs":"Kamenná plastika mezi domy v ulici Tomanova ve Slaném","P31":"Q12045520","P31^label:cs":"Plastika","P131^label:cs":"Slaný","P6736":"25118"},"geometry":{"type":"Point","coordinates":[14.06857,50.2326]}},{"type":"Feature","properties":{"label:cs":"Plastika Strom života u školky ve Vítězné ulici v Slaném","P31":"Q12045520","P31^label:cs":"Plastika","P131^label:cs":"Slaný","P6736":"25096"},"geometry":{"type":"Point","coordinates":[14.08206,50.22918]}},{"type":"Feature","properties":{"label:cs":"Kaplička na rozcestí ulic Smečenská a U Přádelny ve Slaném","P31":"Q14552192","P31^label:cs":"Kaplička","P131^label:cs":"Slaný","P6736":"25095"},"geometry":{"type":"Point","coordinates":[14.08271,50.22452]}},{"type":"Feature","properties":{"label:cs":"Kaple Božího hrobu na vrchu nad osadou Kvíček","P31":"Q108325","P31^label:cs":"Kaple","P131^label:cs":"Slaný","P6736":"25093"},"geometry":{"type":"Point","coordinates":[14.08134,50.21973]}},{"type":"Feature","properties":{"label:cs":"Kaple v osadě Kvíček","P31":"Q108325","P31^label:cs":"Kaple","P131^label:cs":"Slaný","P6736":"25092"},"geometry":{"type":"Point","coordinates":[14.07464,50.22021]}}]}