{"type":"FeatureCollection","features":[{"type":"Feature","properties":{"label:cs":"Pomník padlých z 1. světové války v Brníkově","P31":"http://www.wikidata.org/entity/Q575759","P31^label:cs":"Pomník padlým","P131^label:cs":"Mšené-lázně","P6736":"9031"},"geometry":{"type":"Point","coordinates":[14.07865,50.37817]}},{"type":"Feature","properties":{"label:cs":"Pomník padlých - socha v Brníkově","P31":"http://www.wikidata.org/entity/Q575759","P31^label:cs":"Pomník padlým","P131^label:cs":"Mšené-lázně","P6736":"9032"},"geometry":{"type":"Point","coordinates":[14.07999,50.37827]}},{"type":"Feature","properties":{"label:cs":"Mariánský sloup na návsi v Brníkově","P31":"http://www.wikidata.org/entity/Q4817","P31^label:cs":"Sloup","P131^label:cs":"Mšené-lázně","P6736":"28945"},"geometry":{"type":"Point","coordinates":[14.07881,50.37722]}},{"type":"Feature","properties":{"label:cs":"Kaple na návsi v Brníkově","P31":"http://www.wikidata.org/entity/Q108325","P31^label:cs":"Kaple","P131^label:cs":"Mšené-lázně","P6736":"28944"},"geometry":{"type":"Point","coordinates":[14.07873,50.3772]}},{"type":"Feature","properties":{"label:cs":"Boží muka na rozcestí v centru Brníkova","P31":"http://www.wikidata.org/entity/Q3395121","P31^label:cs":"Boží muka","P131^label:cs":"Mšené-lázně","P6736":"28943"},"geometry":{"type":"Point","coordinates":[14.07823,50.37818]}}]}