{"type":"FeatureCollection","features":[{"type":"Feature","properties":{"label:cs":"Kříž jihozápadně od Vinařic","P31":"http://www.wikidata.org/entity/Q2309609","P31^label:cs":"Pamětní kříž","P131^label:cs":"Vinařice","P6736":"40277"},"geometry":{"type":"Point","coordinates":[14.09025,49.88916]}},{"type":"Feature","properties":{"label:cs":"Pomník padlým ve Vinařicích","P31":"http://www.wikidata.org/entity/Q575759","P31^label:cs":"Pomník padlým","P131^label:cs":"Vinařice","P6736":"40276"},"geometry":{"type":"Point","coordinates":[14.09833,49.89262]}},{"type":"Feature","properties":{"label:cs":"Kaple ve Vinařicích","P31":"http://www.wikidata.org/entity/Q108325","P31^label:cs":"Kaple","P131^label:cs":"Vinařice","P6736":"40275"},"geometry":{"type":"Point","coordinates":[14.09813,49.89282]}},{"type":"Feature","properties":{"label:cs":"Kříž severovýchodně od Vinařic","P31":"http://www.wikidata.org/entity/Q2309609","P31^label:cs":"Pamětní kříž","P131^label:cs":"Vinařice","P6736":"40274"},"geometry":{"type":"Point","coordinates":[14.10187,49.89352]}},{"type":"Feature","properties":{"label:cs":"Kříž na jihovýchodním okraji Vinařic","P31":"http://www.wikidata.org/entity/Q2309609","P31^label:cs":"Pamětní kříž","P131^label:cs":"Vinařice","P6736":"40273"},"geometry":{"type":"Point","coordinates":[14.10044,49.88995]}}]}