{"type":"FeatureCollection","features":[{"type":"Feature","properties":{"label:cs":"Kříž u staré cesty jižně od Osova","P31":"http://www.wikidata.org/entity/Q2309609","P31^label:cs":"Pamětní kříž","P131^label:cs":"Osov","P6736":"35576"},"geometry":{"type":"Point","coordinates":[14.09088,49.83741]}},{"type":"Feature","properties":{"label:cs":"Kříž u silnice mezi Osovem a Velkým Chlumcem","P31":"http://www.wikidata.org/entity/Q2309609","P31^label:cs":"Pamětní kříž","P131^label:cs":"Osov","P6736":"35574"},"geometry":{"type":"Point","coordinates":[14.0862,49.83585]}},{"type":"Feature","properties":{"label:cs":"Kříž v severní části Velkého Chlumce","P31":"http://www.wikidata.org/entity/Q2309609","P31^label:cs":"Pamětní kříž","P131^label:cs":"Velký Chlumec","P6736":"35573"},"geometry":{"type":"Point","coordinates":[14.08641,49.83212]}},{"type":"Feature","properties":{"label:cs":"Pomník padlým ve Velkém Chlumci","P31":"http://www.wikidata.org/entity/Q575759","P31^label:cs":"Pomník padlým","P131^label:cs":"Velký Chlumec","P6736":"35571"},"geometry":{"type":"Point","coordinates":[14.08659,49.82768]}},{"type":"Feature","properties":{"label:cs":"Kaple svaté Ludmily ve Velkém Chlumci","P31":"http://www.wikidata.org/entity/Q108325","P31^label:cs":"Kaple","P131^label:cs":"Velký Chlumec","P6736":"35570"},"geometry":{"type":"Point","coordinates":[14.08674,49.82757]}},{"type":"Feature","properties":{"label:cs":"Kříž v jižní části Velkého Chlumce","P31":"http://www.wikidata.org/entity/Q2309609","P31^label:cs":"Pamětní kříž","P131^label:cs":"Velký Chlumec","P6736":"35569"},"geometry":{"type":"Point","coordinates":[14.08526,49.82685]}}]}