{"type":"FeatureCollection","features":[{"type":"Feature","properties":{"label:cs":"Ruina skalní kaple u silnice z Mírkova do Neštěmic","P31":"Q108325","P31^label:cs":"Kaple","P131^label:cs":"Povrly","P6736":"14084"},"geometry":{"type":"Point","coordinates":[14.11234,50.68993]}},{"type":"Feature","properties":{"label:cs":"Kříž za kostelem v Mojžíři","P31":"Q2309609","P31^label:cs":"Pamětní kříž","P131^label:cs":"Ústí nad Labem","P6736":"13346"},"geometry":{"type":"Point","coordinates":[14.11507,50.68175]}},{"type":"Feature","properties":{"label:cs":"Socha svatého Donáta u kostela v Mojžíři","P31":"Q179700","P31^label:cs":"Socha","P131^label:cs":"Ústí nad Labem","P6736":"13345"},"geometry":{"type":"Point","coordinates":[14.11485,50.68174]}},{"type":"Feature","properties":{"label:cs":"Socha svatého Floriána v Horní ulici v Mojžíři","P31":"Q179700","P31^label:cs":"Socha","P131^label:cs":"Ústí nad Labem","P6736":"13344"},"geometry":{"type":"Point","coordinates":[14.11326,50.68114]}},{"type":"Feature","properties":{"label:cs":"Pomník padlým v Mojžíři","P31":"Q575759","P31^label:cs":"Pomník padlým","P131^label:cs":"Ústí nad Labem","P6736":"9243"},"geometry":{"type":"Point","coordinates":[14.11459,50.68151]}}]}