{"type":"FeatureCollection","features":[{"type":"Feature","properties":{"label:cs":"Reliéf u vjezdu do bývalých kasáren Pod Radobýlem v Litoměřicích","P31":"http://www.wikidata.org/entity/Q245117","P31^label:cs":"Reliéf","P131^label:cs":"Litoměřice","P6736":"38976"},"geometry":{"type":"Point","coordinates":[14.1144,50.54307]}},{"type":"Feature","properties":{"label:cs":"Pamětní deska obětem koncentračního tábora u brány bývalých kasáren Pod Radobýlem v Litoměřicích","P31":"http://www.wikidata.org/entity/Q721747","P31^label:cs":"Pamětní deska","P131^label:cs":"Litoměřice","P6736":"37899"},"geometry":{"type":"Point","coordinates":[14.11421,50.54329]}},{"type":"Feature","properties":{"label:cs":"Socha Dívka s kytarou u školy v Havlíčkově ulici v Litoměřicích","P31":"http://www.wikidata.org/entity/Q179700","P31^label:cs":"Socha","P131^label:cs":"Litoměřice","P6736":"20828"},"geometry":{"type":"Point","coordinates":[14.12758,50.54321]}},{"type":"Feature","properties":{"label:cs":"Kříž naproti domu 44 v Miřejovicívh","P31":"http://www.wikidata.org/entity/Q2309609","P31^label:cs":"Pamětní kříž","P131^label:cs":"Miřejovice","P6736":"37897"},"geometry":{"type":"Point","coordinates":[14.11144,50.55144]}},{"type":"Feature","properties":{"label:cs":"Kaple v Pokratické ulici v Pokraticích","P31":"http://www.wikidata.org/entity/Q108325","P31^label:cs":"Kaple","P131^label:cs":"Litoměřice","P6736":"17210"},"geometry":{"type":"Point","coordinates":[14.12641,50.54823]}},{"type":"Feature","properties":{"label:cs":"Kříž v Pokratické ulici v Pokraticích","P31":"http://www.wikidata.org/entity/Q2309609","P31^label:cs":"Pamětní kříž","P131^label:cs":"Litoměřice","P6736":"17209"},"geometry":{"type":"Point","coordinates":[14.12562,50.55004]}},{"type":"Feature","properties":{"label:cs":"Pomník padlým v Litoměřicích","P31":"http://www.wikidata.org/entity/Q575759","P31^label:cs":"Pomník padlým","P131^label:cs":"Litoměřice","P6736":"9086"},"geometry":{"type":"Point","coordinates":[14.12553,50.54993]}}]}