{"type":"FeatureCollection","features":[{"type":"Feature","properties":{"label:cs":"Socha dobrého vojáka Švejka v Putimi","P31":"http://www.wikidata.org/entity/Q179700","P31^label:cs":"Socha","P131^label:cs":"Putim","P6736":"37267"},"geometry":{"type":"Point","coordinates":[14.11714,49.26473]}},{"type":"Feature","properties":{"label:cs":"Kříž v Putimi v parku II","P31":"http://www.wikidata.org/entity/Q2309609","P31^label:cs":"Pamětní kříž","P131^label:cs":"Putim","P6736":"37265"},"geometry":{"type":"Point","coordinates":[14.11908,49.26535]}},{"type":"Feature","properties":{"label:cs":"Kříž v Putimi v parku I","P31":"http://www.wikidata.org/entity/Q2309609","P31^label:cs":"Pamětní kříž","P131^label:cs":"Putim","P6736":"37264"},"geometry":{"type":"Point","coordinates":[14.11925,49.26535]}},{"type":"Feature","properties":{"label:cs":"Pomník padlým v Putimi","P31":"http://www.wikidata.org/entity/Q575759","P31^label:cs":"Pomník padlým","P131^label:cs":"Putim","P6736":"37263"},"geometry":{"type":"Point","coordinates":[14.11934,49.26485]}},{"type":"Feature","properties":{"label:cs":"Kříž západně od Putimi","P31":"http://www.wikidata.org/entity/Q2309609","P31^label:cs":"Pamětní kříž","P131^label:cs":"Putim","P6736":"37261"},"geometry":{"type":"Point","coordinates":[14.1137,49.2638]}},{"type":"Feature","properties":{"label:cs":"Kaplička svatého Jana Nepomuckého v Putimi","P31":"http://www.wikidata.org/entity/Q14552192","P31^label:cs":"Kaplička","P131^label:cs":"Putim","P6736":"37259"},"geometry":{"type":"Point","coordinates":[14.11574,49.26453]}},{"type":"Feature","properties":{"label:cs":"Kříž v Putimi u Podkostelního rybníka","P31":"http://www.wikidata.org/entity/Q2309609","P31^label:cs":"Pamětní kříž","P131^label:cs":"Putim","P6736":"37257"},"geometry":{"type":"Point","coordinates":[14.12307,49.26326]}}]}