{"type":"FeatureCollection","features":[{"type":"Feature","properties":{"label:cs":"Náhrobník na stěně kostela svatého Petra a Pavla v Unhošti","P31":"http://www.wikidata.org/entity/Q5003624","P31^label:cs":"Památník","P131^label:cs":"Unhošť","P6736":"16247"},"geometry":{"type":"Point","coordinates":[14.13183,50.08534]}},{"type":"Feature","properties":{"label:cs":"Socha svatého Václava v Unhošti","P31":"http://www.wikidata.org/entity/Q179700","P31^label:cs":"Socha","P131^label:cs":"Unhošť","P6736":"16248"},"geometry":{"type":"Point","coordinates":[14.13163,50.08528]}},{"type":"Feature","properties":{"label:cs":"Pamětní kříž v Unhošti u Lidické ulice","P31":"http://www.wikidata.org/entity/Q2309609","P31^label:cs":"Pamětní kříž","P131^label:cs":"Unhošť","P6736":"16251"},"geometry":{"type":"Point","coordinates":[14.13222,50.08801]}},{"type":"Feature","properties":{"label:cs":"Hřbitovní kaple svaté Barbory v Unhošti","P31":"http://www.wikidata.org/entity/Q108325","P31^label:cs":"Kaple","P131^label:cs":"Unhošť","P6736":"16290"},"geometry":{"type":"Point","coordinates":[14.13192,50.08713]}},{"type":"Feature","properties":{"label:cs":"Sousoší Zamilovaná dvojice v Unhošti","P31":"http://www.wikidata.org/entity/Q179700","P31^label:cs":"Socha","P131^label:cs":"Unhošť","P6736":"16291"},"geometry":{"type":"Point","coordinates":[14.12947,50.0853]}},{"type":"Feature","properties":{"label:cs":"Socha svatého Jana Nepomuckého v Unhošti","P31":"http://www.wikidata.org/entity/Q179700","P31^label:cs":"Socha","P131^label:cs":"Unhošť","P6736":"17866"},"geometry":{"type":"Point","coordinates":[14.1318,50.08552]}},{"type":"Feature","properties":{"label:cs":"Kříž jihovýchodně od Unhoště","P31":"http://www.wikidata.org/entity/Q2309609","P31^label:cs":"Pamětní kříž","P131^label:cs":"Unhošť","P6736":"20918"},"geometry":{"type":"Point","coordinates":[14.14016,50.08014]}}]}