{"type":"FeatureCollection","features":[{"type":"Feature","properties":{"label:cs":"Kříž severně od Lhenic u zahrady","P31":"http://www.wikidata.org/entity/Q2309609","P31^label:cs":"Pamětní kříž","P131^label:cs":"Lhenice","P6736":"1892"},"geometry":{"type":"Point","coordinates":[14.15379,48.99976]}},{"type":"Feature","properties":{"label:cs":"Kaple severně od Lhenic u cesty do Netolic","P31":"http://www.wikidata.org/entity/Q108325","P31^label:cs":"Kaple","P131^label:cs":"Lhenice","P6736":"1893"},"geometry":{"type":"Point","coordinates":[14.15504,48.99963]}},{"type":"Feature","properties":{"label:cs":"Kříž východně od Lhenic","P31":"http://www.wikidata.org/entity/Q2309609","P31^label:cs":"Pamětní kříž","P131^label:cs":"Lhenice","P6736":"1894"},"geometry":{"type":"Point","coordinates":[14.15683,48.9995]}},{"type":"Feature","properties":{"label:cs":"Kříž východně od Lhenic v polích","P31":"http://www.wikidata.org/entity/Q2309609","P31^label:cs":"Pamětní kříž","P131^label:cs":"Lhenice","P6736":"1895"},"geometry":{"type":"Point","coordinates":[14.15942,48.9971]}},{"type":"Feature","properties":{"label:cs":"Kaplička severně od Lhenic","P31":"http://www.wikidata.org/entity/Q14552192","P31^label:cs":"Kaplička","P131^label:cs":"Lhenice","P6736":"1909"},"geometry":{"type":"Point","coordinates":[14.1509,48.99813]}}]}