{"type":"FeatureCollection","features":[{"type":"Feature","properties":{"label:cs":"Sochy na štítě kostela svatého Františka Xaverského v Bělé u Děčína","P31":"http://www.wikidata.org/entity/Q179700","P31^label:cs":"Socha","P131^label:cs":"Děčín","P6736":"24842"},"geometry":{"type":"Point","coordinates":[14.16793,50.78992]}},{"type":"Feature","properties":{"label:cs":"Pamětní deska padlým v 1. světové válce na kostele v Bělé u Děčína","P31":"http://www.wikidata.org/entity/Q721747","P31^label:cs":"Pamětní deska","P131^label:cs":"Děčín","P6736":"24841"},"geometry":{"type":"Point","coordinates":[14.16826,50.78976]}},{"type":"Feature","properties":{"label:cs":"Podstavec ulomeného kříže na rozcestí ulic Pod Vrchem a U Křížku v Bynově","P31":"http://www.wikidata.org/entity/Q2309609","P31^label:cs":"Pamětní kříž","P131^label:cs":"Děčín","P6736":"24840"},"geometry":{"type":"Point","coordinates":[14.15391,50.7874]}},{"type":"Feature","properties":{"label:cs":"Socha Panny Marie na kostele Jména Panny Marie v Bynově","P31":"http://www.wikidata.org/entity/Q179700","P31^label:cs":"Socha","P131^label:cs":"Děčín","P6736":"24839"},"geometry":{"type":"Point","coordinates":[14.15273,50.78236]}},{"type":"Feature","properties":{"label:cs":"Boží muka v ulici U Zámečku v Bynově","P31":"http://www.wikidata.org/entity/Q3395121","P31^label:cs":"Boží muka","P131^label:cs":"Děčín","P6736":"16158"},"geometry":{"type":"Point","coordinates":[14.15609,50.78159]}}]}