{"type":"FeatureCollection","features":[{"type":"Feature","properties":{"label:cs":"Sochy alegorií Živlů na horní balustrádě jižní strany zámku v Ploskovicích","P31":"Q179700","P31^label:cs":"Socha","P131^label:cs":"Ploskovice","P6736":"23293"},"geometry":{"type":"Point","coordinates":[14.20073,50.55955]}},{"type":"Feature","properties":{"label:cs":"Sochy alegorií Živlů na horní balustrádě jižní strany zámku v Ploskovicích","P31":"Q179700","P31^label:cs":"Socha","P131^label:cs":"Ploskovice","P6736":"23292"},"geometry":{"type":"Point","coordinates":[14.20084,50.55955]}},{"type":"Feature","properties":{"label:cs":"Zvonička ve zdi zámeckého parku v Ploskovicích","P31":"Q10861631","P31^label:cs":"Zvonička","P131^label:cs":"Ploskovice","P6736":"23289"},"geometry":{"type":"Point","coordinates":[14.19973,50.56052]}},{"type":"Feature","properties":{"label:cs":"Socha svaté Anny v zámeckém parku v Ploskovicích","P31":"Q179700","P31^label:cs":"Socha","P131^label:cs":"Ploskovice","P6736":"23288"},"geometry":{"type":"Point","coordinates":[14.20008,50.55875]}},{"type":"Feature","properties":{"label:cs":"Pomník československo-italského přátelství v zámeckém parku v Ploskovicích","P31":"Q4989906","P31^label:cs":"Pomník","P131^label:cs":"Ploskovice","P6736":"23287"},"geometry":{"type":"Point","coordinates":[14.19994,50.56035]}},{"type":"Feature","properties":{"label:cs":"Gloriet (altán) v zámecké zahradě v Ploskovicích","P31":"?","P31^label:cs":"Něco jiného","P131^label:cs":"Ploskovice","P6736":"23285"},"geometry":{"type":"Point","coordinates":[14.20055,50.56069]}},{"type":"Feature","properties":{"label:cs":"Kříž u silnice jižně od Těchobuzic","P31":"Q2309609","P31^label:cs":"Pamětní kříž","P131^label:cs":"Ploskovice","P6736":"17680"},"geometry":{"type":"Point","coordinates":[14.20283,50.56718]}},{"type":"Feature","properties":{"label:cs":"Kříž na rozcestí na západním okraji Ploskovic","P31":"Q2309609","P31^label:cs":"Pamětní kříž","P131^label:cs":"Ploskovice","P6736":"17202"},"geometry":{"type":"Point","coordinates":[14.1961,50.55875]}},{"type":"Feature","properties":{"label:cs":"Pomník padlým v 1.světové válce v Ploskovicích","P31":"Q575759","P31^label:cs":"Pomník padlým","P131^label:cs":"Ploskovice","P6736":"17201"},"geometry":{"type":"Point","coordinates":[14.19628,50.55859]}},{"type":"Feature","properties":{"label:cs":"Pomník zakladatelům ovocnářství na Ploskovicku v centru Ploskovic","P31":"Q4989906","P31^label:cs":"Pomník","P131^label:cs":"Ploskovice","P6736":"17200"},"geometry":{"type":"Point","coordinates":[14.19829,50.56018]}},{"type":"Feature","properties":{"label:cs":"Kaplička Panny Marie Poustevnické u silnice v Ploskovicích","P31":"Q14552192","P31^label:cs":"Kaplička","P131^label:cs":"Ploskovice","P6736":"17199"},"geometry":{"type":"Point","coordinates":[14.19608,50.55793]}},{"type":"Feature","properties":{"label:cs":"Malá kašna u zdi schodiště v zahradě zámku v Ploskovicích","P31":"Q12029081","P31^label:cs":"Kašna","P131^label:cs":"Ploskovice","P6736":"17198"},"geometry":{"type":"Point","coordinates":[14.20106,50.55958]}},{"type":"Feature","properties":{"label:cs":"Kašna v dolní zahradě zámku v Ploskovicích","P31":"Q12029081","P31^label:cs":"Kašna","P131^label:cs":"Ploskovice","P6736":"17197"},"geometry":{"type":"Point","coordinates":[14.2009,50.5591]}},{"type":"Feature","properties":{"label:cs":"Kašna v horní zahradě zámku v Ploskovicích","P31":"Q12029081","P31^label:cs":"Kašna","P131^label:cs":"Ploskovice","P6736":"17196"},"geometry":{"type":"Point","coordinates":[14.20064,50.56033]}},{"type":"Feature","properties":{"label:cs":"Kříž na rozcestí v centru Ploskovic","P31":"Q2309609","P31^label:cs":"Pamětní kříž","P131^label:cs":"Ploskovice","P6736":"17195"},"geometry":{"type":"Point","coordinates":[14.1993,50.56095]}},{"type":"Feature","properties":{"label:cs":"Kaplička na kopci nad Býčkovicemi","P31":"Q14552192","P31^label:cs":"Kaplička","P131^label:cs":"Býčkovice","P6736":"17194"},"geometry":{"type":"Point","coordinates":[14.21533,50.56128]}},{"type":"Feature","properties":{"label:cs":"Kaplička na rozcestí v centru Býčkovic","P31":"Q14552192","P31^label:cs":"Kaplička","P131^label:cs":"Býčkovice","P6736":"17193"},"geometry":{"type":"Point","coordinates":[14.21442,50.5606]}},{"type":"Feature","properties":{"label:cs":"Kaplička na návsi v Býčkovicích","P31":"Q14552192","P31^label:cs":"Kaplička","P131^label:cs":"Býčkovice","P6736":"17192"},"geometry":{"type":"Point","coordinates":[14.21299,50.56007]}},{"type":"Feature","properties":{"label:cs":"Pomník padlým na návsi v Býčkovicích","P31":"Q575759","P31^label:cs":"Pomník padlým","P131^label:cs":"Býčkovice","P6736":"17191"},"geometry":{"type":"Point","coordinates":[14.21358,50.55996]}},{"type":"Feature","properties":{"label:cs":"Kaple na hřbitově v Býčkovicích","P31":"Q108325","P31^label:cs":"Kaple","P131^label:cs":"Býčkovice","P6736":"17190"},"geometry":{"type":"Point","coordinates":[14.21244,50.55636]}},{"type":"Feature","properties":{"label:cs":"Centrální kříž na hřbitově v Býčkovicích","P31":"Q2309609","P31^label:cs":"Pamětní kříž","P131^label:cs":"Býčkovice","P6736":"17189"},"geometry":{"type":"Point","coordinates":[14.21277,50.55677]}}]}