{"type":"FeatureCollection","features":[{"type":"Feature","properties":{"label:cs":"Pomník obětem ve světových válkách v Drahelčicích","P31":"http://www.wikidata.org/entity/Q575759","P31^label:cs":"Pomník padlým","P131^label:cs":"Drahelčice","P6736":"22669"},"geometry":{"type":"Point","coordinates":[14.2036,50.03103]}},{"type":"Feature","properties":{"label:cs":"Kaple svatého Jana Nepomuckého v Drahelčicích","P31":"http://www.wikidata.org/entity/Q108325","P31^label:cs":"Kaple","P131^label:cs":"Drahelčice","P6736":"22668"},"geometry":{"type":"Point","coordinates":[14.20326,50.03145]}},{"type":"Feature","properties":{"label:cs":"Pamětní kříž pod Masarykovou lípou v Drahelčicích","P31":"http://www.wikidata.org/entity/Q2309609","P31^label:cs":"Pamětní kříž","P131^label:cs":"Drahelčice","P6736":"22667"},"geometry":{"type":"Point","coordinates":[14.19886,50.03112]}},{"type":"Feature","properties":{"label:cs":"Kaple Blahoslavené Panny Marie na hřbitově v Hořelicích","P31":"http://www.wikidata.org/entity/Q108325","P31^label:cs":"Kaple","P131^label:cs":"Rudná","P6736":"40609"},"geometry":{"type":"Point","coordinates":[14.21543,50.02832]}},{"type":"Feature","properties":{"label:cs":"Pomník padlým u kostela v Hořelicích","P31":"http://www.wikidata.org/entity/Q575759","P31^label:cs":"Pomník padlým","P131^label:cs":"Rudná","P6736":"40607"},"geometry":{"type":"Point","coordinates":[14.2128,50.02599]}},{"type":"Feature","properties":{"label:cs":"Altán-gloriet u zámku v Hořelicích","P31":"http://www.wikidata.org/entity/Q961082","P31^label:cs":"Altán","P131^label:cs":"Rudná","P6736":"40606"},"geometry":{"type":"Point","coordinates":[14.21404,50.02468]}}]}