{"type":"FeatureCollection","features":[{"type":"Feature","properties":{"label:cs":"Kaplička v Protivíně v Mírové ulici","P31":"Q14552192","P31^label:cs":"Kaplička","P131^label:cs":"Protivín","P6736":"6231"},"geometry":{"type":"Point","coordinates":[14.21577,49.20282]}},{"type":"Feature","properties":{"label:cs":"Kaplička v Protivíně za kaplí","P31":"Q14552192","P31^label:cs":"Kaplička","P131^label:cs":"Protivín","P6736":"6230"},"geometry":{"type":"Point","coordinates":[14.21586,49.2048]}},{"type":"Feature","properties":{"label:cs":"Kaple v Protivíně","P31":"Q108325","P31^label:cs":"Kaple","P131^label:cs":"Protivín","P6736":"6229"},"geometry":{"type":"Point","coordinates":[14.21546,49.20484]}},{"type":"Feature","properties":{"label:cs":"Památník Marty Krásové v Protivíně","P31":"Q5003624","P31^label:cs":"Památník","P131^label:cs":"Protivín","P6736":"6228"},"geometry":{"type":"Point","coordinates":[14.21478,49.20489]}},{"type":"Feature","properties":{"label:cs":"Kříž u kaple v Protivíně","P31":"Q2309609","P31^label:cs":"Pamětní kříž","P131^label:cs":"Protivín","P6736":"6227"},"geometry":{"type":"Point","coordinates":[14.21516,49.20485]}},{"type":"Feature","properties":{"label:cs":"Kříž v Protivíně u Jiráskovy ulice","P31":"Q2309609","P31^label:cs":"Pamětní kříž","P131^label:cs":"Protivín","P6736":"6226"},"geometry":{"type":"Point","coordinates":[14.21469,49.20787]}}]}