{"type":"FeatureCollection","features":[{"type":"Feature","properties":{"label:cs":"Pamětní deska Ervína Špindlera na domě Rváčov 163 v Roudnici","P31":"Q721747","P31^label:cs":"Pamětní deska","P131^label:cs":"Roudnice nad Labem","P6736":"25323"},"geometry":{"type":"Point","coordinates":[14.25797,50.42588]}},{"type":"Feature","properties":{"label:cs":"Pamětní deska Jindřicha Varhana v Roudnici","P31":"Q721747","P31^label:cs":"Pamětní deska","P131^label:cs":"Roudnice nad Labem","P6736":"25240"},"geometry":{"type":"Point","coordinates":[14.25966,50.42455]}},{"type":"Feature","properties":{"label:cs":"Pamětní deska Eduarda Šimona v Roudnici","P31":"Q721747","P31^label:cs":"Pamětní deska","P131^label:cs":"Roudnice nad Labem","P6736":"25239"},"geometry":{"type":"Point","coordinates":[14.2549,50.42436]}},{"type":"Feature","properties":{"label:cs":"Sochy svatých Petra a Pavla na bočním portálu kostela Narození Panny Marie v Roudnici","P31":"Q179700","P31^label:cs":"Socha","P131^label:cs":"Roudnice nad Labem","P6736":"25238"},"geometry":{"type":"Point","coordinates":[14.2569,50.42668]}},{"type":"Feature","properties":{"label:cs":"Socha Panny Marie ve výklenku zadní zdi kostela Narození Panny Marie v Roudnici nad Labem","P31":"Q179700","P31^label:cs":"Socha","P131^label:cs":"Roudnice nad Labem","P6736":"24626"},"geometry":{"type":"Point","coordinates":[14.25734,50.42652]}},{"type":"Feature","properties":{"label:cs":"Pamětní deska Josefa Mašína v Roudnici nad Labem","P31":"Q721747","P31^label:cs":"Pamětní deska","P131^label:cs":"Roudnice nad Labem","P6736":"24460"},"geometry":{"type":"Point","coordinates":[14.25824,50.42432]}},{"type":"Feature","properties":{"label:cs":"Obrázek Madony na domě Nerudova 38 v Roudnici nad Labem","P31":"Q478798","P31^label:cs":"Obrázek","P131^label:cs":"Roudnice nad Labem","P6736":"24459"},"geometry":{"type":"Point","coordinates":[14.25824,50.42378]}},{"type":"Feature","properties":{"label:cs":"Zvonice v Roudnici nad Labem","P31":"Q10861631","P31^label:cs":"Zvonička","P131^label:cs":"Roudnice nad Labem","P6736":"21410"},"geometry":{"type":"Point","coordinates":[14.25696,50.42567]}},{"type":"Feature","properties":{"label:cs":"Kaplička nad Roudným pramenem v Roudnici nad Labem","P31":"Q14552192","P31^label:cs":"Kaplička","P131^label:cs":"Roudnice nad Labem","P6736":"19842"},"geometry":{"type":"Point","coordinates":[14.25742,50.42669]}},{"type":"Feature","properties":{"label:cs":"Socha Panny Marie na kostele Narození Panny Marie v Roudnici nad Labem","P31":"Q179700","P31^label:cs":"Socha","P131^label:cs":"Roudnice nad Labem","P6736":"19841"},"geometry":{"type":"Point","coordinates":[14.25663,50.42662]}},{"type":"Feature","properties":{"label:cs":"Pomník v místě pohřbu pruských vojáků v parku Josefa Hory v Roudnici nad Labem","P31":"Q575759","P31^label:cs":"Pomník padlým","P131^label:cs":"Roudnice nad Labem","P6736":"17055"},"geometry":{"type":"Point","coordinates":[14.25423,50.42552]}},{"type":"Feature","properties":{"label:cs":"Socha svatého Jana Nepomuckého u kostela Narození Panny Marie v Roudnici nad Labem","P31":"Q179700","P31^label:cs":"Socha","P131^label:cs":"Roudnice nad Labem","P6736":"16904"},"geometry":{"type":"Point","coordinates":[14.25685,50.42678]}},{"type":"Feature","properties":{"label:cs":"Kašna na Karlově náměstí v Roudnici nad Labem","P31":"Q12029081","P31^label:cs":"Kašna","P131^label:cs":"Roudnice nad Labem","P6736":"16704"},"geometry":{"type":"Point","coordinates":[14.26021,50.42434]}},{"type":"Feature","properties":{"label:cs":"Pomník Jana Husa na Husově náměstí v Roudnici nad Labem","P31":"Q4989906","P31^label:cs":"Pomník","P131^label:cs":"Roudnice nad Labem","P6736":"16702"},"geometry":{"type":"Point","coordinates":[14.25851,50.42413]}},{"type":"Feature","properties":{"label:cs":"Pomník Josefa Hory v Roudnici nad Labem","P31":"Q4989906","P31^label:cs":"Pomník","P131^label:cs":"Roudnice nad Labem","P6736":"16701"},"geometry":{"type":"Point","coordinates":[14.25483,50.42535]}},{"type":"Feature","properties":{"label:cs":"Pomník Martina Švagrovského v parku v Bezručově ulici v Roudnici nad Labem","P31":"Q4989906","P31^label:cs":"Pomník","P131^label:cs":"Roudnice nad Labem","P6736":"16700"},"geometry":{"type":"Point","coordinates":[14.25396,50.42496]}},{"type":"Feature","properties":{"label:cs":"Kaple svatého Josefa v Riegrově ulici v Roudnici nad Labem","P31":"Q108325","P31^label:cs":"Kaple","P131^label:cs":"Roudnice nad Labem","P6736":"16695"},"geometry":{"type":"Point","coordinates":[14.25767,50.42317]}},{"type":"Feature","properties":{"label:cs":"Pomník Jana Evangelisty Purkyně na Purkyňově náměstí v Roudnici nad Labem","P31":"Q4989906","P31^label:cs":"Pomník","P131^label:cs":"Roudnice nad Labem","P6736":"16694"},"geometry":{"type":"Point","coordinates":[14.25423,50.42278]}},{"type":"Feature","properties":{"label:cs":"Kaple svatého Viléma na Purkyňově náměstí v Roudnici nad Labem","P31":"Q108325","P31^label:cs":"Kaple","P131^label:cs":"Roudnice nad Labem","P6736":"16693"},"geometry":{"type":"Point","coordinates":[14.2544,50.42253]}},{"type":"Feature","properties":{"label:cs":"Kaple na Špindlerově třídě v Roudnici nad Labem","P31":"Q108325","P31^label:cs":"Kaple","P131^label:cs":"Roudnice nad Labem","P6736":"16692"},"geometry":{"type":"Point","coordinates":[14.25118,50.41965]}},{"type":"Feature","properties":{"label:cs":"Kaple na rohu ulic Stadická a Špindlerova v Roudnici nad Labem","P31":"Q108325","P31^label:cs":"Kaple","P131^label:cs":"Roudnice nad Labem","P6736":"16691"},"geometry":{"type":"Point","coordinates":[14.24974,50.41812]}},{"type":"Feature","properties":{"label:cs":"Kříž před hřbitovem v Roudnici nad Labem","P31":"Q2309609","P31^label:cs":"Pamětní kříž","P131^label:cs":"Roudnice nad Labem","P6736":"16689"},"geometry":{"type":"Point","coordinates":[14.24038,50.42732]}},{"type":"Feature","properties":{"label:cs":"Pomník padlým v 1. a 2.světové válce na hřbitově v Roudnici nad Labem","P31":"Q575759","P31^label:cs":"Pomník padlým","P131^label:cs":"Roudnice nad Labem","P6736":"16688"},"geometry":{"type":"Point","coordinates":[14.23996,50.42755]}},{"type":"Feature","properties":{"label:cs":"Kaple na hřbitově v Roudnici nad Labem","P31":"Q108325","P31^label:cs":"Kaple","P131^label:cs":"Roudnice nad Labem","P6736":"16687"},"geometry":{"type":"Point","coordinates":[14.24017,50.42749]}},{"type":"Feature","properties":{"label:cs":"Kaple svaté Rozálie v Terezínské ulici v Roudnici nad Labem","P31":"Q108325","P31^label:cs":"Kaple","P131^label:cs":"Roudnice nad Labem","P6736":"16686"},"geometry":{"type":"Point","coordinates":[14.24507,50.42676]}},{"type":"Feature","properties":{"label:cs":"Pomník 1.fotbalového zápasu v Čechách na ostrově v Roudnici nad Labem","P31":"Q4989906","P31^label:cs":"Pomník","P131^label:cs":"Roudnice nad Labem","P6736":"16685"},"geometry":{"type":"Point","coordinates":[14.25105,50.42923]}}]}