{"type":"FeatureCollection","features":[{"type":"Feature","properties":{"label:cs":"Zvonice v Těšínově","P31":"http://www.wikidata.org/entity/Q200334","P31^label:cs":"Zvonice","P131^label:cs":"Protivín","P6736":"6243"},"geometry":{"type":"Point","coordinates":[14.27365,49.19146]}},{"type":"Feature","properties":{"label:cs":"Kříž v Těšínově u křižovatky","P31":"http://www.wikidata.org/entity/Q2309609","P31^label:cs":"Pamětní kříž","P131^label:cs":"Protivín","P6736":"6242"},"geometry":{"type":"Point","coordinates":[14.27667,49.19487]}},{"type":"Feature","properties":{"label:cs":"Kříž v Těšínově u rozcestí","P31":"http://www.wikidata.org/entity/Q2309609","P31^label:cs":"Pamětní kříž","P131^label:cs":"Protivín","P6736":"6241"},"geometry":{"type":"Point","coordinates":[14.2724,49.19077]}},{"type":"Feature","properties":{"label:cs":"Pomník padlým v Těšínově","P31":"http://www.wikidata.org/entity/Q575759","P31^label:cs":"Pomník padlým","P131^label:cs":"Protivín","P6736":"6240"},"geometry":{"type":"Point","coordinates":[14.27234,49.19075]}},{"type":"Feature","properties":{"label:cs":"Kříž u Těšínova","P31":"http://www.wikidata.org/entity/Q2309609","P31^label:cs":"Pamětní kříž","P131^label:cs":"Protivín","P6736":"2817"},"geometry":{"type":"Point","coordinates":[14.27153,49.18665]}},{"type":"Feature","properties":{"label:cs":"Kříž pod Krčí u silnice na Temelín","P31":"http://www.wikidata.org/entity/Q2309609","P31^label:cs":"Pamětní kříž","P131^label:cs":"Protivín","P6736":"1798"},"geometry":{"type":"Point","coordinates":[14.26125,49.19395]}}]}