{"type":"FeatureCollection","features":[{"type":"Feature","properties":{"label:cs":"Kříž u silnice severně od Bynovce","P31":"http://www.wikidata.org/entity/Q2309609","P31^label:cs":"Pamětní kříž","P131^label:cs":"Bynovec","P6736":"25034"},"geometry":{"type":"Point","coordinates":[14.26201,50.8254]}},{"type":"Feature","properties":{"label:cs":"Boží muka v Bynovci","P31":"http://www.wikidata.org/entity/Q3395121","P31^label:cs":"Boží muka","P131^label:cs":"Bynovec","P6736":"25033"},"geometry":{"type":"Point","coordinates":[14.26143,50.82109]}},{"type":"Feature","properties":{"label:cs":"Kříž na jižním okraji Arnoltic","P31":"http://www.wikidata.org/entity/Q2309609","P31^label:cs":"Pamětní kříž","P131^label:cs":"Arnoltice","P6736":"22025"},"geometry":{"type":"Point","coordinates":[14.26214,50.83305]}},{"type":"Feature","properties":{"label:cs":"Kaple na návsi v Bynovci","P31":"http://www.wikidata.org/entity/Q108325","P31^label:cs":"Kaple","P131^label:cs":"Bynovec","P6736":"21999"},"geometry":{"type":"Point","coordinates":[14.26384,50.8207]}},{"type":"Feature","properties":{"label:cs":"Socha Piety na návsi v Bynovci","P31":"http://www.wikidata.org/entity/Q179700","P31^label:cs":"Socha","P131^label:cs":"Bynovec","P6736":"21998"},"geometry":{"type":"Point","coordinates":[14.26366,50.82097]}},{"type":"Feature","properties":{"label:cs":"Socha Panny Marie v Bynovci","P31":"http://www.wikidata.org/entity/Q179700","P31^label:cs":"Socha","P131^label:cs":"Bynovec","P6736":"21997"},"geometry":{"type":"Point","coordinates":[14.26411,50.82159]}}]}