{"type":"FeatureCollection","features":[{"type":"Feature","properties":{"label:cs":"Kaple u silnice v Jištěrpách","P31":"http://www.wikidata.org/entity/Q108325","P31^label:cs":"Kaple","P131^label:cs":"Chotiněves","P6736":"17439"},"geometry":{"type":"Point","coordinates":[14.28845,50.53829]}},{"type":"Feature","properties":{"label:cs":"Pomník osvobození v Jištěrpách","P31":"http://www.wikidata.org/entity/Q4989906","P31^label:cs":"Pomník","P131^label:cs":"Chotiněves","P6736":"17440"},"geometry":{"type":"Point","coordinates":[14.28862,50.5386]}},{"type":"Feature","properties":{"label:cs":"Kříž na rozcestí v Jištěrpách","P31":"http://www.wikidata.org/entity/Q2309609","P31^label:cs":"Pamětní kříž","P131^label:cs":"Chotiněves","P6736":"17441"},"geometry":{"type":"Point","coordinates":[14.288,50.53817]}},{"type":"Feature","properties":{"label:cs":"Socha svatého Václava u silnice severně od osady Libínky","P31":"http://www.wikidata.org/entity/Q179700","P31^label:cs":"Socha","P131^label:cs":"Chotiněves","P6736":"17442"},"geometry":{"type":"Point","coordinates":[14.28631,50.53349]}},{"type":"Feature","properties":{"label:cs":"Kaple v Libínkách","P31":"http://www.wikidata.org/entity/Q108325","P31^label:cs":"Kaple","P131^label:cs":"Polepy","P6736":"17443"},"geometry":{"type":"Point","coordinates":[14.2854,50.52922]}}]}