{"type":"FeatureCollection","features":[{"type":"Feature","properties":{"label:cs":"Pamětní deska obráncům četnické stanice 14. 9. 1938 na domě 332 ve Verneřicích","P31":"http://www.wikidata.org/entity/Q721747","P31^label:cs":"Pamětní deska","P131^label:cs":"Verneřice","P6736":"38102"},"geometry":{"type":"Point","coordinates":[14.30113,50.6613]}},{"type":"Feature","properties":{"label:cs":"Kříž u silnice západně od Verneřic","P31":"http://www.wikidata.org/entity/Q2309609","P31^label:cs":"Pamětní kříž","P131^label:cs":"Verneřice","P6736":"37045"},"geometry":{"type":"Point","coordinates":[14.28964,50.66393]}},{"type":"Feature","properties":{"label:cs":"Kříž na hřbitově ve Verneřicích","P31":"http://www.wikidata.org/entity/Q2309609","P31^label:cs":"Pamětní kříž","P131^label:cs":"Verneřice","P6736":"22964"},"geometry":{"type":"Point","coordinates":[14.29999,50.66476]}},{"type":"Feature","properties":{"label:cs":"Kříž v Hřbitovní ulici ve Verneřicích","P31":"http://www.wikidata.org/entity/Q2309609","P31^label:cs":"Pamětní kříž","P131^label:cs":"Verneřice","P6736":"22963"},"geometry":{"type":"Point","coordinates":[14.30129,50.6638]}},{"type":"Feature","properties":{"label:cs":"Kašna se sochou svatého Floriána na náměstí ve Verneřicích","P31":"http://www.wikidata.org/entity/Q12029081","P31^label:cs":"Kašna","P131^label:cs":"Verneřice","P6736":"22962"},"geometry":{"type":"Point","coordinates":[14.30204,50.66143]}}]}