{"type":"FeatureCollection","features":[{"type":"Feature","properties":{"label:cs":"Kříž u kaple v Pechově Lhotě","P31":"Pamětní kříž","P31^label:cs":"Pamětní kříž","P131^label:cs":"Hrejkovice","P6736":"6852"},"geometry":{"type":"Point","coordinates":[14.28808,49.49445]}},{"type":"Feature","properties":{"label:cs":"Kaple v Pechově Lhotě","P31":"Kaple","P31^label:cs":"Kaple","P131^label:cs":"Hrejkovice","P6736":"6851"},"geometry":{"type":"Point","coordinates":[14.28792,49.49444]}},{"type":"Feature","properties":{"label:cs":"Kříž v Pechově Lhotě u křižovatky","P31":"Pamětní kříž","P31^label:cs":"Pamětní kříž","P131^label:cs":"Hrejkovice","P6736":"6849"},"geometry":{"type":"Point","coordinates":[14.28749,49.49662]}},{"type":"Feature","properties":{"label:cs":"Kaplička v Pechově Lhotě v plotu","P31":"Kaplička","P31^label:cs":"Kaplička","P131^label:cs":"Hrejkovice","P6736":"6848"},"geometry":{"type":"Point","coordinates":[14.28795,49.49541]}},{"type":"Feature","properties":{"label:cs":"Pomník padlým v Níkovicích","P31":"Pomník padlým","P31^label:cs":"Pomník padlým","P131^label:cs":"Hrejkovice","P6736":"6847"},"geometry":{"type":"Point","coordinates":[14.30111,49.48432]}},{"type":"Feature","properties":{"label:cs":"Kříž u kaple v Níkovicích","P31":"Pamětní kříž","P31^label:cs":"Pamětní kříž","P131^label:cs":"Hrejkovice","P6736":"6846"},"geometry":{"type":"Point","coordinates":[14.30151,49.48439]}},{"type":"Feature","properties":{"label:cs":"Kaple v Níkovicích","P31":"Kaple","P31^label:cs":"Kaple","P131^label:cs":"Hrejkovice","P6736":"6845"},"geometry":{"type":"Point","coordinates":[14.30165,49.48439]}},{"type":"Feature","properties":{"label:cs":"Kříž severně od Níkovic","P31":"Pamětní kříž","P31^label:cs":"Pamětní kříž","P131^label:cs":"Hrejkovice","P6736":"2179"},"geometry":{"type":"Point","coordinates":[14.29894,49.48798]}}]}