{"type":"FeatureCollection","features":[{"type":"Feature","properties":{"label:cs":"Kaple Panny Marie de Mercede v Horní Poustevně","P31":"http://www.wikidata.org/entity/Q108325","P31^label:cs":"Kaple","P131^label:cs":"Dolní Poustevna","P6736":"33563"},"geometry":{"type":"Point","coordinates":[14.30127,51.00402]}},{"type":"Feature","properties":{"label:cs":"Kříž u rozcestí ke hřbitovu v Horní Poustevně","P31":"http://www.wikidata.org/entity/Q2309609","P31^label:cs":"Pamětní kříž","P131^label:cs":"Dolní Poustevna","P6736":"33562"},"geometry":{"type":"Point","coordinates":[14.30047,51.00339]}},{"type":"Feature","properties":{"label:cs":"Kříž u silnice naproti domu 249 v Lobendavě","P31":"http://www.wikidata.org/entity/Q2309609","P31^label:cs":"Pamětní kříž","P131^label:cs":"Lobendava","P6736":"33561"},"geometry":{"type":"Point","coordinates":[14.298,51.00817]}},{"type":"Feature","properties":{"label:cs":"Kříž v zahradě domu 168 v Lobendavě","P31":"http://www.wikidata.org/entity/Q2309609","P31^label:cs":"Pamětní kříž","P131^label:cs":"Lobendava","P6736":"33560"},"geometry":{"type":"Point","coordinates":[14.30292,51.01131]}},{"type":"Feature","properties":{"label:cs":"Milník na rozcestí v jižní části Lobendavy","P31":"http://www.wikidata.org/entity/Q5003624","P31^label:cs":"Dopravní památka","P131^label:cs":"Lobendava","P6736":"33559"},"geometry":{"type":"Point","coordinates":[14.30132,51.01215]}},{"type":"Feature","properties":{"label:cs":"Kříž na rozcestí poblíž domu 186 v Lobendavě","P31":"http://www.wikidata.org/entity/Q2309609","P31^label:cs":"Pamětní kříž","P131^label:cs":"Lobendava","P6736":"33557"},"geometry":{"type":"Point","coordinates":[14.30309,51.01332]}}]}