{"type":"FeatureCollection","features":[{"type":"Feature","properties":{"label:cs":"Pomník padlým ve Chvalešovicích","P31":"http://www.wikidata.org/entity/Q575759","P31^label:cs":"Pomník padlým","P131^label:cs":"Dříteň","P6736":"39395"},"geometry":{"type":"Point","coordinates":[14.30855,49.16494]}},{"type":"Feature","properties":{"label:cs":"Kaple v Chvalešovicích","P31":"http://www.wikidata.org/entity/Q108325","P31^label:cs":"Kaple","P131^label:cs":"Dříteň","P6736":"39394"},"geometry":{"type":"Point","coordinates":[14.30667,49.1637]}},{"type":"Feature","properties":{"label:cs":"Pomník padlým v Malešicích","P31":"http://www.wikidata.org/entity/Q575759","P31^label:cs":"Pomník padlým","P131^label:cs":"Dříteň","P6736":"36429"},"geometry":{"type":"Point","coordinates":[14.32499,49.16094]}},{"type":"Feature","properties":{"label:cs":"Kaple v Malešicích","P31":"http://www.wikidata.org/entity/Q108325","P31^label:cs":"Kaple","P131^label:cs":"Dříteň","P6736":"36428"},"geometry":{"type":"Point","coordinates":[14.32388,49.16132]}},{"type":"Feature","properties":{"label:cs":"Kříž u Malešic","P31":"http://www.wikidata.org/entity/Q2309609","P31^label:cs":"Pamětní kříž","P131^label:cs":"Dříteň","P6736":"36427"},"geometry":{"type":"Point","coordinates":[14.32407,49.15992]}},{"type":"Feature","properties":{"label:cs":"Kříž východně od Bílé Hůrky","P31":"http://www.wikidata.org/entity/Q2309609","P31^label:cs":"Pamětní kříž","P131^label:cs":"Dříteň","P6736":"36426"},"geometry":{"type":"Point","coordinates":[14.31053,49.15697]}},{"type":"Feature","properties":{"label:cs":"Kaplička na okraji Bílé Hůrky","P31":"http://www.wikidata.org/entity/Q14552192","P31^label:cs":"Kaplička","P131^label:cs":"Dříteň","P6736":"36425"},"geometry":{"type":"Point","coordinates":[14.30647,49.15514]}},{"type":"Feature","properties":{"label:cs":"Kaplička v Bílé Hůrce u kostela","P31":"http://www.wikidata.org/entity/Q14552192","P31^label:cs":"Kaplička","P131^label:cs":"Dříteň","P6736":"36424"},"geometry":{"type":"Point","coordinates":[14.30544,49.15487]}},{"type":"Feature","properties":{"label:cs":"Kříž v Bílé Hůrce","P31":"http://www.wikidata.org/entity/Q2309609","P31^label:cs":"Pamětní kříž","P131^label:cs":"Dříteň","P6736":"36423"},"geometry":{"type":"Point","coordinates":[14.30488,49.15479]}}]}