{"type":"FeatureCollection","features":[{"type":"Feature","properties":{"label:cs":"Socha Artemis v lese u Jíloviště","P31":"http://www.wikidata.org/entity/Q179700","P31^label:cs":"Socha","P131^label:cs":"Jíloviště","P6736":"34467"},"geometry":{"type":"Point","coordinates":[14.32193,49.92489]}},{"type":"Feature","properties":{"label:cs":"Gloriet na Jánské výši ve Všenorech","P31":"http://www.wikidata.org/entity/Q961082","P31^label:cs":"Altán","P131^label:cs":"Všenory","P6736":"34478"},"geometry":{"type":"Point","coordinates":[14.3046,49.92953]}},{"type":"Feature","properties":{"label:cs":"Kříž na hřbitově ve Všenorech","P31":"http://www.wikidata.org/entity/Q2309609","P31^label:cs":"Pamětní kříž","P131^label:cs":"Všenory","P6736":"34477"},"geometry":{"type":"Point","coordinates":[14.30579,49.92974]}},{"type":"Feature","properties":{"label:cs":"Pomník členům podpůrného spolku Hus na novém hřbitově v Horních Mokropsech","P31":"http://www.wikidata.org/entity/Q4989906","P31^label:cs":"Pomník","P131^label:cs":"Všenory","P6736":"34476"},"geometry":{"type":"Point","coordinates":[14.3164,49.93134]}},{"type":"Feature","properties":{"label:cs":"Kříž na novém hřbitově v Horních Mokropsech","P31":"http://www.wikidata.org/entity/Q2309609","P31^label:cs":"Pamětní kříž","P131^label:cs":"Všenory","P6736":"34475"},"geometry":{"type":"Point","coordinates":[14.31565,49.93119]}},{"type":"Feature","properties":{"label:cs":"Hřbitovní kaple na novém hřbitově v Horních Mokropsech","P31":"http://www.wikidata.org/entity/Q108325","P31^label:cs":"Kaple","P131^label:cs":"Všenory","P6736":"34474"},"geometry":{"type":"Point","coordinates":[14.31576,49.93106]}},{"type":"Feature","properties":{"label:cs":"Pomník obětem válek v Horních Mokropsech","P31":"http://www.wikidata.org/entity/Q4989906","P31^label:cs":"Pomník","P131^label:cs":"Všenory","P6736":"34473"},"geometry":{"type":"Point","coordinates":[14.31698,49.93369]}},{"type":"Feature","properties":{"label:cs":"Kříž u kostela v Horních Mokropsech","P31":"http://www.wikidata.org/entity/Q2309609","P31^label:cs":"Pamětní kříž","P131^label:cs":"Všenory","P6736":"34472"},"geometry":{"type":"Point","coordinates":[14.31748,49.93396]}},{"type":"Feature","properties":{"label:cs":"Socha svatého Václava u kostela v Horních Mokropsech","P31":"http://www.wikidata.org/entity/Q179700","P31^label:cs":"Socha","P131^label:cs":"Všenory","P6736":"34470"},"geometry":{"type":"Point","coordinates":[14.31739,49.93385]}},{"type":"Feature","properties":{"label:cs":"Kapliška na návsi v Horních Mokropsech","P31":"http://www.wikidata.org/entity/Q14552192","P31^label:cs":"Kaplička","P131^label:cs":"Všenory","P6736":"34469"},"geometry":{"type":"Point","coordinates":[14.31896,49.93485]}}]}