{"type":"FeatureCollection","features":[{"type":"Feature","properties":{"label:cs":"Soubor plastik v parku u kaple svatého Martina v Českém Krumlově","P31":"Plastika","P31^label:cs":"Plastika","P131^label:cs":"Český Krumlov","P6736":"21266"},"geometry":{"type":"Point","coordinates":[14.31766,48.80843]}},{"type":"Feature","properties":{"label:cs":"Kašna u Mariánského sloupu na náměstí Svornosti v Českém Krumlově","P31":"Kašna","P31^label:cs":"Kašna","P131^label:cs":"Český Krumlov","P6736":"21214"},"geometry":{"type":"Point","coordinates":[14.31498,48.81056]}},{"type":"Feature","properties":{"label:cs":"Kamenná nádrž na vodu na Plešiveckém náměstí v Českém Krumlově","P31":"Kašna","P31^label:cs":"Kašna","P131^label:cs":"Český Krumlov","P6736":"21209"},"geometry":{"type":"Point","coordinates":[14.31421,48.80775]}},{"type":"Feature","properties":{"label:cs":"Boží muka na rohu ulice k Plešiveckým schodům v Českém Krumlově","P31":"Boží muka","P31^label:cs":"Boží muka","P131^label:cs":"Český Krumlov","P6736":"21208"},"geometry":{"type":"Point","coordinates":[14.31466,48.80814]}},{"type":"Feature","properties":{"label:cs":"Boží muka v horní části Plešiveckého náměstí v Českém Krumlově","P31":"Boží muka","P31^label:cs":"Boží muka","P131^label:cs":"Český Krumlov","P6736":"21207"},"geometry":{"type":"Point","coordinates":[14.31379,48.80812]}},{"type":"Feature","properties":{"label:cs":"Boží muka na Plešiveckém náměstí v Českém Krumlově","P31":"Boží muka","P31^label:cs":"Boží muka","P131^label:cs":"Český Krumlov","P6736":"21206"},"geometry":{"type":"Point","coordinates":[14.31449,48.80791]}},{"type":"Feature","properties":{"label:cs":"Kovová plastika v ulici Na Fortně v Českém Krumlově","P31":"Plastika","P31^label:cs":"Plastika","P131^label:cs":"Český Krumlov","P6736":"21205"},"geometry":{"type":"Point","coordinates":[14.31737,48.81172]}},{"type":"Feature","properties":{"label:cs":"Základní kámen zámeckého muzea v Českém Krumlově","P31":"Památný kámen","P31^label:cs":"Památný kámen","P131^label:cs":"Český Krumlov","P6736":"21204"},"geometry":{"type":"Point","coordinates":[14.31584,48.81262]}},{"type":"Feature","properties":{"label:cs":"Zděná boží muka poblíž východní zdi Zámecké zahrady v Českém Krumlově","P31":"Boží muka","P31^label:cs":"Boží muka","P131^label:cs":"Český Krumlov","P6736":"21197"},"geometry":{"type":"Point","coordinates":[14.30607,48.80813]}},{"type":"Feature","properties":{"label:cs":"Boží muka poblíž východní zdi Zámecké zahrady v Českém Krumlově","P31":"Boží muka","P31^label:cs":"Boží muka","P131^label:cs":"Český Krumlov","P6736":"21196"},"geometry":{"type":"Point","coordinates":[14.30629,48.808]}},{"type":"Feature","properties":{"label:cs":"Kaplička u polní cesty východně od Zámecké zahrady v Českém Krumlově","P31":"Kaplička","P31^label:cs":"Kaplička","P131^label:cs":"Český Krumlov","P6736":"21195"},"geometry":{"type":"Point","coordinates":[14.30648,48.80806]}},{"type":"Feature","properties":{"label:cs":"Kaplička u polní cesty k Zámecké zahradě v Českém Krumlově","P31":"Kaplička","P31^label:cs":"Kaplička","P131^label:cs":"Český Krumlov","P6736":"21194"},"geometry":{"type":"Point","coordinates":[14.30761,48.80796]}},{"type":"Feature","properties":{"label:cs":"Kaplička u polní cesty k Zámecké zahradě v Českém Krumlově","P31":"Kaplička","P31^label:cs":"Kaplička","P131^label:cs":"Český Krumlov","P6736":"21193"},"geometry":{"type":"Point","coordinates":[14.30814,48.80798]}},{"type":"Feature","properties":{"label:cs":"Kaplička u polní cesty z ulice Bylinková v Českém Krumlově","P31":"Kaplička","P31^label:cs":"Kaplička","P131^label:cs":"Český Krumlov","P6736":"21192"},"geometry":{"type":"Point","coordinates":[14.30981,48.80827]}},{"type":"Feature","properties":{"label:cs":"Gloriet (altán) v Zámecké zahradě v Českém Krumlově","P31":"Něco jiného","P31^label:cs":"Něco jiného","P131^label:cs":"Český Krumlov","P6736":"21191"},"geometry":{"type":"Point","coordinates":[14.30637,48.81009]}},{"type":"Feature","properties":{"label:cs":"Malá kašna v koutě Zámecké zahrady v Českém Krumlově","P31":"Kašna","P31^label:cs":"Kašna","P131^label:cs":"Český Krumlov","P6736":"21190"},"geometry":{"type":"Point","coordinates":[14.30866,48.81188]}},{"type":"Feature","properties":{"label:cs":"Kašna Kaskádová fontána v Zámecké zahradě v Českém Krumlově","P31":"Kašna","P31^label:cs":"Kašna","P131^label:cs":"Český Krumlov","P6736":"21189"},"geometry":{"type":"Point","coordinates":[14.30928,48.81139]}},{"type":"Feature","properties":{"label:cs":"Socha alegorie Zima v Zámecké zahradě v Českém Krumlově","P31":"Socha","P31^label:cs":"Socha","P131^label:cs":"Český Krumlov","P6736":"21188"},"geometry":{"type":"Point","coordinates":[14.30874,48.81176]}},{"type":"Feature","properties":{"label:cs":"Socha alegorie Jaro v Zámecké zahradě v Českém Krumlově","P31":"Socha","P31^label:cs":"Socha","P131^label:cs":"Český Krumlov","P6736":"21187"},"geometry":{"type":"Point","coordinates":[14.30916,48.81144]}},{"type":"Feature","properties":{"label:cs":"Socha alegorie Léto v Zámecké zahradě v Českém Krumlově","P31":"Socha","P31^label:cs":"Socha","P131^label:cs":"Český Krumlov","P6736":"21186"},"geometry":{"type":"Point","coordinates":[14.30941,48.81125]}},{"type":"Feature","properties":{"label:cs":"Socha alegorie Podzim v Zámecké zahradě v Českém Krumlově","P31":"Socha","P31^label:cs":"Socha","P131^label:cs":"Český Krumlov","P6736":"21185"},"geometry":{"type":"Point","coordinates":[14.30981,48.81096]}},{"type":"Feature","properties":{"label:cs":"Kaplička v ulici K Zámecké zahradě v Českém Krumlově","P31":"Kaplička","P31^label:cs":"Kaplička","P131^label:cs":"Český Krumlov","P6736":"21184"},"geometry":{"type":"Point","coordinates":[14.31002,48.81078]}},{"type":"Feature","properties":{"label:cs":"Malá kašna u zámeckého divadla v Českém Krumlově","P31":"Kašna","P31^label:cs":"Kašna","P131^label:cs":"Český Krumlov","P6736":"21183"},"geometry":{"type":"Point","coordinates":[14.31221,48.81222]}},{"type":"Feature","properties":{"label:cs":"Socha svatého Jana Nepomuckého na Plášťovém mostě zámku Český Krumlov","P31":"Socha","P31^label:cs":"Socha","P131^label:cs":"Český Krumlov","P6736":"21182"},"geometry":{"type":"Point","coordinates":[14.31252,48.81257]}},{"type":"Feature","properties":{"label:cs":"Socha svatého Václava na Plášťovém mostě zámku Český Krumlov","P31":"Socha","P31^label:cs":"Socha","P131^label:cs":"Český Krumlov","P6736":"21181"},"geometry":{"type":"Point","coordinates":[14.31255,48.81268]}},{"type":"Feature","properties":{"label:cs":"Socha svatého Felixe Kantaličského na Plášťovém mostě zámku Český Krumlov","P31":"Socha","P31^label:cs":"Socha","P131^label:cs":"Český Krumlov","P6736":"21180"},"geometry":{"type":"Point","coordinates":[14.31282,48.81259]}},{"type":"Feature","properties":{"label:cs":"Socha Antonína Paduánského na Plášťovém mostě zámku Český Krumlov","P31":"Socha","P31^label:cs":"Socha","P131^label:cs":"Český Krumlov","P6736":"21179"},"geometry":{"type":"Point","coordinates":[14.31279,48.81268]}},{"type":"Feature","properties":{"label:cs":"Kašna na 2.nádvoří zámku Český Krumlov","P31":"Kašna","P31^label:cs":"Kašna","P131^label:cs":"Český Krumlov","P6736":"21178"},"geometry":{"type":"Point","coordinates":[14.31534,48.81286]}},{"type":"Feature","properties":{"label:cs":"Socha svatého Josefa na mostě přes příkop zámku Český Krumlov","P31":"Socha","P31^label:cs":"Socha","P131^label:cs":"Český Krumlov","P6736":"21176"},"geometry":{"type":"Point","coordinates":[14.31632,48.81267]}},{"type":"Feature","properties":{"label:cs":"Socha Panny Marie na mostě přes příkop zámku Český Krumlov","P31":"Socha","P31^label:cs":"Socha","P131^label:cs":"Český Krumlov","P6736":"21175"},"geometry":{"type":"Point","coordinates":[14.31631,48.81259]}},{"type":"Feature","properties":{"label:cs":"Kašna na 1.nádvoří zámku v Českém Krumlově","P31":"Kašna","P31^label:cs":"Kašna","P131^label:cs":"Český Krumlov","P6736":"21174"},"geometry":{"type":"Point","coordinates":[14.31649,48.81292]}},{"type":"Feature","properties":{"label:cs":"Kaplička se sousoším Kalvárie v Linecké ulici v Českém Krumlově","P31":"Kaplička","P31^label:cs":"Kaplička","P131^label:cs":"Český Krumlov","P6736":"21173"},"geometry":{"type":"Point","coordinates":[14.31705,48.8084]}},{"type":"Feature","properties":{"label:cs":"Socha svaté Barbory ve výklenku domu v Linecké ulici v Českém Krumlově","P31":"Socha","P31^label:cs":"Socha","P131^label:cs":"Český Krumlov","P6736":"21172"},"geometry":{"type":"Point","coordinates":[14.31801,48.80735]}},{"type":"Feature","properties":{"label:cs":"Kaplička v Křížové ulici v Českém Krumlově","P31":"Kaplička","P31^label:cs":"Kaplička","P131^label:cs":"Český Krumlov","P6736":"21167"},"geometry":{"type":"Point","coordinates":[14.32327,48.80763]}},{"type":"Feature","properties":{"label:cs":"Boží muka v Rooseveltově ulici v Českém Krumlově","P31":"Boží muka","P31^label:cs":"Boží muka","P131^label:cs":"Český Krumlov","P6736":"21166"},"geometry":{"type":"Point","coordinates":[14.32041,48.80872]}},{"type":"Feature","properties":{"label:cs":"Kamenná nádrž na vodu v Rooseveltově ulici v Českém Krumlově","P31":"Kašna","P31^label:cs":"Kašna","P131^label:cs":"Český Krumlov","P6736":"21165"},"geometry":{"type":"Point","coordinates":[14.32007,48.80937]}},{"type":"Feature","properties":{"label:cs":"Kaplička u mostu v Horní ulici v Českém Krumlově","P31":"Kaplička","P31^label:cs":"Kaplička","P131^label:cs":"Český Krumlov","P6736":"21164"},"geometry":{"type":"Point","coordinates":[14.31846,48.81071]}},{"type":"Feature","properties":{"label:cs":"Boží muka v parku u Regionálního muzea v Českém Krumlově","P31":"Boží muka","P31^label:cs":"Boží muka","P131^label:cs":"Český Krumlov","P6736":"21163"},"geometry":{"type":"Point","coordinates":[14.31743,48.81061]}},{"type":"Feature","properties":{"label:cs":"Kamenná nádrž na vodu v parku u Regionálního muzea v Českém Krumlově","P31":"Kašna","P31^label:cs":"Kašna","P131^label:cs":"Český Krumlov","P6736":"21162"},"geometry":{"type":"Point","coordinates":[14.31715,48.81051]}},{"type":"Feature","properties":{"label:cs":"Sousoší s křížem na nádvoří Městské galerie v Horní ulici v Českém Krumlově","P31":"Socha","P31^label:cs":"Socha","P131^label:cs":"Český Krumlov","P6736":"21161"},"geometry":{"type":"Point","coordinates":[14.31649,48.81026]}},{"type":"Feature","properties":{"label:cs":"Kašna na nádvoří Městské galerie v Horní ulici v Českém Krumlově","P31":"Kašna","P31^label:cs":"Kašna","P131^label:cs":"Český Krumlov","P6736":"21160"},"geometry":{"type":"Point","coordinates":[14.31662,48.81027]}},{"type":"Feature","properties":{"label:cs":"Kašna v Kostelní ulici v Českém Krumlově","P31":"Kašna","P31^label:cs":"Kašna","P131^label:cs":"Český Krumlov","P6736":"21159"},"geometry":{"type":"Point","coordinates":[14.31571,48.81025]}},{"type":"Feature","properties":{"label:cs":"Kříž v Kostelní ulici v Českém Krumlově","P31":"Pamětní kříž","P31^label:cs":"Pamětní kříž","P131^label:cs":"Český Krumlov","P6736":"21158"},"geometry":{"type":"Point","coordinates":[14.31582,48.81023]}},{"type":"Feature","properties":{"label:cs":"Pomník u bývalého mlýna v ulici Pod Kamenem v Českém Krumlově","P31":"Pomník","P31^label:cs":"Pomník","P131^label:cs":"Český Krumlov","P6736":"21157"},"geometry":{"type":"Point","coordinates":[14.31757,48.81558]}},{"type":"Feature","properties":{"label:cs":"Kamenná nádrž na vodu v ulici Klášterní Dvůr v Českém Krumlově","P31":"Kašna","P31^label:cs":"Kašna","P131^label:cs":"Český Krumlov","P6736":"21156"},"geometry":{"type":"Point","coordinates":[14.31786,48.81356]}},{"type":"Feature","properties":{"label:cs":"Socha Madony ve výklenku Muzea marionet v Českém Krumlově","P31":"Socha","P31^label:cs":"Socha","P131^label:cs":"Český Krumlov","P6736":"21155"},"geometry":{"type":"Point","coordinates":[14.31645,48.81195]}},{"type":"Feature","properties":{"label:cs":"Kříž na Lazebnickém mostě v Českém Krumlově","P31":"Pamětní kříž","P31^label:cs":"Pamětní kříž","P131^label:cs":"Český Krumlov","P6736":"21153"},"geometry":{"type":"Point","coordinates":[14.31564,48.81183]}},{"type":"Feature","properties":{"label:cs":"Socha svatého Jana Nepomuckého na Lazebnickém mostě v Českém Krumlově","P31":"Socha","P31^label:cs":"Socha","P131^label:cs":"Český Krumlov","P6736":"21152"},"geometry":{"type":"Point","coordinates":[14.31573,48.81178]}},{"type":"Feature","properties":{"label:cs":"Pomník Fridricha Ludwiga Jahna v Městském Parku v Českém Krumlově","P31":"Pomník","P31^label:cs":"Pomník","P131^label:cs":"Český Krumlov","P6736":"21151"},"geometry":{"type":"Point","coordinates":[14.31794,48.80963]}},{"type":"Feature","properties":{"label:cs":"Kaple svatého Martina v Městském parku v Českém Krumlově","P31":"Kaple","P31^label:cs":"Kaple","P131^label:cs":"Český Krumlov","P6736":"21150"},"geometry":{"type":"Point","coordinates":[14.31793,48.8085]}},{"type":"Feature","properties":{"label:cs":"Památník bojů a vítězství nad fašismem v Městském parku v Českém Krumlově","P31":"Památník","P31^label:cs":"Památník","P131^label:cs":"Český Krumlov","P6736":"21149"},"geometry":{"type":"Point","coordinates":[14.31833,48.80912]}},{"type":"Feature","properties":{"label:cs":"Socha svatého Jana Nepomuckého u mostu Edvarda Beneše v Českém Krumlově","P31":"Socha","P31^label:cs":"Socha","P131^label:cs":"Český Krumlov","P6736":"21148"},"geometry":{"type":"Point","coordinates":[14.31483,48.80902]}},{"type":"Feature","properties":{"label:cs":"Sochy ve výklencích kostela Božího Těla a Panny Marie v Českém Krumlově","P31":"Socha","P31^label:cs":"Socha","P131^label:cs":"Český Krumlov","P6736":"21147"},"geometry":{"type":"Point","coordinates":[14.31827,48.81331]}},{"type":"Feature","properties":{"label:cs":"Socha svaté Anežky České u zdi kláštera v Českém Krumlově","P31":"Socha","P31^label:cs":"Socha","P131^label:cs":"Český Krumlov","P6736":"21146"},"geometry":{"type":"Point","coordinates":[14.31898,48.81294]}},{"type":"Feature","properties":{"label:cs":"Torzo sochy v klášterní zahradě v Českém Krumlově","P31":"Socha","P31^label:cs":"Socha","P131^label:cs":"Český Krumlov","P6736":"21145"},"geometry":{"type":"Point","coordinates":[14.31854,48.81281]}},{"type":"Feature","properties":{"label:cs":"Socha bičovaného Krista ve výklenkové kapli na mostě Latrán v Českém Krumlově","P31":"Socha","P31^label:cs":"Socha","P131^label:cs":"Český Krumlov","P6736":"21144"},"geometry":{"type":"Point","coordinates":[14.31698,48.81509]}},{"type":"Feature","properties":{"label:cs":"Sousoší Krista s Jidášem ve výklenkové kapli na mostě Latrán v Českém Krumlově","P31":"Socha","P31^label:cs":"Socha","P131^label:cs":"Český Krumlov","P6736":"21143"},"geometry":{"type":"Point","coordinates":[14.31709,48.8151]}},{"type":"Feature","properties":{"label:cs":"Keramická kašna před kinem Luna v Českém Krumlově","P31":"Kašna","P31^label:cs":"Kašna","P131^label:cs":"Český Krumlov","P6736":"21142"},"geometry":{"type":"Point","coordinates":[14.31686,48.81601]}},{"type":"Feature","properties":{"label:cs":"Lavička s prsty u nohou na Náplavce","P31":"Plastika","P31^label:cs":"Plastika","P131^label:cs":"Český Krumlov","P6736":"9612"},"geometry":{"type":"Point","coordinates":[14.31732,48.81151]}},{"type":"Feature","properties":{"label:cs":"Bronzové prsty u mostu doktora Edvarda Beneše v Českém Krumlově","P31":"Plastika","P31^label:cs":"Plastika","P131^label:cs":"Český Krumlov","P6736":"9610"},"geometry":{"type":"Point","coordinates":[14.31467,48.80999]}},{"type":"Feature","properties":{"label:cs":"Kašna na nádvoří pivovaru Eggenberg v Českém Krumlově","P31":"Kašna","P31^label:cs":"Kašna","P131^label:cs":"Český Krumlov","P6736":"9607"},"geometry":{"type":"Point","coordinates":[14.32001,48.81252]}},{"type":"Feature","properties":{"label:cs":"Kašna u ulice Latrán v Českém Krumlově","P31":"Kašna","P31^label:cs":"Kašna","P131^label:cs":"Český Krumlov","P6736":"9264"},"geometry":{"type":"Point","coordinates":[14.31672,48.81183]}},{"type":"Feature","properties":{"label:cs":"Mariánský sloup na náměstí Svornosti v Českém Krumlově","P31":"Sloup","P31^label:cs":"Sloup","P131^label:cs":"Český Krumlov","P6736":"9263"},"geometry":{"type":"Point","coordinates":[14.31492,48.81048]}}]}