{"type":"FeatureCollection","features":[{"type":"Feature","properties":{"label:cs":"Kašna v zámecké zahradě ve Veltrusech","P31":"http://www.wikidata.org/entity/Q12029081","P31^label:cs":"Kašna","P131^label:cs":"Veltrusy","P6736":"38248"},"geometry":{"type":"Point","coordinates":[14.32991,50.27788]}},{"type":"Feature","properties":{"label:cs":"Alegorická socha Únor v ohradě zámecké zahrady ve Veltrusech","P31":"http://www.wikidata.org/entity/Q179700","P31^label:cs":"Socha","P131^label:cs":"Veltrusy","P6736":"38247"},"geometry":{"type":"Point","coordinates":[14.32949,50.27848]}},{"type":"Feature","properties":{"label:cs":"Alegorická socha Prosinec v ohradě zámecké zahrady ve Veltrusech","P31":"http://www.wikidata.org/entity/Q179700","P31^label:cs":"Socha","P131^label:cs":"Veltrusy","P6736":"38245"},"geometry":{"type":"Point","coordinates":[14.32958,50.27848]}},{"type":"Feature","properties":{"label:cs":"Alegorická socha Říjen v ohradě zámecké zahrady ve Veltrusech","P31":"http://www.wikidata.org/entity/Q179700","P31^label:cs":"Socha","P131^label:cs":"Veltrusy","P6736":"38244"},"geometry":{"type":"Point","coordinates":[14.32963,50.2785]}},{"type":"Feature","properties":{"label:cs":"Alegorická socha Srpen v ohradě zámecké zahrady ve Veltrusech","P31":"http://www.wikidata.org/entity/Q179700","P31^label:cs":"Socha","P131^label:cs":"Veltrusy","P6736":"38243"},"geometry":{"type":"Point","coordinates":[14.32969,50.27853]}},{"type":"Feature","properties":{"label:cs":"Alegorická socha Červen v ohradě zámecké zahrady ve Veltrusech","P31":"http://www.wikidata.org/entity/Q179700","P31^label:cs":"Socha","P131^label:cs":"Veltrusy","P6736":"38240"},"geometry":{"type":"Point","coordinates":[14.32976,50.27851]}},{"type":"Feature","properties":{"label:cs":"Alegorická socha Duben v ohradě zámecké zahrady ve Veltrusech","P31":"http://www.wikidata.org/entity/Q179700","P31^label:cs":"Socha","P131^label:cs":"Veltrusy","P6736":"38239"},"geometry":{"type":"Point","coordinates":[14.32986,50.27851]}},{"type":"Feature","properties":{"label:cs":"Alegorická socha Zima v ohradě zámecké zahrady ve Veltrusech","P31":"http://www.wikidata.org/entity/Q179700","P31^label:cs":"Socha","P131^label:cs":"Veltrusy","P6736":"38238"},"geometry":{"type":"Point","coordinates":[14.32995,50.2785]}},{"type":"Feature","properties":{"label:cs":"Alegorická socha Léto v ohradě zámecké zahrady ve Veltrusech","P31":"http://www.wikidata.org/entity/Q179700","P31^label:cs":"Socha","P131^label:cs":"Veltrusy","P6736":"38237"},"geometry":{"type":"Point","coordinates":[14.3302,50.27852]}},{"type":"Feature","properties":{"label:cs":"Alegorická socha Březen v ohradě zámecké zahrady ve Veltrusech","P31":"http://www.wikidata.org/entity/Q179700","P31^label:cs":"Socha","P131^label:cs":"Veltrusy","P6736":"38236"},"geometry":{"type":"Point","coordinates":[14.33032,50.27846]}},{"type":"Feature","properties":{"label:cs":"Alegorická socha Květen v ohradě zámecké zahrady ve Veltrusech","P31":"http://www.wikidata.org/entity/Q179700","P31^label:cs":"Socha","P131^label:cs":"Veltrusy","P6736":"38235"},"geometry":{"type":"Point","coordinates":[14.3304,50.27845]}},{"type":"Feature","properties":{"label:cs":"Alegorická socha Červenec v ohradě zámecké zahrady ve Veltrusech","P31":"http://www.wikidata.org/entity/Q179700","P31^label:cs":"Socha","P131^label:cs":"Veltrusy","P6736":"38233"},"geometry":{"type":"Point","coordinates":[14.33049,50.27844]}},{"type":"Feature","properties":{"label:cs":"Alegorická socha Září v ohradě zámecké zahrady ve Veltrusech","P31":"http://www.wikidata.org/entity/Q179700","P31^label:cs":"Socha","P131^label:cs":"Veltrusy","P6736":"38231"},"geometry":{"type":"Point","coordinates":[14.33052,50.2784]}},{"type":"Feature","properties":{"label:cs":"Alegorická socha Listopad v ohradě zámecké zahrady ve Veltrusech","P31":"http://www.wikidata.org/entity/Q179700","P31^label:cs":"Socha","P131^label:cs":"Veltrusy","P6736":"38228"},"geometry":{"type":"Point","coordinates":[14.33057,50.27838]}},{"type":"Feature","properties":{"label:cs":"Alegorická socha Leden v ohradě zámecké zahrady ve Veltrusech","P31":"http://www.wikidata.org/entity/Q179700","P31^label:cs":"Socha","P131^label:cs":"Veltrusy","P6736":"38227"},"geometry":{"type":"Point","coordinates":[14.33063,50.27836]}},{"type":"Feature","properties":{"label:cs":"Charlottina kaplička v zámeckém parku ve Veltrusech","P31":"http://www.wikidata.org/entity/Q14552192","P31^label:cs":"Kaplička","P131^label:cs":"Veltrusy","P6736":"33267"},"geometry":{"type":"Point","coordinates":[14.33083,50.27552]}},{"type":"Feature","properties":{"label:cs":"Socha svatého Jana Nepomuckého v zámeckém parku ve Veltrusech","P31":"http://www.wikidata.org/entity/Q179700","P31^label:cs":"Socha","P131^label:cs":"Veltrusy","P6736":"33266"},"geometry":{"type":"Point","coordinates":[14.33116,50.2774]}},{"type":"Feature","properties":{"label:cs":"Socha boha Marta v zámecké zahradě ve Veltrusech","P31":"http://www.wikidata.org/entity/Q179700","P31^label:cs":"Socha","P131^label:cs":"Veltrusy","P6736":"33263"},"geometry":{"type":"Point","coordinates":[14.33865,50.28462]}},{"type":"Feature","properties":{"label:cs":"Pomník Václavu Panochovi padlému v květnu 1945 v zámeckém parku ve Veltrusech","P31":"http://www.wikidata.org/entity/Q575759","P31^label:cs":"Pomník padlým","P131^label:cs":"Veltrusy","P6736":"33260"},"geometry":{"type":"Point","coordinates":[14.33209,50.27806]}}]}