{"type":"FeatureCollection","features":[{"type":"Feature","properties":{"label:cs":"Socha sfingy v zámecké zahradě ve Veltrusech","P31":"http://www.wikidata.org/entity/Q179700","P31^label:cs":"Socha","P131^label:cs":"Veltrusy","P6736":"33264"},"geometry":{"type":"Point","coordinates":[14.33506,50.29099]}},{"type":"Feature","properties":{"label:cs":"Pavilon Marie Terezie v zámeckém parku ve Veltrusech","P31":"http://www.wikidata.org/entity/Q961082","P31^label:cs":"Altán","P131^label:cs":"Veltrusy","P6736":"33265"},"geometry":{"type":"Point","coordinates":[14.33004,50.29578]}},{"type":"Feature","properties":{"label:cs":"Pomník padlým ve světových válkách ve Všestudech","P31":"http://www.wikidata.org/entity/Q575759","P31^label:cs":"Pomník padlým","P131^label:cs":"Všestudy","P6736":"23035"},"geometry":{"type":"Point","coordinates":[14.34037,50.29025]}},{"type":"Feature","properties":{"label:cs":"Kříž ve Všestudech u Veltrus","P31":"http://www.wikidata.org/entity/Q2309609","P31^label:cs":"Pamětní kříž","P131^label:cs":"Všestudy","P6736":"23036"},"geometry":{"type":"Point","coordinates":[14.3401,50.29043]}},{"type":"Feature","properties":{"label:cs":"Zvonička ve Všestudech u Veltrus","P31":"http://www.wikidata.org/entity/Q10861631","P31^label:cs":"Zvonička","P131^label:cs":"Všestudy","P6736":"23037"},"geometry":{"type":"Point","coordinates":[14.34056,50.29065]}}]}