{"type":"FeatureCollection","features":[{"type":"Feature","properties":{"label:cs":"Bronzová plastika Letící v Praze 6-Břevnově","P31":"http://www.wikidata.org/entity/Q12045520","P31^label:cs":"Plastika","P131^label:cs":"Praha","P6736":"20156"},"geometry":{"type":"Point","coordinates":[14.34351,50.08566]}},{"type":"Feature","properties":{"label:cs":"Plastika s patenty Otto Wichterleho v Praze","P31":"http://www.wikidata.org/entity/Q12045520","P31^label:cs":"Plastika","P131^label:cs":"Praha","P6736":"17778"},"geometry":{"type":"Point","coordinates":[14.33887,50.08623]}},{"type":"Feature","properties":{"label:cs":"Pamětní deska Anny Kabeláčové na domě Jenečská 235/4 v Liboci","P31":"http://www.wikidata.org/entity/Q721747","P31^label:cs":"Pamětní deska","P131^label:cs":"Praha","P6736":"42511"},"geometry":{"type":"Point","coordinates":[14.32796,50.09231]}},{"type":"Feature","properties":{"label:cs":"Pamětní kříž v Praze-Liboci u ulice U Hvězdy","P31":"http://www.wikidata.org/entity/Q2309609","P31^label:cs":"Pamětní kříž","P131^label:cs":"Praha","P6736":"18183"},"geometry":{"type":"Point","coordinates":[14.33863,50.08543]}},{"type":"Feature","properties":{"label:cs":"Reliéf (2. část) u brány letohrádku Hvězda v Praze","P31":"http://www.wikidata.org/entity/Q12045520","P31^label:cs":"Plastika","P131^label:cs":"Praha","P6736":"18006"},"geometry":{"type":"Point","coordinates":[14.32654,50.08329]}},{"type":"Feature","properties":{"label:cs":"Reliéf (1. část) u brány letohrádku Hvězda v Praze","P31":"http://www.wikidata.org/entity/Q12045520","P31^label:cs":"Plastika","P131^label:cs":"Praha","P6736":"18003"},"geometry":{"type":"Point","coordinates":[14.32657,50.08339]}},{"type":"Feature","properties":{"label:cs":"Husitská žena u letohrádku Hvězda v Praze","P31":"http://www.wikidata.org/entity/Q179700","P31^label:cs":"Socha","P131^label:cs":"Praha","P6736":"17786"},"geometry":{"type":"Point","coordinates":[14.3267,50.0836]}},{"type":"Feature","properties":{"label:cs":"Jan Roháč z Dubé v oboře Hvězda v Praze","P31":"http://www.wikidata.org/entity/Q179700","P31^label:cs":"Socha","P131^label:cs":"Praha","P6736":"17783"},"geometry":{"type":"Point","coordinates":[14.33633,50.08462]}},{"type":"Feature","properties":{"label:cs":"Dřevěný pamětní kříž v Praze-Liboci","P31":"http://www.wikidata.org/entity/Q2309609","P31^label:cs":"Pamětní kříž","P131^label:cs":"Praha","P6736":"17160"},"geometry":{"type":"Point","coordinates":[14.32926,50.08705]}},{"type":"Feature","properties":{"label:cs":"Pomník obětem 1. světové války v Praze-Liboci","P31":"http://www.wikidata.org/entity/Q575759","P31^label:cs":"Pomník padlým","P131^label:cs":"Praha","P6736":"17154"},"geometry":{"type":"Point","coordinates":[14.32899,50.08729]}},{"type":"Feature","properties":{"label:cs":"Kaplička se sochou svatého Jana Nepomuckého v Praze-Liboci","P31":"http://www.wikidata.org/entity/Q14552192","P31^label:cs":"Kaplička","P131^label:cs":"Praha","P6736":"15512"},"geometry":{"type":"Point","coordinates":[14.32722,50.08873]}},{"type":"Feature","properties":{"label:cs":"Plastika sedící dívky u školy v Praze-Veleslavíně","P31":"http://www.wikidata.org/entity/Q12045520","P31^label:cs":"Plastika","P131^label:cs":"Praha","P6736":"18184"},"geometry":{"type":"Point","coordinates":[14.34443,50.09052]}}]}