{"type":"FeatureCollection","features":[{"type":"Feature","properties":{"label:cs":"Plastika Volavky u školy v Brdičkově ulici v Lužinách","P31":"http://www.wikidata.org/entity/Q12045520","P31^label:cs":"Plastika","P131^label:cs":"Praha","P6736":"27989"},"geometry":{"type":"Point","coordinates":[14.33258,50.04303]}},{"type":"Feature","properties":{"label:cs":"Kamenná plastika před školou v Brdičkově ulici v Lužinách","P31":"http://www.wikidata.org/entity/Q12045520","P31^label:cs":"Plastika","P131^label:cs":"Praha","P6736":"27990"},"geometry":{"type":"Point","coordinates":[14.33227,50.04294]}},{"type":"Feature","properties":{"label:cs":"Sochy Muž a Jinoch v pasáži obchodního centra Lužiny","P31":"http://www.wikidata.org/entity/Q179700","P31^label:cs":"Socha","P131^label:cs":"Praha","P6736":"27991"},"geometry":{"type":"Point","coordinates":[14.33193,50.04378]}},{"type":"Feature","properties":{"label:cs":"Plastiky Masky v parku v Bronzové ulici v Lužinách","P31":"http://www.wikidata.org/entity/Q12045520","P31^label:cs":"Plastika","P131^label:cs":"Praha","P6736":"27992"},"geometry":{"type":"Point","coordinates":[14.32918,50.04486]}},{"type":"Feature","properties":{"label:cs":"Socha svatého Jana Nepomuckého na rozcestí ulic Jeremiášova a Pod Hranicí","P31":"http://www.wikidata.org/entity/Q179700","P31^label:cs":"Socha","P131^label:cs":"Praha","P6736":"27993"},"geometry":{"type":"Point","coordinates":[14.34119,50.04608]}},{"type":"Feature","properties":{"label:cs":"Plastiky Máma a Táta na dětském hřišti u Nepomuckého rybníka","P31":"http://www.wikidata.org/entity/Q12045520","P31^label:cs":"Plastika","P131^label:cs":"Praha","P6736":"27994"},"geometry":{"type":"Point","coordinates":[14.33838,50.04832]}},{"type":"Feature","properties":{"label:cs":"Kašna s altánem v parku Suchý vršek v Nových Butovicích","P31":"http://www.wikidata.org/entity/Q12029081","P31^label:cs":"Kašna","P131^label:cs":"Praha","P6736":"27995"},"geometry":{"type":"Point","coordinates":[14.34476,50.04877]}},{"type":"Feature","properties":{"label:cs":"Socha Vesmírný pták v parku u školy ve Fingerově ulici v Nových Butovicích","P31":"http://www.wikidata.org/entity/Q179700","P31^label:cs":"Socha","P131^label:cs":"Praha","P6736":"27996"},"geometry":{"type":"Point","coordinates":[14.34794,50.04911]}},{"type":"Feature","properties":{"label:cs":"Kaplička na Velké Ohradě v Praze","P31":"http://www.wikidata.org/entity/Q14552192","P31^label:cs":"Kaplička","P131^label:cs":"Praha","P6736":"32824"},"geometry":{"type":"Point","coordinates":[14.33362,50.03638]}}]}