{"type":"FeatureCollection","features":[{"type":"Feature","properties":{"label:cs":"Plastika Muž s kamenem na sídlišti Petřiny v Praze","P31":"http://www.wikidata.org/entity/Q12045520","P31^label:cs":"Plastika","P131^label:cs":"Praha","P6736":"17787"},"geometry":{"type":"Point","coordinates":[14.35093,50.08991]}},{"type":"Feature","properties":{"label:cs":"Socha dívky Zamyšlená v Praze-Břevnově","P31":"http://www.wikidata.org/entity/Q179700","P31^label:cs":"Socha","P131^label:cs":"Praha","P6736":"17792"},"geometry":{"type":"Point","coordinates":[14.35116,50.08859]}},{"type":"Feature","properties":{"label:cs":"4. kaple Hájecké cesty v Praze","P31":"http://www.wikidata.org/entity/Q108325","P31^label:cs":"Kaple","P131^label:cs":"Praha","P6736":"17793"},"geometry":{"type":"Point","coordinates":[14.35791,50.07925]}},{"type":"Feature","properties":{"label:cs":"Socha svatého Jana Nepomuckého v Břevnovském klášteře","P31":"http://www.wikidata.org/entity/Q179700","P31^label:cs":"Socha","P131^label:cs":"Praha","P6736":"19580"},"geometry":{"type":"Point","coordinates":[14.3558,50.08447]}},{"type":"Feature","properties":{"label:cs":"Sloupová plastika na rohu ulic Radimova a Ve Střešovičkách","P31":"http://www.wikidata.org/entity/Q12045520","P31^label:cs":"Plastika","P131^label:cs":"Praha","P6736":"24294"},"geometry":{"type":"Point","coordinates":[14.36555,50.0876]}},{"type":"Feature","properties":{"label:cs":"Kaplička mezi domy v ulici Anastázova","P31":"http://www.wikidata.org/entity/Q14552192","P31^label:cs":"Kaplička","P131^label:cs":"Praha","P6736":"24295"},"geometry":{"type":"Point","coordinates":[14.36357,50.08624]}},{"type":"Feature","properties":{"label:cs":"Kříž u kapličky v ulici Anastázova","P31":"http://www.wikidata.org/entity/Q2309609","P31^label:cs":"Pamětní kříž","P131^label:cs":"Praha","P6736":"24296"},"geometry":{"type":"Point","coordinates":[14.36362,50.08614]}},{"type":"Feature","properties":{"label:cs":"Socha Žena na slunci v ulici Anastázova","P31":"http://www.wikidata.org/entity/Q179700","P31^label:cs":"Socha","P131^label:cs":"Praha","P6736":"24297"},"geometry":{"type":"Point","coordinates":[14.36297,50.08607]}},{"type":"Feature","properties":{"label:cs":"Socha Matka a syn za poliklinikou Pod Marjánkou v Břevnově","P31":"http://www.wikidata.org/entity/Q179700","P31^label:cs":"Socha","P131^label:cs":"Praha","P6736":"24298"},"geometry":{"type":"Point","coordinates":[14.3662,50.0849]}},{"type":"Feature","properties":{"label:cs":"Socha dětí s míčem před poliklinikou Pod Marjánkou v Břevnově","P31":"http://www.wikidata.org/entity/Q179700","P31^label:cs":"Socha","P131^label:cs":"Praha","P6736":"24299"},"geometry":{"type":"Point","coordinates":[14.36668,50.08464]}},{"type":"Feature","properties":{"label:cs":"Socha ženy s kojencem v parku v ulici Pod Marjánkou","P31":"http://www.wikidata.org/entity/Q179700","P31^label:cs":"Socha","P131^label:cs":"Praha","P6736":"24300"},"geometry":{"type":"Point","coordinates":[14.36637,50.08446]}},{"type":"Feature","properties":{"label:cs":"Výklenková kaple v Břevnovské ulici v Praze","P31":"http://www.wikidata.org/entity/Q14552192","P31^label:cs":"Kaplička","P131^label:cs":"Praha","P6736":"33321"},"geometry":{"type":"Point","coordinates":[14.36388,50.08456]}}]}