{"type":"FeatureCollection","features":[{"type":"Feature","properties":{"label:cs":"Kříž u lesní cesty mezi kótami 461 a 450 v Mikulášovicích","P31":"http://www.wikidata.org/entity/Q2309609","P31^label:cs":"Pamětní kříž","P131^label:cs":"Mikulášovice","P6736":"38331"},"geometry":{"type":"Point","coordinates":[14.35392,50.97112]}},{"type":"Feature","properties":{"label:cs":"Sloup-obelisk naproti továrně Mikov v Mikulášovicích","P31":"http://www.wikidata.org/entity/Q4817","P31^label:cs":"Sloup","P131^label:cs":"Mikulášovice","P6736":"38330"},"geometry":{"type":"Point","coordinates":[14.34867,50.96894]}},{"type":"Feature","properties":{"label:cs":"Pomník padlým v 1. světové válce v Mikulášovicích","P31":"http://www.wikidata.org/entity/Q575759","P31^label:cs":"Pomník padlým","P131^label:cs":"Mikulášovice","P6736":"38042"},"geometry":{"type":"Point","coordinates":[14.35795,50.96284]}},{"type":"Feature","properties":{"label:cs":"Kříž u domu 1016 v Mikulášovicích","P31":"http://www.wikidata.org/entity/Q2309609","P31^label:cs":"Pamětní kříž","P131^label:cs":"Mikulášovice","P6736":"38041"},"geometry":{"type":"Point","coordinates":[14.3579,50.96558]}},{"type":"Feature","properties":{"label:cs":"Kaple zvaná Fürlehova v Mikulášovicích","P31":"http://www.wikidata.org/entity/Q108325","P31^label:cs":"Kaple","P131^label:cs":"Mikulášovice","P6736":"38040"},"geometry":{"type":"Point","coordinates":[14.35759,50.96762]}},{"type":"Feature","properties":{"label:cs":"Centrální kříž na hřbitově v Mikulášovicích","P31":"http://www.wikidata.org/entity/Q2309609","P31^label:cs":"Pamětní kříž","P131^label:cs":"Mikulášovice","P6736":"38039"},"geometry":{"type":"Point","coordinates":[14.36111,50.96888]}},{"type":"Feature","properties":{"label:cs":"Pomník na hřbitově vojákům zemřelým na zranění z 1. světové války v lazaretu v Mikulášovicích","P31":"http://www.wikidata.org/entity/Q575759","P31^label:cs":"Pomník padlým","P131^label:cs":"Mikulášovice","P6736":"38038"},"geometry":{"type":"Point","coordinates":[14.36132,50.96904]}},{"type":"Feature","properties":{"label:cs":"Sluneční hodiny na kostele v Mikulášovicích","P31":"http://www.wikidata.org/entity/Q376","P31^label:cs":"Hodiny","P131^label:cs":"Mikulášovice","P6736":"38037"},"geometry":{"type":"Point","coordinates":[14.36066,50.96622]}},{"type":"Feature","properties":{"label:cs":"Kříž u domu 55 v Mikulášovicích","P31":"http://www.wikidata.org/entity/Q2309609","P31^label:cs":"Pamětní kříž","P131^label:cs":"Mikulášovice","P6736":"38036"},"geometry":{"type":"Point","coordinates":[14.366,50.96504]}},{"type":"Feature","properties":{"label:cs":"Pomník osvobození u školy v Mikulášovicích","P31":"http://www.wikidata.org/entity/Q4989906","P31^label:cs":"Pomník","P131^label:cs":"Mikulášovice","P6736":"38035"},"geometry":{"type":"Point","coordinates":[14.36421,50.96529]}},{"type":"Feature","properties":{"label:cs":"Pomník obětem 2. světové války v parku v centru Mikulášovic","P31":"http://www.wikidata.org/entity/Q575759","P31^label:cs":"Pomník padlým","P131^label:cs":"Mikulášovice","P6736":"38034"},"geometry":{"type":"Point","coordinates":[14.36412,50.9646]}},{"type":"Feature","properties":{"label:cs":"Kříž u cesty za domem 290 v Mikulášovicích","P31":"http://www.wikidata.org/entity/Q2309609","P31^label:cs":"Pamětní kříž","P131^label:cs":"Mikulášovice","P6736":"38032"},"geometry":{"type":"Point","coordinates":[14.36695,50.96353]}},{"type":"Feature","properties":{"label:cs":"Kříž u domu 698 v Mikulášovicích","P31":"http://www.wikidata.org/entity/Q2309609","P31^label:cs":"Pamětní kříž","P131^label:cs":"Mikulášovice","P6736":"38031"},"geometry":{"type":"Point","coordinates":[14.36971,50.96172]}},{"type":"Feature","properties":{"label:cs":"Kříž v centru Mikulášovic","P31":"http://www.wikidata.org/entity/Q2309609","P31^label:cs":"Pamětní kříž","P131^label:cs":"Mikulášovice","P6736":"11874"},"geometry":{"type":"Point","coordinates":[14.36618,50.96448]}},{"type":"Feature","properties":{"label:cs":"Kříž v Mikulášovicích u Mikova","P31":"http://www.wikidata.org/entity/Q2309609","P31^label:cs":"Pamětní kříž","P131^label:cs":"Mikulášovice","P6736":"11861"},"geometry":{"type":"Point","coordinates":[14.34966,50.96814]}}]}