{"type":"FeatureCollection","features":[{"type":"Feature","properties":{"label:cs":"Kříž ve Vitíně u zvoničky","P31":"http://www.wikidata.org/entity/Q2309609","P31^label:cs":"Pamětní kříž","P131^label:cs":"Počepice","P6736":"6750"},"geometry":{"type":"Point","coordinates":[14.36209,49.58778]}},{"type":"Feature","properties":{"label:cs":"Zvonička ve Vitíně","P31":"http://www.wikidata.org/entity/Q10861631","P31^label:cs":"Zvonička","P131^label:cs":"Počepice","P6736":"6749"},"geometry":{"type":"Point","coordinates":[14.36211,49.58784]}},{"type":"Feature","properties":{"label:cs":"Kříž jihozápadně od Vitína","P31":"http://www.wikidata.org/entity/Q2309609","P31^label:cs":"Pamětní kříž","P131^label:cs":"Počepice","P6736":"6748"},"geometry":{"type":"Point","coordinates":[14.35963,49.58635]}},{"type":"Feature","properties":{"label:cs":"Kříž severně od Vitína","P31":"http://www.wikidata.org/entity/Q2309609","P31^label:cs":"Pamětní kříž","P131^label:cs":"Počepice","P6736":"2762"},"geometry":{"type":"Point","coordinates":[14.36438,49.59112]}},{"type":"Feature","properties":{"label:cs":"Kaple severně od Vitína","P31":"http://www.wikidata.org/entity/Q108325","P31^label:cs":"Kaple","P131^label:cs":"Počepice","P6736":"2761"},"geometry":{"type":"Point","coordinates":[14.3642,49.5904]}}]}