{"type":"FeatureCollection","features":[{"type":"Feature","properties":{"label:cs":"Kamenná plastika Otisk v Praze-Lysolajích","P31":"Plastika","P31^label:cs":"Plastika","P131^label:cs":"Praha","P6736":"20551"},"geometry":{"type":"Point","coordinates":[14.36491,50.12523]}},{"type":"Feature","properties":{"label:cs":"Kamenná plastika Stínohry v Praze-Lysolajích","P31":"Plastika","P31^label:cs":"Plastika","P131^label:cs":"Praha","P6736":"20550"},"geometry":{"type":"Point","coordinates":[14.36518,50.12514]}},{"type":"Feature","properties":{"label:cs":"Kamenná plastika Dva poutníci v Praze-Lysolajích","P31":"Plastika","P31^label:cs":"Plastika","P131^label:cs":"Praha","P6736":"20535"},"geometry":{"type":"Point","coordinates":[14.36536,50.12539]}},{"type":"Feature","properties":{"label:cs":"Kamenná plastika Vládce moří v Praze-Lysolajích","P31":"Plastika","P31^label:cs":"Plastika","P131^label:cs":"Praha","P6736":"18086"},"geometry":{"type":"Point","coordinates":[14.36739,50.12635]}},{"type":"Feature","properties":{"label:cs":"Kamenná plastika Rodina v Praze-Lysolajích","P31":"Plastika","P31^label:cs":"Plastika","P131^label:cs":"Praha","P6736":"18085"},"geometry":{"type":"Point","coordinates":[14.36785,50.12637]}},{"type":"Feature","properties":{"label:cs":"Pomník padlým v 1. a 2. svět. válce v Lysolajích","P31":"Pomník padlým","P31^label:cs":"Pomník padlým","P131^label:cs":"Praha","P6736":"18081"},"geometry":{"type":"Point","coordinates":[14.36845,50.12634]}},{"type":"Feature","properties":{"label:cs":"Kamenná plastika Ohňostroj v Praze-Lysolajích","P31":"Plastika","P31^label:cs":"Plastika","P131^label:cs":"Praha","P6736":"18080"},"geometry":{"type":"Point","coordinates":[14.36733,50.12687]}},{"type":"Feature","properties":{"label:cs":"Kaple Panny Marie Sedmibolestné v Praze-Lysolajích","P31":"Kaplička","P31^label:cs":"Kaplička","P131^label:cs":"Praha","P6736":"17336"},"geometry":{"type":"Point","coordinates":[14.36705,50.12589]}}]}