{"type":"FeatureCollection","features":[{"type":"Feature","properties":{"label:cs":"Socha v areálu Anglo – německé obchodní akademie na Břevnově","P31":"http://www.wikidata.org/entity/Q179700","P31^label:cs":"Socha","P131^label:cs":"Praha","P6736":"42612"},"geometry":{"type":"Point","coordinates":[14.3574,50.08279]}},{"type":"Feature","properties":{"label:cs":"Pamětní deska Josefu Škvoreckému na domě Patočkova 1707/101 na Břevnově","P31":"http://www.wikidata.org/entity/Q721747","P31^label:cs":"Pamětní deska","P131^label:cs":"Praha","P6736":"42593"},"geometry":{"type":"Point","coordinates":[14.36219,50.08422]}},{"type":"Feature","properties":{"label:cs":"Patník spočinutí J. Š. na Břevnově","P31":"http://www.wikidata.org/entity/Q4989906","P31^label:cs":"Pomník","P131^label:cs":"Praha","P6736":"42592"},"geometry":{"type":"Point","coordinates":[14.36168,50.08416]}},{"type":"Feature","properties":{"label:cs":"Pamění deska založení sociální demokracie na centru Kaštan na Břevnově","P31":"http://www.wikidata.org/entity/Q721747","P31^label:cs":"Pamětní deska","P131^label:cs":"Praha","P6736":"42591"},"geometry":{"type":"Point","coordinates":[14.36076,50.08355]}},{"type":"Feature","properties":{"label:cs":"Kovová plastika u centra Kaštan na Břevnově","P31":"http://www.wikidata.org/entity/Q12045520","P31^label:cs":"Plastika","P131^label:cs":"Praha","P6736":"42590"},"geometry":{"type":"Point","coordinates":[14.36101,50.0836]}},{"type":"Feature","properties":{"label:cs":"Pamětní deska 23. září 1921 v areálu Břevnovského kláštera","P31":"http://www.wikidata.org/entity/Q721747","P31^label:cs":"Pamětní deska","P131^label:cs":"Praha","P6736":"42589"},"geometry":{"type":"Point","coordinates":[14.35702,50.08432]}},{"type":"Feature","properties":{"label:cs":"Sluneční hodiny na nádvoří Břevnovského kláštera","P31":"http://www.wikidata.org/entity/Q376","P31^label:cs":"Hodiny","P131^label:cs":"Praha","P6736":"42588"},"geometry":{"type":"Point","coordinates":[14.35716,50.08514]}},{"type":"Feature","properties":{"label:cs":"Socha svatého Benedikta na vstupní bráně Břevnovského kláštera","P31":"http://www.wikidata.org/entity/Q12045520","P31^label:cs":"Plastika","P131^label:cs":"Praha","P6736":"42587"},"geometry":{"type":"Point","coordinates":[14.35635,50.08338]}},{"type":"Feature","properties":{"label:cs":"Gloriet Josefka v zahradě Břevnovského kláštera","P31":"http://www.wikidata.org/entity/Q961082","P31^label:cs":"Altán","P131^label:cs":"Praha","P6736":"42586"},"geometry":{"type":"Point","coordinates":[14.35981,50.08598]}},{"type":"Feature","properties":{"label:cs":"Plastika v zahradě Břevnovského kláštera","P31":"http://www.wikidata.org/entity/Q12045520","P31^label:cs":"Plastika","P131^label:cs":"Praha","P6736":"42585"},"geometry":{"type":"Point","coordinates":[14.35557,50.08605]}},{"type":"Feature","properties":{"label:cs":"Fontána v zahradě Břevnovského kláštera","P31":"http://www.wikidata.org/entity/Q12029081","P31^label:cs":"Kašna","P131^label:cs":"Praha","P6736":"42584"},"geometry":{"type":"Point","coordinates":[14.35644,50.08603]}},{"type":"Feature","properties":{"label:cs":"Socha svatého Prokopa na Břevnovském hřbitově","P31":"http://www.wikidata.org/entity/Q179700","P31^label:cs":"Socha","P131^label:cs":"Praha","P6736":"42583"},"geometry":{"type":"Point","coordinates":[14.35272,50.08516]}},{"type":"Feature","properties":{"label:cs":"Hřbitovní kaple svatého Lazara na Břevnovském hřbitově","P31":"http://www.wikidata.org/entity/Q108325","P31^label:cs":"Kaple","P131^label:cs":"Praha","P6736":"42582"},"geometry":{"type":"Point","coordinates":[14.35272,50.08532]}},{"type":"Feature","properties":{"label:cs":"Pamění deska Jana Jarolíma a Mil. Měšťana na zdi Břevnovského hřbitova","P31":"http://www.wikidata.org/entity/Q721747","P31^label:cs":"Pamětní deska","P131^label:cs":"Praha","P6736":"42581"},"geometry":{"type":"Point","coordinates":[14.35203,50.08524]}},{"type":"Feature","properties":{"label:cs":"Centrální kříž na Břevnovském hřbitově","P31":"http://www.wikidata.org/entity/Q2309609","P31^label:cs":"Pamětní kříž","P131^label:cs":"Praha","P6736":"42580"},"geometry":{"type":"Point","coordinates":[14.35147,50.08545]}},{"type":"Feature","properties":{"label:cs":"Pamění deska Jindřicha Kulíška na domě Bělohorská 182/171 na Břevnově","P31":"http://www.wikidata.org/entity/Q721747","P31^label:cs":"Pamětní deska","P131^label:cs":"Praha","P6736":"42579"},"geometry":{"type":"Point","coordinates":[14.35694,50.08268]}},{"type":"Feature","properties":{"label:cs":"Pomník padlým na Břevnově","P31":"http://www.wikidata.org/entity/Q575759","P31^label:cs":"Pomník padlým","P131^label:cs":"Praha","P6736":"42578"},"geometry":{"type":"Point","coordinates":[14.35676,50.08216]}},{"type":"Feature","properties":{"label:cs":"Pamětní deska Karla Zdrubeckého na garáži domu Říčanova 469/38 na Břevnově","P31":"http://www.wikidata.org/entity/Q721747","P31^label:cs":"Pamětní deska","P131^label:cs":"Praha","P6736":"42577"},"geometry":{"type":"Point","coordinates":[14.35662,50.08152]}},{"type":"Feature","properties":{"label:cs":"Pamětní deska Jaroslava Seiferta na domě U Ladronky 1338/23 na Břevnově","P31":"http://www.wikidata.org/entity/Q721747","P31^label:cs":"Pamětní deska","P131^label:cs":"Praha","P6736":"42575"},"geometry":{"type":"Point","coordinates":[14.36703,50.08134]}},{"type":"Feature","properties":{"label:cs":"Pamětní deska Ladislava Slezáka na domě Vodňanského 708/3 na Břevnově","P31":"http://www.wikidata.org/entity/Q721747","P31^label:cs":"Pamětní deska","P131^label:cs":"Praha","P6736":"42574"},"geometry":{"type":"Point","coordinates":[14.36883,50.08299]}},{"type":"Feature","properties":{"label:cs":"III. kaple poutní cesty z Prahy do Hájku na Břevnově","P31":"http://www.wikidata.org/entity/Q14552192","P31^label:cs":"Kaplička","P131^label:cs":"Praha","P6736":"42542"},"geometry":{"type":"Point","coordinates":[14.36671,50.08149]}},{"type":"Feature","properties":{"label:cs":"Výklenková kaple v Břevnovské ulici v Praze","P31":"http://www.wikidata.org/entity/Q14552192","P31^label:cs":"Kaplička","P131^label:cs":"Praha","P6736":"33321"},"geometry":{"type":"Point","coordinates":[14.36388,50.08456]}},{"type":"Feature","properties":{"label:cs":"Socha ženy s kojencem v parku v ulici Pod Marjánkou","P31":"http://www.wikidata.org/entity/Q179700","P31^label:cs":"Socha","P131^label:cs":"Praha","P6736":"24300"},"geometry":{"type":"Point","coordinates":[14.36637,50.08446]}},{"type":"Feature","properties":{"label:cs":"Socha dětí s míčem před poliklinikou Pod Marjánkou v Břevnově","P31":"http://www.wikidata.org/entity/Q179700","P31^label:cs":"Socha","P131^label:cs":"Praha","P6736":"24299"},"geometry":{"type":"Point","coordinates":[14.36668,50.08464]}},{"type":"Feature","properties":{"label:cs":"Socha Matka a syn za poliklinikou Pod Marjánkou v Břevnově","P31":"http://www.wikidata.org/entity/Q179700","P31^label:cs":"Socha","P131^label:cs":"Praha","P6736":"24298"},"geometry":{"type":"Point","coordinates":[14.3662,50.0849]}},{"type":"Feature","properties":{"label:cs":"Socha Žena na slunci v ulici Anastázova","P31":"http://www.wikidata.org/entity/Q179700","P31^label:cs":"Socha","P131^label:cs":"Praha","P6736":"24297"},"geometry":{"type":"Point","coordinates":[14.36297,50.08607]}},{"type":"Feature","properties":{"label:cs":"Kříž u kapličky v ulici Anastázova","P31":"http://www.wikidata.org/entity/Q2309609","P31^label:cs":"Pamětní kříž","P131^label:cs":"Praha","P6736":"24296"},"geometry":{"type":"Point","coordinates":[14.36362,50.08614]}},{"type":"Feature","properties":{"label:cs":"Kaple svatého Floriána v ulici Anastázova na Břevnově","P31":"http://www.wikidata.org/entity/Q14552192","P31^label:cs":"Kaplička","P131^label:cs":"Praha","P6736":"24295"},"geometry":{"type":"Point","coordinates":[14.36357,50.08624]}},{"type":"Feature","properties":{"label:cs":"Sloupová plastika na rohu ulic Radimova a Ve Střešovičkách","P31":"http://www.wikidata.org/entity/Q12045520","P31^label:cs":"Plastika","P131^label:cs":"Praha","P6736":"24294"},"geometry":{"type":"Point","coordinates":[14.36555,50.0876]}},{"type":"Feature","properties":{"label:cs":"Socha svatého Jana Nepomuckého v Břevnovském klášteře","P31":"http://www.wikidata.org/entity/Q179700","P31^label:cs":"Socha","P131^label:cs":"Praha","P6736":"19580"},"geometry":{"type":"Point","coordinates":[14.3558,50.08447]}},{"type":"Feature","properties":{"label:cs":"4. kaple Hájecké cesty v Praze","P31":"http://www.wikidata.org/entity/Q108325","P31^label:cs":"Kaple","P131^label:cs":"Praha","P6736":"17793"},"geometry":{"type":"Point","coordinates":[14.35791,50.07925]}},{"type":"Feature","properties":{"label:cs":"Socha dívky Zamyšlená v Praze-Břevnově","P31":"http://www.wikidata.org/entity/Q179700","P31^label:cs":"Socha","P131^label:cs":"Praha","P6736":"17792"},"geometry":{"type":"Point","coordinates":[14.35116,50.08859]}},{"type":"Feature","properties":{"label:cs":"Plastika Muž s kamenem na sídlišti Petřiny v Praze","P31":"http://www.wikidata.org/entity/Q12045520","P31^label:cs":"Plastika","P131^label:cs":"Praha","P6736":"17787"},"geometry":{"type":"Point","coordinates":[14.35093,50.08991]}}]}