{"type":"FeatureCollection","features":[{"type":"Feature","properties":{"label:cs":"Pamětní deska Slávky Kampové u schodů z Plzeňské ulice ke Klimentce","P31":"Q721747","P31^label:cs":"Pamětní deska","P131^label:cs":"Praha","P6736":"24671"},"geometry":{"type":"Point","coordinates":[14.36678,50.06998]}},{"type":"Feature","properties":{"label:cs":"Busty v antickém stylu u domu pod Klimentkou v Plzeňské ulici","P31":"Q179700","P31^label:cs":"Socha","P131^label:cs":"Praha","P6736":"24669"},"geometry":{"type":"Point","coordinates":[14.36652,50.07]}},{"type":"Feature","properties":{"label:cs":"Socha Kronos v parku Cibulka v Košířích","P31":"Q179700","P31^label:cs":"Socha","P131^label:cs":"Praha","P6736":"24667"},"geometry":{"type":"Point","coordinates":[14.35569,50.06462]}},{"type":"Feature","properties":{"label:cs":"Socha Zeus v parku Cibulka v Košířích","P31":"Q179700","P31^label:cs":"Socha","P131^label:cs":"Praha","P6736":"24663"},"geometry":{"type":"Point","coordinates":[14.35386,50.06619]}},{"type":"Feature","properties":{"label:cs":"Socha svatého Jana Nepomuckého pod parkem Cibulka v Košířích","P31":"Q179700","P31^label:cs":"Socha","P131^label:cs":"Praha","P6736":"24662"},"geometry":{"type":"Point","coordinates":[14.35294,50.06751]}},{"type":"Feature","properties":{"label:cs":"Socha dívky s míčem u školy v ulici Weberova","P31":"Q179700","P31^label:cs":"Socha","P131^label:cs":"Praha","P6736":"24660"},"geometry":{"type":"Point","coordinates":[14.35625,50.07335]}},{"type":"Feature","properties":{"label:cs":"Socha dívky s klecí v parku za kongresovým centrem nemocnice Na Homolce","P31":"Q179700","P31^label:cs":"Socha","P131^label:cs":"Praha","P6736":"24658"},"geometry":{"type":"Point","coordinates":[14.35535,50.07429]}},{"type":"Feature","properties":{"label:cs":"Socha dívky před nemocnicí Na Homolce","P31":"Q179700","P31^label:cs":"Socha","P131^label:cs":"Praha","P6736":"24657"},"geometry":{"type":"Point","coordinates":[14.3532,50.07421]}},{"type":"Feature","properties":{"label:cs":"Fontána před vchodem do nemocnice Na Homolce","P31":"Q12029081","P31^label:cs":"Kašna","P131^label:cs":"Praha","P6736":"11145"},"geometry":{"type":"Point","coordinates":[14.35435,50.07552]}}]}