{"type":"FeatureCollection","features":[{"type":"Feature","properties":{"label:cs":"Kaplička XIV. zastavení Křížové cesty u Ostrého","P31":"http://www.wikidata.org/entity/Q14552192","P31^label:cs":"Kaplička","P131^label:cs":"Úštěk","P6736":"41842"},"geometry":{"type":"Point","coordinates":[14.37263,50.5879]}},{"type":"Feature","properties":{"label:cs":"Kaplička XIII. zastavení křížové cesty u Ostrého","P31":"http://www.wikidata.org/entity/Q14552192","P31^label:cs":"Kaplička","P131^label:cs":"Úštěk","P6736":"41841"},"geometry":{"type":"Point","coordinates":[14.37249,50.58792]}},{"type":"Feature","properties":{"label:cs":"Kaplička XII. zastavení křížové cesty u Ostrého","P31":"http://www.wikidata.org/entity/Q14552192","P31^label:cs":"Kaplička","P131^label:cs":"Úštěk","P6736":"41840"},"geometry":{"type":"Point","coordinates":[14.37235,50.58791]}},{"type":"Feature","properties":{"label:cs":"Kaplička XI. zastavení křížové cesty u Ostrého","P31":"http://www.wikidata.org/entity/Q14552192","P31^label:cs":"Kaplička","P131^label:cs":"Úštěk","P6736":"41839"},"geometry":{"type":"Point","coordinates":[14.37223,50.58785]}},{"type":"Feature","properties":{"label:cs":"Kaplička X. zastavení křížové cesty u Ostrého","P31":"http://www.wikidata.org/entity/Q14552192","P31^label:cs":"Kaplička","P131^label:cs":"Úštěk","P6736":"41838"},"geometry":{"type":"Point","coordinates":[14.37208,50.58781]}},{"type":"Feature","properties":{"label:cs":"Kaplička IX. zastavení křížové cesty u Ostrého","P31":"http://www.wikidata.org/entity/Q14552192","P31^label:cs":"Kaplička","P131^label:cs":"Úštěk","P6736":"41837"},"geometry":{"type":"Point","coordinates":[14.37196,50.58778]}},{"type":"Feature","properties":{"label:cs":"Kaplička VIII. zastavení křížové cesty u Ostrého","P31":"http://www.wikidata.org/entity/Q14552192","P31^label:cs":"Kaplička","P131^label:cs":"Úštěk","P6736":"41836"},"geometry":{"type":"Point","coordinates":[14.37189,50.58768]}},{"type":"Feature","properties":{"label:cs":"Kaplička VII. zastavení křížové cesty u Ostrého","P31":"http://www.wikidata.org/entity/Q14552192","P31^label:cs":"Kaplička","P131^label:cs":"Úštěk","P6736":"41835"},"geometry":{"type":"Point","coordinates":[14.37193,50.5876]}},{"type":"Feature","properties":{"label:cs":"Kaplička VI. zastavení křížové cesty u Ostrého","P31":"http://www.wikidata.org/entity/Q14552192","P31^label:cs":"Kaplička","P131^label:cs":"Úštěk","P6736":"41834"},"geometry":{"type":"Point","coordinates":[14.372,50.58752]}},{"type":"Feature","properties":{"label:cs":"Kaplička V. zastavení křížové cesty u Ostrého","P31":"http://www.wikidata.org/entity/Q14552192","P31^label:cs":"Kaplička","P131^label:cs":"Úštěk","P6736":"41833"},"geometry":{"type":"Point","coordinates":[14.37205,50.58745]}},{"type":"Feature","properties":{"label:cs":"Kaplička IV. zastavení křížové cesty u Ostrého","P31":"http://www.wikidata.org/entity/Q14552192","P31^label:cs":"Kaplička","P131^label:cs":"Úštěk","P6736":"41832"},"geometry":{"type":"Point","coordinates":[14.37209,50.58741]}},{"type":"Feature","properties":{"label:cs":"Kaplička III. zastavení křížové cesty u Ostrého","P31":"http://www.wikidata.org/entity/Q14552192","P31^label:cs":"Kaplička","P131^label:cs":"Úštěk","P6736":"41831"},"geometry":{"type":"Point","coordinates":[14.37217,50.58733]}},{"type":"Feature","properties":{"label:cs":"Kaplička II. zastavení křížové cesty u Ostrého","P31":"http://www.wikidata.org/entity/Q14552192","P31^label:cs":"Kaplička","P131^label:cs":"Úštěk","P6736":"41830"},"geometry":{"type":"Point","coordinates":[14.3723,50.58721]}},{"type":"Feature","properties":{"label:cs":"Kaplička I. zastavení křížové cesty u Ostrého","P31":"http://www.wikidata.org/entity/Q14552192","P31^label:cs":"Kaplička","P131^label:cs":"Úštěk","P6736":"41829"},"geometry":{"type":"Point","coordinates":[14.37242,50.58714]}},{"type":"Feature","properties":{"label:cs":"Torza soch na terase pod schodištěm Kalvárie u Ostrého","P31":"http://www.wikidata.org/entity/Q179700","P31^label:cs":"Socha","P131^label:cs":"Úštěk","P6736":"25139"},"geometry":{"type":"Point","coordinates":[14.37185,50.58773]}},{"type":"Feature","properties":{"label:cs":"Socha na dolní terase schodiště Kalvárie u Ostrého","P31":"http://www.wikidata.org/entity/Q179700","P31^label:cs":"Socha","P131^label:cs":"Úštěk","P6736":"25138"},"geometry":{"type":"Point","coordinates":[14.37208,50.5877]}},{"type":"Feature","properties":{"label:cs":"Socha Kristus pod křížem na horní terase schodiště Kalvárie u Ostrého","P31":"http://www.wikidata.org/entity/Q179700","P31^label:cs":"Socha","P131^label:cs":"Úštěk","P6736":"25137"},"geometry":{"type":"Point","coordinates":[14.37224,50.58769]}},{"type":"Feature","properties":{"label:cs":"Socha Bičovaný Kristus na horní terase schodiště Kalvárie u Ostrého","P31":"http://www.wikidata.org/entity/Q179700","P31^label:cs":"Socha","P131^label:cs":"Úštěk","P6736":"25136"},"geometry":{"type":"Point","coordinates":[14.37223,50.58778]}},{"type":"Feature","properties":{"label:cs":"Kaple Nalezení svatého Kříže na Kalvárii u Ostrého","P31":"http://www.wikidata.org/entity/Q108325","P31^label:cs":"Kaple","P131^label:cs":"Úštěk","P6736":"25135"},"geometry":{"type":"Point","coordinates":[14.37255,50.58779]}},{"type":"Feature","properties":{"label:cs":"Kaple Povýšení svatého Kříže na Kalvárii u Ostrého","P31":"http://www.wikidata.org/entity/Q108325","P31^label:cs":"Kaple","P131^label:cs":"Úštěk","P6736":"25134"},"geometry":{"type":"Point","coordinates":[14.37261,50.58763]}},{"type":"Feature","properties":{"label:cs":"Kaple Božího hrobu na Kalvárii u Ostrého","P31":"http://www.wikidata.org/entity/Q108325","P31^label:cs":"Kaple","P131^label:cs":"Úštěk","P6736":"25133"},"geometry":{"type":"Point","coordinates":[14.37266,50.58773]}},{"type":"Feature","properties":{"label:cs":"Kaplička Loučení Ježíše s Pannou Marií u cesty ke Kalvárii v Ostrém","P31":"http://www.wikidata.org/entity/Q14552192","P31^label:cs":"Kaplička","P131^label:cs":"Úštěk","P6736":"25131"},"geometry":{"type":"Point","coordinates":[14.37259,50.58698]}},{"type":"Feature","properties":{"label:cs":"Kříž na návsi v Ostrém","P31":"http://www.wikidata.org/entity/Q2309609","P31^label:cs":"Pamětní kříž","P131^label:cs":"Úštěk","P6736":"25130"},"geometry":{"type":"Point","coordinates":[14.37306,50.5861]}},{"type":"Feature","properties":{"label:cs":"Pomník osvobození na návsi v Ostrém","P31":"http://www.wikidata.org/entity/Q4989906","P31^label:cs":"Pomník","P131^label:cs":"Úštěk","P6736":"25129"},"geometry":{"type":"Point","coordinates":[14.37263,50.58552]}}]}