{"type":"FeatureCollection","features":[{"type":"Feature","properties":{"label:cs":"Pomník padlým 1938-1945 v Praze-Suchdole","P31":"http://www.wikidata.org/entity/Q575759","P31^label:cs":"Pomník padlým","P131^label:cs":"Praha","P6736":"18067"},"geometry":{"type":"Point","coordinates":[14.37925,50.13992]}},{"type":"Feature","properties":{"label:cs":"Kaplička se zvonicí v Praze-Suchdole","P31":"http://www.wikidata.org/entity/Q14552192","P31^label:cs":"Kaplička","P131^label:cs":"Praha","P6736":"18047"},"geometry":{"type":"Point","coordinates":[14.37211,50.14016]}},{"type":"Feature","properties":{"label:cs":"Pomník Mikoláše Alše v Praze-Suchdole","P31":"http://www.wikidata.org/entity/Q4989906","P31^label:cs":"Pomník","P131^label:cs":"Praha","P6736":"17378"},"geometry":{"type":"Point","coordinates":[14.37846,50.14047]}},{"type":"Feature","properties":{"label:cs":"Busta Mikoláše Alše v Praze-Suchdole","P31":"http://www.wikidata.org/entity/Q12045520","P31^label:cs":"Plastika","P131^label:cs":"Praha","P6736":"17374"},"geometry":{"type":"Point","coordinates":[14.38,50.13594]}},{"type":"Feature","properties":{"label:cs":"Kaple svatého Václava v Praze-Suchdole","P31":"http://www.wikidata.org/entity/Q108325","P31^label:cs":"Kaple","P131^label:cs":"Praha","P6736":"17373"},"geometry":{"type":"Point","coordinates":[14.37027,50.144]}}]}