{"type":"FeatureCollection","features":[{"type":"Feature","properties":{"label:cs":"Kříž v remízu louky jihozápadně od Kravař","P31":"http://www.wikidata.org/entity/Q2309609","P31^label:cs":"Pamětní kříž","P131^label:cs":"Kravaře","P6736":"35559"},"geometry":{"type":"Point","coordinates":[14.38797,50.62541]}},{"type":"Feature","properties":{"label:cs":"Pamětní deska Kurta Krolopa na domě 185 v Kravařích","P31":"http://www.wikidata.org/entity/Q721747","P31^label:cs":"Pamětní deska","P131^label:cs":"Kravaře","P6736":"34942"},"geometry":{"type":"Point","coordinates":[14.39136,50.63077]}},{"type":"Feature","properties":{"label:cs":"Kovová plastika u hřiště v Kravařích","P31":"http://www.wikidata.org/entity/Q12045520","P31^label:cs":"Plastika","P131^label:cs":"Kravaře","P6736":"34941"},"geometry":{"type":"Point","coordinates":[14.39113,50.63]}},{"type":"Feature","properties":{"label:cs":"Kříž v Kravařích u Bobřího potoka","P31":"http://www.wikidata.org/entity/Q2309609","P31^label:cs":"Pamětní kříž","P131^label:cs":"Kravaře","P6736":"34929"},"geometry":{"type":"Point","coordinates":[14.39153,50.63473]}},{"type":"Feature","properties":{"label:cs":"Kaplička u polní cesty západně od Kravař","P31":"http://www.wikidata.org/entity/Q14552192","P31^label:cs":"Kaplička","P131^label:cs":"Kravaře","P6736":"22638"},"geometry":{"type":"Point","coordinates":[14.38811,50.6345]}},{"type":"Feature","properties":{"label:cs":"Socha svatého Jana Nepomuckého poblíž mostu v Kravařích","P31":"http://www.wikidata.org/entity/Q179700","P31^label:cs":"Socha","P131^label:cs":"Kravaře","P6736":"22602"},"geometry":{"type":"Point","coordinates":[14.39175,50.63464]}}]}