{"type":"FeatureCollection","features":[{"type":"Feature","properties":{"label:cs":"Kamenná plastika 'Víly v tůňce' v Praze-Lysolajích","P31":"http://www.wikidata.org/entity/Q12045520","P31^label:cs":"Plastika","P131^label:cs":"Praha","P6736":"20619"},"geometry":{"type":"Point","coordinates":[14.37185,50.12453]}},{"type":"Feature","properties":{"label:cs":"Kamenná plastika Relikviář v Praze-Lysolajích","P31":"http://www.wikidata.org/entity/Q12045520","P31^label:cs":"Plastika","P131^label:cs":"Praha","P6736":"20612"},"geometry":{"type":"Point","coordinates":[14.37155,50.1246]}},{"type":"Feature","properties":{"label:cs":"Kamenná plastika Striktní milenci v Praze-Lysolajích","P31":"http://www.wikidata.org/entity/Q12045520","P31^label:cs":"Plastika","P131^label:cs":"Praha","P6736":"20611"},"geometry":{"type":"Point","coordinates":[14.37892,50.12653]}},{"type":"Feature","properties":{"label:cs":"Kamenná plastika 'Jaro' v Praze-Lysolajích","P31":"http://www.wikidata.org/entity/Q12045520","P31^label:cs":"Plastika","P131^label:cs":"Praha","P6736":"20549"},"geometry":{"type":"Point","coordinates":[14.37145,50.12647]}},{"type":"Feature","properties":{"label:cs":"Kamenná plastika Hnízdo v Praze-Lysolajích","P31":"http://www.wikidata.org/entity/Q12045520","P31^label:cs":"Plastika","P131^label:cs":"Praha","P6736":"20548"},"geometry":{"type":"Point","coordinates":[14.37202,50.12484]}},{"type":"Feature","properties":{"label:cs":"Kamenná plastika Sluneční hodiny v Praze-Lysolajích","P31":"http://www.wikidata.org/entity/Q12045520","P31^label:cs":"Plastika","P131^label:cs":"Praha","P6736":"20537"},"geometry":{"type":"Point","coordinates":[14.37142,50.12439]}},{"type":"Feature","properties":{"label:cs":"Kamenná plastika Koupající se Měsíc v Praze-Lysolajích","P31":"http://www.wikidata.org/entity/Q12045520","P31^label:cs":"Plastika","P131^label:cs":"Praha","P6736":"20536"},"geometry":{"type":"Point","coordinates":[14.3749,50.12465]}},{"type":"Feature","properties":{"label:cs":"Kamenná plastika Můj poklad v Praze-Lysolajích","P31":"http://www.wikidata.org/entity/Q12045520","P31^label:cs":"Plastika","P131^label:cs":"Praha","P6736":"20520"},"geometry":{"type":"Point","coordinates":[14.3708,50.12421]}},{"type":"Feature","properties":{"label:cs":"Kamenná plastika Vodní svět v Praze-Lysolajích","P31":"http://www.wikidata.org/entity/Q12045520","P31^label:cs":"Plastika","P131^label:cs":"Praha","P6736":"20519"},"geometry":{"type":"Point","coordinates":[14.37192,50.12498]}},{"type":"Feature","properties":{"label:cs":"Kamenná plastika Torzo vejce v Praze-Lysolajích","P31":"http://www.wikidata.org/entity/Q12045520","P31^label:cs":"Plastika","P131^label:cs":"Praha","P6736":"20505"},"geometry":{"type":"Point","coordinates":[14.37294,50.12512]}},{"type":"Feature","properties":{"label:cs":"Kamenná plastika Žába v Praze-Lysolajích","P31":"http://www.wikidata.org/entity/Q12045520","P31^label:cs":"Plastika","P131^label:cs":"Praha","P6736":"20504"},"geometry":{"type":"Point","coordinates":[14.37142,50.12452]}},{"type":"Feature","properties":{"label:cs":"Kamenná plastika Mlčenlivý bůh v Praze-Lysolajích","P31":"http://www.wikidata.org/entity/Q12045520","P31^label:cs":"Plastika","P131^label:cs":"Praha","P6736":"20503"},"geometry":{"type":"Point","coordinates":[14.37185,50.12415]}},{"type":"Feature","properties":{"label:cs":"Kamenná plastika Khmérská tanečnice v Praze-Lysolajích","P31":"http://www.wikidata.org/entity/Q12045520","P31^label:cs":"Plastika","P131^label:cs":"Praha","P6736":"20502"},"geometry":{"type":"Point","coordinates":[14.37229,50.12494]}},{"type":"Feature","properties":{"label:cs":"Kaple se zvoničkou v Praze-Lysolajích","P31":"http://www.wikidata.org/entity/Q108325","P31^label:cs":"Kaple","P131^label:cs":"Praha","P6736":"20341"},"geometry":{"type":"Point","coordinates":[14.37309,50.12514]}},{"type":"Feature","properties":{"label:cs":"Kamenná plastika v areálu ČZU v Praze","P31":"http://www.wikidata.org/entity/Q12045520","P31^label:cs":"Plastika","P131^label:cs":"Praha","P6736":"18066"},"geometry":{"type":"Point","coordinates":[14.37425,50.13024]}},{"type":"Feature","properties":{"label:cs":"Pomník generálovi R. Pernickému v Praze-Suchdole","P31":"http://www.wikidata.org/entity/Q4989906","P31^label:cs":"Pomník","P131^label:cs":"Praha","P6736":"18065"},"geometry":{"type":"Point","coordinates":[14.37622,50.13292]}},{"type":"Feature","properties":{"label:cs":"Bohyně úrody Ops v areálu ČZU v Praze","P31":"http://www.wikidata.org/entity/Q12045520","P31^label:cs":"Plastika","P131^label:cs":"Praha","P6736":"18053"},"geometry":{"type":"Point","coordinates":[14.37305,50.12901]}},{"type":"Feature","properties":{"label:cs":"Pomník obětem 2. svět. války v Praze-Lysolajích","P31":"http://www.wikidata.org/entity/Q575759","P31^label:cs":"Pomník padlým","P131^label:cs":"Praha","P6736":"17334"},"geometry":{"type":"Point","coordinates":[14.37216,50.12521]}}]}