{"type":"FeatureCollection","features":[{"type":"Feature","properties":{"label:cs":"Kaple Panny Marie u silnice z Kravař do Raného","P31":"http://www.wikidata.org/entity/Q108325","P31^label:cs":"Kaple","P131^label:cs":"Kravaře","P6736":"34931"},"geometry":{"type":"Point","coordinates":[14.39899,50.64474]}},{"type":"Feature","properties":{"label:cs":"Kaple Navštívení Panny Marie v Raném","P31":"http://www.wikidata.org/entity/Q108325","P31^label:cs":"Kaple","P131^label:cs":"Kravaře","P6736":"34936"},"geometry":{"type":"Point","coordinates":[14.40042,50.65134]}},{"type":"Feature","properties":{"label:cs":"Pomník osvobození v Raném","P31":"http://www.wikidata.org/entity/Q4989906","P31^label:cs":"Pomník","P131^label:cs":"Kravaře","P6736":"34935"},"geometry":{"type":"Point","coordinates":[14.40015,50.65088]}},{"type":"Feature","properties":{"label:cs":"Kříž svatého Huberta ve stráni na západním okraji Raného","P31":"http://www.wikidata.org/entity/Q2309609","P31^label:cs":"Pamětní kříž","P131^label:cs":"Kravaře","P6736":"34934"},"geometry":{"type":"Point","coordinates":[14.40015,50.64967]}},{"type":"Feature","properties":{"label:cs":"Kříž na rozcestí v Raném","P31":"http://www.wikidata.org/entity/Q2309609","P31^label:cs":"Pamětní kříž","P131^label:cs":"Kravaře","P6736":"34933"},"geometry":{"type":"Point","coordinates":[14.40267,50.64949]}},{"type":"Feature","properties":{"label:cs":"Kříž na louce východně od Raného","P31":"http://www.wikidata.org/entity/Q2309609","P31^label:cs":"Pamětní kříž","P131^label:cs":"Kravaře","P6736":"34932"},"geometry":{"type":"Point","coordinates":[14.40674,50.65135]}}]}