{"type":"FeatureCollection","features":[{"type":"Feature","properties":{"label:cs":"Socha v ulici Na Buku ve Štěchovicích","P31":"http://www.wikidata.org/entity/Q179700","P31^label:cs":"Socha","P131^label:cs":"Štěchovice","P6736":"42831"},"geometry":{"type":"Point","coordinates":[14.40858,49.84921]}},{"type":"Feature","properties":{"label:cs":"Lípa národní hymny ve Štěchovicích","P31":"http://www.wikidata.org/entity/Q4989906","P31^label:cs":"Pomník","P131^label:cs":"Štěchovice","P6736":"42827"},"geometry":{"type":"Point","coordinates":[14.40929,49.85033]}},{"type":"Feature","properties":{"label:cs":"Kříž za kostelem ve Štěchovicích","P31":"http://www.wikidata.org/entity/Q2309609","P31^label:cs":"Pamětní kříž","P131^label:cs":"Štěchovice","P6736":"42826"},"geometry":{"type":"Point","coordinates":[14.40984,49.85039]}},{"type":"Feature","properties":{"label:cs":"Kříž pod kostelem ve Štěchovicích","P31":"http://www.wikidata.org/entity/Q2309609","P31^label:cs":"Pamětní kříž","P131^label:cs":"Štěchovice","P6736":"42825"},"geometry":{"type":"Point","coordinates":[14.409,49.84996]}},{"type":"Feature","properties":{"label:cs":"XIV. zastavení křížové cesty ve Štěchovicích","P31":"http://www.wikidata.org/entity/Q11734477","P31^label:cs":"Památný kámen","P131^label:cs":"Štěchovice","P6736":"42817"},"geometry":{"type":"Point","coordinates":[14.41001,49.85029]}},{"type":"Feature","properties":{"label:cs":"XIII. zastavení křížové cesty ve Štěchovicích","P31":"http://www.wikidata.org/entity/Q11734477","P31^label:cs":"Památný kámen","P131^label:cs":"Štěchovice","P6736":"42816"},"geometry":{"type":"Point","coordinates":[14.4099,49.85032]}},{"type":"Feature","properties":{"label:cs":"XII. zastavení křížové cesty ve Štěchovicích","P31":"http://www.wikidata.org/entity/Q2309609","P31^label:cs":"Pamětní kříž","P131^label:cs":"Štěchovice","P6736":"42815"},"geometry":{"type":"Point","coordinates":[14.40975,49.85037]}},{"type":"Feature","properties":{"label:cs":"XI. zastavení křížové cesty ve Štěchovicích","P31":"http://www.wikidata.org/entity/Q11734477","P31^label:cs":"Památný kámen","P131^label:cs":"Štěchovice","P6736":"42814"},"geometry":{"type":"Point","coordinates":[14.40963,49.85036]}},{"type":"Feature","properties":{"label:cs":"X. zastavení křížové cesty ve Štěchovicích","P31":"http://www.wikidata.org/entity/Q11734477","P31^label:cs":"Památný kámen","P131^label:cs":"Štěchovice","P6736":"42813"},"geometry":{"type":"Point","coordinates":[14.40958,49.85029]}},{"type":"Feature","properties":{"label:cs":"IX. zastavení křížové cesty ve Štěchovicích","P31":"http://www.wikidata.org/entity/Q11734477","P31^label:cs":"Památný kámen","P131^label:cs":"Štěchovice","P6736":"42812"},"geometry":{"type":"Point","coordinates":[14.40958,49.85029]}},{"type":"Feature","properties":{"label:cs":"VIII. zastavení křížové cesty ve Štěchovicích","P31":"http://www.wikidata.org/entity/Q11734477","P31^label:cs":"Památný kámen","P131^label:cs":"Štěchovice","P6736":"42811"},"geometry":{"type":"Point","coordinates":[14.40955,49.85025]}},{"type":"Feature","properties":{"label:cs":"VII. zastavení křížové cesty ve Štěchovicích","P31":"http://www.wikidata.org/entity/Q11734477","P31^label:cs":"Památný kámen","P131^label:cs":"Štěchovice","P6736":"42810"},"geometry":{"type":"Point","coordinates":[14.4095,49.85018]}},{"type":"Feature","properties":{"label:cs":"VI. zastavení křížové cesty ve Štěchovicích","P31":"http://www.wikidata.org/entity/Q11734477","P31^label:cs":"Památný kámen","P131^label:cs":"Štěchovice","P6736":"42809"},"geometry":{"type":"Point","coordinates":[14.4094,49.85015]}},{"type":"Feature","properties":{"label:cs":"V. zastavení křížové cesty ve Štěchovicích","P31":"http://www.wikidata.org/entity/Q11734477","P31^label:cs":"Památný kámen","P131^label:cs":"Štěchovice","P6736":"42808"},"geometry":{"type":"Point","coordinates":[14.4095,49.85008]}},{"type":"Feature","properties":{"label:cs":"IV. zastavení křížové cesty ve Štěchovicích","P31":"http://www.wikidata.org/entity/Q11734477","P31^label:cs":"Památný kámen","P131^label:cs":"Štěchovice","P6736":"42807"},"geometry":{"type":"Point","coordinates":[14.40943,49.85006]}},{"type":"Feature","properties":{"label:cs":"III. zastavení křížové cesty ve Štěchovicích","P31":"http://www.wikidata.org/entity/Q11734477","P31^label:cs":"Památný kámen","P131^label:cs":"Štěchovice","P6736":"42806"},"geometry":{"type":"Point","coordinates":[14.40934,49.84994]}},{"type":"Feature","properties":{"label:cs":"II. zastavení křížové cesty ve Štěchovicích","P31":"http://www.wikidata.org/entity/Q11734477","P31^label:cs":"Památný kámen","P131^label:cs":"Štěchovice","P6736":"42805"},"geometry":{"type":"Point","coordinates":[14.4092,49.84998]}},{"type":"Feature","properties":{"label:cs":"I. zastavení křížové cesty ve Štěchovicích","P31":"http://www.wikidata.org/entity/Q11734477","P31^label:cs":"Památný kámen","P131^label:cs":"Štěchovice","P6736":"42804"},"geometry":{"type":"Point","coordinates":[14.40911,49.85001]}}]}