{"type":"FeatureCollection","features":[{"type":"Feature","properties":{"label:cs":"Pamětní deska Pavla Špirka na domě Ke Krči 997/14 v Braníku","P31":"http://www.wikidata.org/entity/Q721747","P31^label:cs":"Pamětní deska","P131^label:cs":"Praha","P6736":"33028"},"geometry":{"type":"Point","coordinates":[14.41065,50.03773]}},{"type":"Feature","properties":{"label:cs":"Reliéf Ukřižovaného s klečícím dominikánem na Dominikánském dvoře v Braníku","P31":"http://www.wikidata.org/entity/Q245117","P31^label:cs":"Reliéf","P131^label:cs":"Praha","P6736":"33027"},"geometry":{"type":"Point","coordinates":[14.41227,50.03689]}},{"type":"Feature","properties":{"label:cs":"Kaple svatého Kříže v Dominikánském dvoře v Braníku","P31":"http://www.wikidata.org/entity/Q108325","P31^label:cs":"Kaple","P131^label:cs":"Praha","P6736":"33026"},"geometry":{"type":"Point","coordinates":[14.41223,50.03687]}},{"type":"Feature","properties":{"label:cs":"Pamětní deska Ladislava Horáka na budově školy Školní 700/5 v Braníku","P31":"http://www.wikidata.org/entity/Q721747","P31^label:cs":"Pamětní deska","P131^label:cs":"Praha","P6736":"33024"},"geometry":{"type":"Point","coordinates":[14.41366,50.03738]}},{"type":"Feature","properties":{"label:cs":"Betonová plastika Rovnováha u nájezdu na Barrandovský most","P31":"http://www.wikidata.org/entity/Q12045520","P31^label:cs":"Plastika","P131^label:cs":"Praha","P6736":"24585"},"geometry":{"type":"Point","coordinates":[14.4087,50.03757]}},{"type":"Feature","properties":{"label:cs":"Plastika Portál u vchodu do domu Na Mlejnku 2a","P31":"http://www.wikidata.org/entity/Q12045520","P31^label:cs":"Plastika","P131^label:cs":"Praha","P6736":"24584"},"geometry":{"type":"Point","coordinates":[14.40968,50.03617]}},{"type":"Feature","properties":{"label:cs":"Kamenná plastika v parčíku v ulici Ke Krči","P31":"http://www.wikidata.org/entity/Q12045520","P31^label:cs":"Plastika","P131^label:cs":"Praha","P6736":"24580"},"geometry":{"type":"Point","coordinates":[14.41208,50.03623]}},{"type":"Feature","properties":{"label:cs":"Socha svatého Jana Nepomuckého u kostela svatého Prokopa v Braníku","P31":"http://www.wikidata.org/entity/Q179700","P31^label:cs":"Socha","P131^label:cs":"Praha","P6736":"24578"},"geometry":{"type":"Point","coordinates":[14.41346,50.03802]}},{"type":"Feature","properties":{"label:cs":"Kaple Panny Marie Bolestné pod Barrandovem","P31":"http://www.wikidata.org/entity/Q108325","P31^label:cs":"Kaple","P131^label:cs":"Praha","P6736":"19451"},"geometry":{"type":"Point","coordinates":[14.40386,50.03833]}},{"type":"Feature","properties":{"label:cs":"Socha svatého Jana Nepomuckého na skále před kostelem svatého Filipa a Jakuba Na Zlíchově","P31":"http://www.wikidata.org/entity/Q179700","P31^label:cs":"Socha","P131^label:cs":"Praha","P6736":"19443"},"geometry":{"type":"Point","coordinates":[14.40883,50.04781]}},{"type":"Feature","properties":{"label:cs":"Sloup se sochou Panny Marie Svatohorské u kostela svatého Filipa a Jakuba Na Zlíchově","P31":"http://www.wikidata.org/entity/Q4817","P31^label:cs":"Sloup","P131^label:cs":"Praha","P6736":"19442"},"geometry":{"type":"Point","coordinates":[14.40846,50.04687]}},{"type":"Feature","properties":{"label:cs":"Pomník Obětem 2. světové války pod jihovýchodním viaduktem Pražského Semmeringu","P31":"http://www.wikidata.org/entity/Q4989906","P31^label:cs":"Pomník","P131^label:cs":"Praha","P6736":"19441"},"geometry":{"type":"Point","coordinates":[14.39705,50.03846]}}]}