{"type":"FeatureCollection","features":[{"type":"Feature","properties":{"label:cs":"Kříž u silnice z Veselí do Chcebuzi","P31":"http://www.wikidata.org/entity/Q2309609","P31^label:cs":"Pamětní kříž","P131^label:cs":"Štětí","P6736":"31359"},"geometry":{"type":"Point","coordinates":[14.43592,50.48527]}},{"type":"Feature","properties":{"label:cs":"Kříž na rozcestí v Chcebuzi","P31":"http://www.wikidata.org/entity/Q2309609","P31^label:cs":"Pamětní kříž","P131^label:cs":"Štětí","P6736":"31360"},"geometry":{"type":"Point","coordinates":[14.42759,50.48299]}},{"type":"Feature","properties":{"label:cs":"Socha svatého Pavla vpravo u brány ke kostelu v Chcebuzi","P31":"http://www.wikidata.org/entity/Q179700","P31^label:cs":"Socha","P131^label:cs":"Štětí","P6736":"31361"},"geometry":{"type":"Point","coordinates":[14.42392,50.48372]}},{"type":"Feature","properties":{"label:cs":"Socha svatého Petra vlevo u brány ke kostelu v Chcebuzi","P31":"http://www.wikidata.org/entity/Q179700","P31^label:cs":"Socha","P131^label:cs":"Štětí","P6736":"31362"},"geometry":{"type":"Point","coordinates":[14.42395,50.48377]}},{"type":"Feature","properties":{"label:cs":"Mariánský sloup na návsi v Chcebuzi","P31":"http://www.wikidata.org/entity/Q4817","P31^label:cs":"Sloup","P131^label:cs":"Štětí","P6736":"31363"},"geometry":{"type":"Point","coordinates":[14.42338,50.4839]}},{"type":"Feature","properties":{"label:cs":"Pomník osvobození na návsi v Chcebuzi","P31":"http://www.wikidata.org/entity/Q4989906","P31^label:cs":"Pomník","P131^label:cs":"Štětí","P6736":"31364"},"geometry":{"type":"Point","coordinates":[14.42293,50.4842]}}]}