{"type":"FeatureCollection","features":[{"type":"Feature","properties":{"label:cs":"Kaple v osadě Sezímky","P31":"http://www.wikidata.org/entity/Q108325","P31^label:cs":"Kaple","P131^label:cs":"Kravaře","P6736":"22640"},"geometry":{"type":"Point","coordinates":[14.41539,50.63603]}},{"type":"Feature","properties":{"label:cs":"Kříž v severní části osady Sezímky","P31":"http://www.wikidata.org/entity/Q2309609","P31^label:cs":"Pamětní kříž","P131^label:cs":"Kravaře","P6736":"22641"},"geometry":{"type":"Point","coordinates":[14.4177,50.63799]}},{"type":"Feature","properties":{"label:cs":"Pomník padlému rudoarmějci u silnice z Kravař do Stvolínek","P31":"http://www.wikidata.org/entity/Q575759","P31^label:cs":"Pomník padlým","P131^label:cs":"Stvolínky","P6736":"22642"},"geometry":{"type":"Point","coordinates":[14.42277,50.63354]}},{"type":"Feature","properties":{"label:cs":"Pomník osvobození ve Stvolínkách","P31":"http://www.wikidata.org/entity/Q4989906","P31^label:cs":"Pomník","P131^label:cs":"Stvolínky","P6736":"22643"},"geometry":{"type":"Point","coordinates":[14.42908,50.63214]}},{"type":"Feature","properties":{"label:cs":"Kříž v polích severně od Stvolínek","P31":"http://www.wikidata.org/entity/Q2309609","P31^label:cs":"Pamětní kříž","P131^label:cs":"Stvolínky","P6736":"22644"},"geometry":{"type":"Point","coordinates":[14.43156,50.6343]}},{"type":"Feature","properties":{"label:cs":"Kříž u silnice východně od Stvolínek","P31":"http://www.wikidata.org/entity/Q2309609","P31^label:cs":"Pamětní kříž","P131^label:cs":"Stvolínky","P6736":"22645"},"geometry":{"type":"Point","coordinates":[14.43449,50.63281]}},{"type":"Feature","properties":{"label:cs":"Kaple svatého Justina na hřbitově ve Stvolínkách","P31":"http://www.wikidata.org/entity/Q108325","P31^label:cs":"Kaple","P131^label:cs":"Stvolínky","P6736":"22647"},"geometry":{"type":"Point","coordinates":[14.43065,50.6286]}}]}