{"type":"FeatureCollection","features":[{"type":"Feature","properties":{"label:cs":"Obrázek I. zastavení křížové cesty v areálu Bratrského oltáře","P31":"http://www.wikidata.org/entity/Q478798","P31^label:cs":"Obrázek","P131^label:cs":"Česká Kamenice","P6736":"40650"},"geometry":{"type":"Point","coordinates":[14.43139,50.80844]}},{"type":"Feature","properties":{"label:cs":"Obrázek II. zastavení křížové cesty v areálu Bratrského oltáře","P31":"http://www.wikidata.org/entity/Q478798","P31^label:cs":"Obrázek","P131^label:cs":"Česká Kamenice","P6736":"40649"},"geometry":{"type":"Point","coordinates":[14.43138,50.80843]}},{"type":"Feature","properties":{"label:cs":"Obrázek III. zastavení křížové cesty v areálu Bratrského oltáře","P31":"http://www.wikidata.org/entity/Q478798","P31^label:cs":"Obrázek","P131^label:cs":"Česká Kamenice","P6736":"40648"},"geometry":{"type":"Point","coordinates":[14.43137,50.80842]}},{"type":"Feature","properties":{"label:cs":"Obrázek IV. zastavení křížové cesty v areálu Bratrského oltáře","P31":"http://www.wikidata.org/entity/Q478798","P31^label:cs":"Obrázek","P131^label:cs":"Česká Kamenice","P6736":"40647"},"geometry":{"type":"Point","coordinates":[14.43131,50.80835]}},{"type":"Feature","properties":{"label:cs":"Obrázek V. zastavení křížové cesty v areálu Bratrského oltáře","P31":"http://www.wikidata.org/entity/Q478798","P31^label:cs":"Obrázek","P131^label:cs":"Česká Kamenice","P6736":"40646"},"geometry":{"type":"Point","coordinates":[14.43129,50.80833]}},{"type":"Feature","properties":{"label:cs":"Obrázek VI. zastavení křížové cesty v areálu Bratrského oltáře","P31":"http://www.wikidata.org/entity/Q478798","P31^label:cs":"Obrázek","P131^label:cs":"Česká Kamenice","P6736":"40645"},"geometry":{"type":"Point","coordinates":[14.43126,50.80832]}},{"type":"Feature","properties":{"label:cs":"Obrázek VII. zastavení křížové cesty v areálu Bratrského oltáře","P31":"http://www.wikidata.org/entity/Q478798","P31^label:cs":"Obrázek","P131^label:cs":"Česká Kamenice","P6736":"40644"},"geometry":{"type":"Point","coordinates":[14.43124,50.80831]}},{"type":"Feature","properties":{"label:cs":"Obrázek VIII. zastavení křížové cesty v areálu Bratrského oltáře","P31":"http://www.wikidata.org/entity/Q478798","P31^label:cs":"Obrázek","P131^label:cs":"Česká Kamenice","P6736":"40643"},"geometry":{"type":"Point","coordinates":[14.43122,50.80829]}},{"type":"Feature","properties":{"label:cs":"Obrázek IX. zastavení křížové cesty v areálu Bratrského oltáře","P31":"http://www.wikidata.org/entity/Q478798","P31^label:cs":"Obrázek","P131^label:cs":"Česká Kamenice","P6736":"40642"},"geometry":{"type":"Point","coordinates":[14.43116,50.80829]}},{"type":"Feature","properties":{"label:cs":"Obrázek X. zastavení křížové cesty v areálu Bratrského oltáře","P31":"http://www.wikidata.org/entity/Q478798","P31^label:cs":"Obrázek","P131^label:cs":"Česká Kamenice","P6736":"40640"},"geometry":{"type":"Point","coordinates":[14.43096,50.80841]}},{"type":"Feature","properties":{"label:cs":"Obrázky XI. a XII. zastavení křížové cesty v areálu Bratrského oltáře","P31":"http://www.wikidata.org/entity/Q478798","P31^label:cs":"Obrázek","P131^label:cs":"Česká Kamenice","P6736":"40639"},"geometry":{"type":"Point","coordinates":[14.43102,50.8084]}},{"type":"Feature","properties":{"label:cs":"Obrázek XIII. zastavení křížové cesty v areálu Bratrského oltáře","P31":"http://www.wikidata.org/entity/Q478798","P31^label:cs":"Obrázek","P131^label:cs":"Česká Kamenice","P6736":"40638"},"geometry":{"type":"Point","coordinates":[14.43115,50.80846]}},{"type":"Feature","properties":{"label:cs":"Socha anděla v areálu Bratrského oltáře severovýchodně od České Kamenice","P31":"http://www.wikidata.org/entity/Q179700","P31^label:cs":"Socha","P131^label:cs":"Česká Kamenice","P6736":"40637"},"geometry":{"type":"Point","coordinates":[14.43105,50.8084]}},{"type":"Feature","properties":{"label:cs":"Reliéf na skále v areálu Bratrského oltáře severovýchodně od České Kamenice","P31":"http://www.wikidata.org/entity/Q245117","P31^label:cs":"Reliéf","P131^label:cs":"Česká Kamenice","P6736":"40636"},"geometry":{"type":"Point","coordinates":[14.43107,50.80841]}},{"type":"Feature","properties":{"label:cs":"Skalní kaplička Božího hrobu v areálu Bratrského oltáře severovýchodně od České Kamenice","P31":"http://www.wikidata.org/entity/Q14552192","P31^label:cs":"Kaplička","P131^label:cs":"Česká Kamenice","P6736":"40635"},"geometry":{"type":"Point","coordinates":[14.4311,50.80841]}},{"type":"Feature","properties":{"label:cs":"Skalní kaple Bratrský oltář severovýchodně od České Kamenice","P31":"http://www.wikidata.org/entity/Q108325","P31^label:cs":"Kaple","P131^label:cs":"Česká Kamenice","P6736":"40634"},"geometry":{"type":"Point","coordinates":[14.43128,50.80838]}},{"type":"Feature","properties":{"label:cs":"Socha svatého Antonína Paduánského u schodiště k Bratrskému oltáři severovýchodně od České Kamenice","P31":"http://www.wikidata.org/entity/Q179700","P31^label:cs":"Socha","P131^label:cs":"Česká Kamenice","P6736":"40633"},"geometry":{"type":"Point","coordinates":[14.43096,50.80833]}},{"type":"Feature","properties":{"label:cs":"Socha svatého Jana Nepomuckého u schodů k Bratrskému oltáři severovýchodně od České Kamenice","P31":"http://www.wikidata.org/entity/Q179700","P31^label:cs":"Socha","P131^label:cs":"Česká Kamenice","P6736":"40632"},"geometry":{"type":"Point","coordinates":[14.43095,50.80827]}},{"type":"Feature","properties":{"label:cs":"Skalní kaplička Nejsvětější Trojice v lese severovýchodně od České Kamenice","P31":"http://www.wikidata.org/entity/Q14552192","P31^label:cs":"Kaplička","P131^label:cs":"Česká Kamenice","P6736":"40631"},"geometry":{"type":"Point","coordinates":[14.42735,50.80916]}},{"type":"Feature","properties":{"label:cs":"Kříž u domu 21 v Kunraticích","P31":"http://www.wikidata.org/entity/Q2309609","P31^label:cs":"Pamětní kříž","P131^label:cs":"Kunratice","P6736":"41267"},"geometry":{"type":"Point","coordinates":[14.41547,50.81897]}},{"type":"Feature","properties":{"label:cs":"Sloup svatého Jana Nepomuckého v Kunraticích","P31":"http://www.wikidata.org/entity/Q4817","P31^label:cs":"Sloup","P131^label:cs":"Kunratice","P6736":"41265"},"geometry":{"type":"Point","coordinates":[14.41471,50.81784]}},{"type":"Feature","properties":{"label:cs":"Kříž u obecního úřadu v Kunraticích","P31":"http://www.wikidata.org/entity/Q2309609","P31^label:cs":"Pamětní kříž","P131^label:cs":"Kunratice","P6736":"41264"},"geometry":{"type":"Point","coordinates":[14.41489,50.8178]}}]}