{"type":"FeatureCollection","features":[{"type":"Feature","properties":{"label:cs":"Památník Husovy lípy v Týnu nad Vltavou","P31":"Q5003624","P31^label:cs":"Památník","P131^label:cs":"Týn nad Vltavou","P6736":"6386"},"geometry":{"type":"Point","coordinates":[14.41484,49.21716]}},{"type":"Feature","properties":{"label:cs":"Kříž v Týnu nad Vltavou v Jiráskově ulici","P31":"Q2309609","P31^label:cs":"Pamětní kříž","P131^label:cs":"Týn nad Vltavou","P6736":"6385"},"geometry":{"type":"Point","coordinates":[14.42257,49.22392]}},{"type":"Feature","properties":{"label:cs":"Kaplička v Týnu nad Vltavou u Děkanské ulice","P31":"Q14552192","P31^label:cs":"Kaplička","P131^label:cs":"Týn nad Vltavou","P6736":"6384"},"geometry":{"type":"Point","coordinates":[14.42201,49.22248]}},{"type":"Feature","properties":{"label:cs":"Boží muka v Týnu nad Vltavou u Žižkovy ulice","P31":"Q3395121","P31^label:cs":"Boží muka","P131^label:cs":"Týn nad Vltavou","P6736":"6383"},"geometry":{"type":"Point","coordinates":[14.41905,49.22096]}},{"type":"Feature","properties":{"label:cs":"pomník padlým v Týnu nad Vltavou","P31":"Q575759","P31^label:cs":"Pomník padlým","P131^label:cs":"Týn nad Vltavou","P6736":"6382"},"geometry":{"type":"Point","coordinates":[14.41726,49.21863]}}]}