{"type":"FeatureCollection","features":[{"type":"Feature","properties":{"label:cs":"Skalní kaplička zvaná Weidlichova u silnice z Chřibské do Jetřichovic","P31":"http://www.wikidata.org/entity/Q14552192","P31^label:cs":"Kaplička","P131^label:cs":"Chřibská","P6736":"29228"},"geometry":{"type":"Point","coordinates":[14.43169,50.85515]}},{"type":"Feature","properties":{"label:cs":"Skalní kaplička Ecce Homo u silnice z Rynartic do Jetřichovic","P31":"http://www.wikidata.org/entity/Q14552192","P31^label:cs":"Kaplička","P131^label:cs":"Jetřichovice","P6736":"29233"},"geometry":{"type":"Point","coordinates":[14.41763,50.84908]}},{"type":"Feature","properties":{"label:cs":"Pomník padlým v 1. světové válce u domu 11 v Rynarticích","P31":"http://www.wikidata.org/entity/Q575759","P31^label:cs":"Pomník padlým","P131^label:cs":"Jetřichovice","P6736":"29232"},"geometry":{"type":"Point","coordinates":[14.41899,50.84871]}},{"type":"Feature","properties":{"label:cs":"Kříž na Křížovém vrchu u Rynartic","P31":"http://www.wikidata.org/entity/Q2309609","P31^label:cs":"Pamětní kříž","P131^label:cs":"Jetřichovice","P6736":"29230"},"geometry":{"type":"Point","coordinates":[14.41907,50.85384]}},{"type":"Feature","properties":{"label:cs":"Kříž na rozcestí v Rynarticích","P31":"http://www.wikidata.org/entity/Q2309609","P31^label:cs":"Pamětní kříž","P131^label:cs":"Jetřichovice","P6736":"29229"},"geometry":{"type":"Point","coordinates":[14.42182,50.85177]}},{"type":"Feature","properties":{"label:cs":"Kříž u polní cesty vlevo od silnice severně od Studeného","P31":"http://www.wikidata.org/entity/Q2309609","P31^label:cs":"Pamětní kříž","P131^label:cs":"Kunratice","P6736":"41298"},"geometry":{"type":"Point","coordinates":[14.43345,50.85008]}}]}