{"type":"FeatureCollection","features":[{"type":"Feature","properties":{"label:cs":"Platika koně na Císařském ostrově","P31":"http://www.wikidata.org/entity/Q12045520","P31^label:cs":"Plastika","P131^label:cs":"Praha","P6736":"33464"},"geometry":{"type":"Point","coordinates":[14.41751,50.11246]}},{"type":"Feature","properties":{"label:cs":"Pomníček Stanislava Hübnera na Císařském ostrově","P31":"http://www.wikidata.org/entity/Q4989906","P31^label:cs":"Pomník","P131^label:cs":"Praha","P6736":"33463"},"geometry":{"type":"Point","coordinates":[14.41646,50.11121]}},{"type":"Feature","properties":{"label:cs":"Pískovcová plastika na výstavišti v Holešovicích","P31":"http://www.wikidata.org/entity/Q12045520","P31^label:cs":"Plastika","P131^label:cs":"Praha","P6736":"33209"},"geometry":{"type":"Point","coordinates":[14.43189,50.10883]}},{"type":"Feature","properties":{"label:cs":"Sousoší Milenci ve Stromovce","P31":"http://www.wikidata.org/entity/Q179700","P31^label:cs":"Socha","P131^label:cs":"Praha","P6736":"33206"},"geometry":{"type":"Point","coordinates":[14.41547,50.10764]}},{"type":"Feature","properties":{"label:cs":"Křižíkova fontána na výstavišti v Holešovicích","P31":"http://www.wikidata.org/entity/Q12029081","P31^label:cs":"Kašna","P131^label:cs":"Praha","P6736":"33157"},"geometry":{"type":"Point","coordinates":[14.42929,50.10741]}},{"type":"Feature","properties":{"label:cs":"Socha Hokejista u sportovní haly v ulici U Výstaviště","P31":"http://www.wikidata.org/entity/Q179700","P31^label:cs":"Socha","P131^label:cs":"Praha","P6736":"24086"},"geometry":{"type":"Point","coordinates":[14.43193,50.10675]}},{"type":"Feature","properties":{"label:cs":"Pomník padlým u školy v Trojské ulici","P31":"http://www.wikidata.org/entity/Q575759","P31^label:cs":"Pomník padlým","P131^label:cs":"Praha","P6736":"24071"},"geometry":{"type":"Point","coordinates":[14.42241,50.11721]}},{"type":"Feature","properties":{"label:cs":"Kaple svaté Kláry v Praze-Troji","P31":"http://www.wikidata.org/entity/Q108325","P31^label:cs":"Kaple","P131^label:cs":"Praha","P6736":"14319"},"geometry":{"type":"Point","coordinates":[14.41418,50.11799]}}]}