{"type":"FeatureCollection","features":[{"type":"Feature","properties":{"label:cs":"Pamětní deska Josefa Boučka na Florenci","P31":"http://www.wikidata.org/entity/Q721747","P31^label:cs":"Pamětní deska","P131^label:cs":"Praha","P6736":"33695"},"geometry":{"type":"Point","coordinates":[14.44252,50.08942]}},{"type":"Feature","properties":{"label:cs":"Kaple svatého Karla Boromejského v Karlíně","P31":"http://www.wikidata.org/entity/Q108325","P31^label:cs":"Kaple","P131^label:cs":"Praha","P6736":"32579"},"geometry":{"type":"Point","coordinates":[14.44597,50.09056]}},{"type":"Feature","properties":{"label:cs":"Socha husitského práčete v Karlíně v Praze","P31":"http://www.wikidata.org/entity/Q179700","P31^label:cs":"Socha","P131^label:cs":"Praha","P6736":"23847"},"geometry":{"type":"Point","coordinates":[14.44859,50.09112]}},{"type":"Feature","properties":{"label:cs":"Hřbitovní kaple v Praze-Karlíně v Pernerově ulici","P31":"http://www.wikidata.org/entity/Q108325","P31^label:cs":"Kaple","P131^label:cs":"Praha","P6736":"13871"},"geometry":{"type":"Point","coordinates":[14.45709,50.0914]}},{"type":"Feature","properties":{"label:cs":"Plastika s hodinami u Florence","P31":"http://www.wikidata.org/entity/Q12045520","P31^label:cs":"Plastika","P131^label:cs":"Praha","P6736":"9740"},"geometry":{"type":"Point","coordinates":[14.43896,50.09096]}},{"type":"Feature","properties":{"label:cs":"Pamětní deska Bohumila Maršíčka v Husitské ulici na Žižkově","P31":"http://www.wikidata.org/entity/Q721747","P31^label:cs":"Pamětní deska","P131^label:cs":"Praha","P6736":"33683"},"geometry":{"type":"Point","coordinates":[14.4429,50.08743]}},{"type":"Feature","properties":{"label:cs":"Plastika Mostaři před autobusovým nádražím Florenc v Praze","P31":"http://www.wikidata.org/entity/Q12045520","P31^label:cs":"Plastika","P131^label:cs":"Praha","P6736":"9741"},"geometry":{"type":"Point","coordinates":[14.43908,50.08948]}},{"type":"Feature","properties":{"label:cs":"Sloup u Florence v Praze","P31":"http://www.wikidata.org/entity/Q4817","P31^label:cs":"Sloup","P131^label:cs":"Praha","P6736":"9739"},"geometry":{"type":"Point","coordinates":[14.43872,50.09044]}},{"type":"Feature","properties":{"label:cs":"Pamětní deska Caluma Campbella na křižovatce U Bulhara","P31":"http://www.wikidata.org/entity/Q721747","P31^label:cs":"Pamětní deska","P131^label:cs":"Praha","P6736":"33675"},"geometry":{"type":"Point","coordinates":[14.43811,50.08612]}},{"type":"Feature","properties":{"label:cs":"Busta Jana Husa ve Slavíkově ulici v Praze","P31":"http://www.wikidata.org/entity/Q179700","P31^label:cs":"Socha","P131^label:cs":"Praha","P6736":"29208"},"geometry":{"type":"Point","coordinates":[14.44823,50.07855]}},{"type":"Feature","properties":{"label:cs":"Pamětní deska Jana Šrámka ve Slavíkově ulici v Praze","P31":"http://www.wikidata.org/entity/Q721747","P31^label:cs":"Pamětní deska","P131^label:cs":"Praha","P6736":"29207"},"geometry":{"type":"Point","coordinates":[14.44823,50.07855]}},{"type":"Feature","properties":{"label:cs":"Pamětní deska Vlastě Štáflové a Otakaru Štáflovi v Mánesově ulici v Praze","P31":"http://www.wikidata.org/entity/Q721747","P31^label:cs":"Pamětní deska","P131^label:cs":"Praha","P6736":"29196"},"geometry":{"type":"Point","coordinates":[14.43705,50.07858]}},{"type":"Feature","properties":{"label:cs":"Pamětní deska Marie Sobkové a Soběslava Sobka v Italské ulici v Praze","P31":"http://www.wikidata.org/entity/Q721747","P31^label:cs":"Pamětní deska","P131^label:cs":"Praha","P6736":"29195"},"geometry":{"type":"Point","coordinates":[14.43657,50.07865]}},{"type":"Feature","properties":{"label:cs":"Pamětní deska k 30. výročí bojů o rozhlas na škole Na Smetánce v Praze","P31":"http://www.wikidata.org/entity/Q721747","P31^label:cs":"Pamětní deska","P131^label:cs":"Praha","P6736":"29193"},"geometry":{"type":"Point","coordinates":[14.43615,50.07989]}},{"type":"Feature","properties":{"label:cs":"Socha dětí v zahradě školky ve Vozové ulici na Vinohradech","P31":"http://www.wikidata.org/entity/Q179700","P31^label:cs":"Socha","P131^label:cs":"Praha","P6736":"25000"},"geometry":{"type":"Point","coordinates":[14.44077,50.08175]}},{"type":"Feature","properties":{"label:cs":"Sloup-obelisk Brigitty Canalové v Riegrových sadech na Vinohradech","P31":"http://www.wikidata.org/entity/Q4817","P31^label:cs":"Sloup","P131^label:cs":"Praha","P6736":"24999"},"geometry":{"type":"Point","coordinates":[14.44172,50.08152]}},{"type":"Feature","properties":{"label:cs":"Socha Dívka s obručí v Riegrových sadech na Vinohradech","P31":"http://www.wikidata.org/entity/Q179700","P31^label:cs":"Socha","P131^label:cs":"Praha","P6736":"24998"},"geometry":{"type":"Point","coordinates":[14.44358,50.07959]}},{"type":"Feature","properties":{"label:cs":"Památník 150 let Sokola u haly Sokola Královské Vinohrady","P31":"http://www.wikidata.org/entity/Q5003624","P31^label:cs":"Památník","P131^label:cs":"Praha","P6736":"24997"},"geometry":{"type":"Point","coordinates":[14.4423,50.07872]}},{"type":"Feature","properties":{"label:cs":"Socha Františka Ladislava Riegra v Riegrových sadech v Praze","P31":"http://www.wikidata.org/entity/Q179700","P31^label:cs":"Socha","P131^label:cs":"Praha","P6736":"8895"},"geometry":{"type":"Point","coordinates":[14.43798,50.07949]}},{"type":"Feature","properties":{"label:cs":"Pamětní deska bojovníkům za svobodu na hospodě U vystřeleného voka na Žižkově","P31":"http://www.wikidata.org/entity/Q721747","P31^label:cs":"Pamětní deska","P131^label:cs":"Praha","P6736":"33692"},"geometry":{"type":"Point","coordinates":[14.4496,50.0872]}},{"type":"Feature","properties":{"label:cs":"Torso Čechie před hospodou U vystřeleného voka na Žižkově","P31":"http://www.wikidata.org/entity/Q179700","P31^label:cs":"Socha","P131^label:cs":"Praha","P6736":"33691"},"geometry":{"type":"Point","coordinates":[14.44973,50.08722]}},{"type":"Feature","properties":{"label:cs":"Pamětní deska neznámé ženy na domě Koněvova 126/2b na Žižkově","P31":"http://www.wikidata.org/entity/Q721747","P31^label:cs":"Pamětní deska","P131^label:cs":"Praha","P6736":"33690"},"geometry":{"type":"Point","coordinates":[14.45364,50.08726]}},{"type":"Feature","properties":{"label:cs":"Pamětní deska vojenského velitelství pro prahu XI na Žižkově","P31":"http://www.wikidata.org/entity/Q721747","P31^label:cs":"Pamětní deska","P131^label:cs":"Praha","P6736":"33689"},"geometry":{"type":"Point","coordinates":[14.45394,50.08481]}},{"type":"Feature","properties":{"label:cs":"Pamětní deska Vladimíra Boudníka na domě Kostnické náměstí 776/5 na Žižkově","P31":"http://www.wikidata.org/entity/Q721747","P31^label:cs":"Pamětní deska","P131^label:cs":"Praha","P6736":"33687"},"geometry":{"type":"Point","coordinates":[14.44864,50.08579]}},{"type":"Feature","properties":{"label:cs":"Pamětní deska neznámému slovenskému bojovníkovi na domě Orebitská 727/3 na Žižkově","P31":"http://www.wikidata.org/entity/Q721747","P31^label:cs":"Pamětní deska","P131^label:cs":"Praha","P6736":"33686"},"geometry":{"type":"Point","coordinates":[14.44629,50.0864]}},{"type":"Feature","properties":{"label:cs":"Pamětní deska padlým v Květnovém povstání v Husitské ulici na Žižkově","P31":"http://www.wikidata.org/entity/Q721747","P31^label:cs":"Pamětní deska","P131^label:cs":"Praha","P6736":"33684"},"geometry":{"type":"Point","coordinates":[14.44528,50.08693]}},{"type":"Feature","properties":{"label:cs":"Pamětní deska Jana Kurceka v Husitské ulici na Žižkově","P31":"http://www.wikidata.org/entity/Q721747","P31^label:cs":"Pamětní deska","P131^label:cs":"Praha","P6736":"33682"},"geometry":{"type":"Point","coordinates":[14.44246,50.08727]}},{"type":"Feature","properties":{"label:cs":"Pamětní deska Odborové organisace strojvůdců na domě Seifertova 571/5 na Žižkově","P31":"http://www.wikidata.org/entity/Q721747","P31^label:cs":"Pamětní deska","P131^label:cs":"Praha","P6736":"33681"},"geometry":{"type":"Point","coordinates":[14.43987,50.08572]}},{"type":"Feature","properties":{"label:cs":"Pamětní deska neznámému bojovníkovi vlevo od vchodu domu Seifertova 571/5 na Žižkově","P31":"http://www.wikidata.org/entity/Q721747","P31^label:cs":"Pamětní deska","P131^label:cs":"Praha","P6736":"33680"},"geometry":{"type":"Point","coordinates":[14.43987,50.08572]}},{"type":"Feature","properties":{"label:cs":"Pamětní deska neznámému bojovníkovi vpravo od vchodu domu Seifertova 571/5 na Žižkově","P31":"http://www.wikidata.org/entity/Q721747","P31^label:cs":"Pamětní deska","P131^label:cs":"Praha","P6736":"33679"},"geometry":{"type":"Point","coordinates":[14.43987,50.08572]}},{"type":"Feature","properties":{"label:cs":"Pamětní deska neznámému hrdinovi na domě Seifertova 823/9 na Žižkově","P31":"http://www.wikidata.org/entity/Q721747","P31^label:cs":"Pamětní deska","P131^label:cs":"Praha","P6736":"33678"},"geometry":{"type":"Point","coordinates":[14.44052,50.0854]}},{"type":"Feature","properties":{"label:cs":"Pamětní deska Jana Palacha na budově VŠE na Žižkově","P31":"http://www.wikidata.org/entity/Q721747","P31^label:cs":"Pamětní deska","P131^label:cs":"Praha","P6736":"33677"},"geometry":{"type":"Point","coordinates":[14.44119,50.0841]}},{"type":"Feature","properties":{"label:cs":"Pamětní deska Antonína Kamenického na budově VŠE na Žižkově","P31":"http://www.wikidata.org/entity/Q721747","P31^label:cs":"Pamětní deska","P131^label:cs":"Praha","P6736":"33676"},"geometry":{"type":"Point","coordinates":[14.44084,50.08427]}},{"type":"Feature","properties":{"label:cs":"Socha na nároží Chlumovy a Koněvovy ulice na Žižkově","P31":"http://www.wikidata.org/entity/Q179700","P31^label:cs":"Socha","P131^label:cs":"Praha","P6736":"30913"},"geometry":{"type":"Point","coordinates":[14.45312,50.08727]}},{"type":"Feature","properties":{"label:cs":"Socha svatého Prokopa na kostele svatého Prokopa na Žižkově","P31":"http://www.wikidata.org/entity/Q179700","P31^label:cs":"Socha","P131^label:cs":"Praha","P6736":"30895"},"geometry":{"type":"Point","coordinates":[14.4503,50.08411]}},{"type":"Feature","properties":{"label:cs":"Pamětní deska Karla Sladkovského na Sladkovského náměstí na Žižkově","P31":"http://www.wikidata.org/entity/Q721747","P31^label:cs":"Pamětní deska","P131^label:cs":"Praha","P6736":"30894"},"geometry":{"type":"Point","coordinates":[14.45018,50.08386]}},{"type":"Feature","properties":{"label:cs":"Pamětní deska A. B. Svojsíka na Sladkovského náměstí na Žižkově","P31":"http://www.wikidata.org/entity/Q721747","P31^label:cs":"Pamětní deska","P131^label:cs":"Praha","P6736":"30893"},"geometry":{"type":"Point","coordinates":[14.45068,50.08381]}},{"type":"Feature","properties":{"label:cs":"Betlémská kaple na Žižkově","P31":"http://www.wikidata.org/entity/Q108325","P31^label:cs":"Kaple","P131^label:cs":"Praha","P6736":"30889"},"geometry":{"type":"Point","coordinates":[14.45439,50.0862]}},{"type":"Feature","properties":{"label:cs":"Pamětní deska majora Jiřího Linharta na domě Táboritská 15/22 na Žižkově","P31":"http://www.wikidata.org/entity/Q721747","P31^label:cs":"Pamětní deska","P131^label:cs":"Praha","P6736":"30888"},"geometry":{"type":"Point","coordinates":[14.45648,50.08204]}},{"type":"Feature","properties":{"label:cs":"Pamětní deska obětem 2. světové války ve Fibichově ulici v Praze","P31":"http://www.wikidata.org/entity/Q721747","P31^label:cs":"Pamětní deska","P131^label:cs":"Praha","P6736":"29210"},"geometry":{"type":"Point","coordinates":[14.44925,50.08184]}},{"type":"Feature","properties":{"label:cs":"Pamětní deska shromáždění opozičních seskupení na Škroupově náměstí v Praze","P31":"http://www.wikidata.org/entity/Q721747","P31^label:cs":"Pamětní deska","P131^label:cs":"Praha","P6736":"29209"},"geometry":{"type":"Point","coordinates":[14.44875,50.08011]}},{"type":"Feature","properties":{"label:cs":"Miminka na Žižkovské televizní věži v Praze","P31":"http://www.wikidata.org/entity/Q12045520","P31^label:cs":"Plastika","P131^label:cs":"Praha","P6736":"29168"},"geometry":{"type":"Point","coordinates":[14.45113,50.08104]}},{"type":"Feature","properties":{"label:cs":"Socha dívky s květinou u galerie Atrium v Čajkovského ulici","P31":"http://www.wikidata.org/entity/Q179700","P31^label:cs":"Socha","P131^label:cs":"Praha","P6736":"25163"},"geometry":{"type":"Point","coordinates":[14.45294,50.08192]}},{"type":"Feature","properties":{"label:cs":"Kaple Povýšení svatého Kříže v ulici Čajkovského","P31":"http://www.wikidata.org/entity/Q108325","P31^label:cs":"Kaple","P131^label:cs":"Praha","P6736":"25162"},"geometry":{"type":"Point","coordinates":[14.45325,50.08186]}},{"type":"Feature","properties":{"label:cs":"Památník Jaroslava Seiferta na rohu ulic Táboritská a Chelčického","P31":"http://www.wikidata.org/entity/Q5003624","P31^label:cs":"Památník","P131^label:cs":"Praha","P6736":"25160"},"geometry":{"type":"Point","coordinates":[14.45366,50.084]}},{"type":"Feature","properties":{"label:cs":"Pomník Ryszarda Siwiece v Siwiecově ulici na Žižkově","P31":"http://www.wikidata.org/entity/Q4989906","P31^label:cs":"Pomník","P131^label:cs":"Praha","P6736":"25001"},"geometry":{"type":"Point","coordinates":[14.44336,50.08345]}},{"type":"Feature","properties":{"label:cs":"Plastika v Rokycanově ulici v Praze","P31":"http://www.wikidata.org/entity/Q12045520","P31^label:cs":"Plastika","P131^label:cs":"Praha","P6736":"11441"},"geometry":{"type":"Point","coordinates":[14.45565,50.08464]}},{"type":"Feature","properties":{"label:cs":"Znak Československa na Vítkově v Praze","P31":"http://www.wikidata.org/entity/Q5003624","P31^label:cs":"Památník","P131^label:cs":"Praha","P6736":"10998"},"geometry":{"type":"Point","coordinates":[14.44907,50.08839]}},{"type":"Feature","properties":{"label:cs":"Bronzová vrata s reliéfy na Národním památníku na Vítkově v Praze","P31":"http://www.wikidata.org/entity/Q245117","P31^label:cs":"Reliéf","P131^label:cs":"Praha","P6736":"10997"},"geometry":{"type":"Point","coordinates":[14.44958,50.08844]}},{"type":"Feature","properties":{"label:cs":"Táborský památník na Vítkově v Praze","P31":"http://www.wikidata.org/entity/Q5003624","P31^label:cs":"Památník","P131^label:cs":"Praha","P6736":"10996"},"geometry":{"type":"Point","coordinates":[14.44811,50.08803]}},{"type":"Feature","properties":{"label:cs":"Tank T-34 u vojenského muzea u Vítkova v Praze","P31":"http://www.wikidata.org/entity/Q1516537","P31^label:cs":"Technická památka","P131^label:cs":"Praha","P6736":"10995"},"geometry":{"type":"Point","coordinates":[14.44483,50.08766]}},{"type":"Feature","properties":{"label:cs":"Jezdecká socha Jaroslava Haška na Prokopově náměstí v Praze","P31":"http://www.wikidata.org/entity/Q179700","P31^label:cs":"Socha","P131^label:cs":"Praha","P6736":"10994"},"geometry":{"type":"Point","coordinates":[14.45263,50.08651]}},{"type":"Feature","properties":{"label:cs":"Kašna u Národního památníků na Vítkově v Praze","P31":"http://www.wikidata.org/entity/Q12029081","P31^label:cs":"Kašna","P131^label:cs":"Praha","P6736":"10993"},"geometry":{"type":"Point","coordinates":[14.45129,50.08872]}},{"type":"Feature","properties":{"label:cs":"Socha Karla Havlíčka Borovského na Havlíčkově náměstí v Praze","P31":"http://www.wikidata.org/entity/Q179700","P31^label:cs":"Socha","P131^label:cs":"Praha","P6736":"10992"},"geometry":{"type":"Point","coordinates":[14.45426,50.08506]}},{"type":"Feature","properties":{"label:cs":"Socha Winstona Churchilla na náměstí Winstona Churchilla v Praze","P31":"http://www.wikidata.org/entity/Q179700","P31^label:cs":"Socha","P131^label:cs":"Praha","P6736":"9792"},"geometry":{"type":"Point","coordinates":[14.44119,50.08467]}},{"type":"Feature","properties":{"label:cs":"Národní památník na Vítkově - Žižkova socha","P31":"http://www.wikidata.org/entity/Q5003624","P31^label:cs":"Památník","P131^label:cs":"Praha","P6736":"8943"},"geometry":{"type":"Point","coordinates":[14.44923,50.0884]}}]}