{"type":"FeatureCollection","features":[{"type":"Feature","properties":{"label:cs":"Socha Otec s děvčátkem v areálu na Zálesí v Praze 4","P31":"http://www.wikidata.org/entity/Q179700","P31^label:cs":"Socha","P131^label:cs":"Praha","P6736":"36469"},"geometry":{"type":"Point","coordinates":[14.45279,50.03041]}},{"type":"Feature","properties":{"label:cs":"Pamětní deska Václavu Vokněrovi na plotu domu U Krčského nádraží 79/36 v Krči","P31":"http://www.wikidata.org/entity/Q721747","P31^label:cs":"Pamětní deska","P131^label:cs":"Praha","P6736":"32783"},"geometry":{"type":"Point","coordinates":[14.45191,50.03497]}},{"type":"Feature","properties":{"label:cs":"Pomníček popraveným ve Velkém háji v Krči","P31":"http://www.wikidata.org/entity/Q4989906","P31^label:cs":"Pomník","P131^label:cs":"Praha","P6736":"32782"},"geometry":{"type":"Point","coordinates":[14.44339,50.02671]}},{"type":"Feature","properties":{"label:cs":"Pamětní deska Antala Staška, Heleny Malířové a Ivana Olbrachta na domě U kola 173/4 v Krči","P31":"http://www.wikidata.org/entity/Q721747","P31^label:cs":"Pamětní deska","P131^label:cs":"Praha","P6736":"32780"},"geometry":{"type":"Point","coordinates":[14.45087,50.03173]}},{"type":"Feature","properties":{"label:cs":"Pomník obětem Květnového povstání v Zálesí","P31":"http://www.wikidata.org/entity/Q575759","P31^label:cs":"Pomník padlým","P131^label:cs":"Praha","P6736":"32779"},"geometry":{"type":"Point","coordinates":[14.44559,50.02661]}},{"type":"Feature","properties":{"label:cs":"Pomníček Václava Veverky nad lesním divadlem v Krči","P31":"http://www.wikidata.org/entity/Q4989906","P31^label:cs":"Pomník","P131^label:cs":"Praha","P6736":"32778"},"geometry":{"type":"Point","coordinates":[14.44295,50.02729]}},{"type":"Feature","properties":{"label:cs":"Pomník padlým v 1. světové válce v Krči","P31":"http://www.wikidata.org/entity/Q575759","P31^label:cs":"Pomník padlým","P131^label:cs":"Praha","P6736":"32777"},"geometry":{"type":"Point","coordinates":[14.44623,50.02964]}},{"type":"Feature","properties":{"label:cs":"Kaple svatého Václava v areálu Thomayerovy nemocnice v Praze","P31":"http://www.wikidata.org/entity/Q108325","P31^label:cs":"Kaple","P131^label:cs":"Praha","P6736":"32776"},"geometry":{"type":"Point","coordinates":[14.45647,50.03143]}},{"type":"Feature","properties":{"label:cs":"Pamětní deska Josefa Skřivana na restauraci U Labutě v Praze","P31":"http://www.wikidata.org/entity/Q721747","P31^label:cs":"Pamětní deska","P131^label:cs":"Praha","P6736":"32775"},"geometry":{"type":"Point","coordinates":[14.45601,50.03337]}},{"type":"Feature","properties":{"label:cs":"Pamětní deska obětem 2. světové války na pavilonu D Thomayerovy nemocnice v Praze","P31":"http://www.wikidata.org/entity/Q721747","P31^label:cs":"Pamětní deska","P131^label:cs":"Praha","P6736":"32773"},"geometry":{"type":"Point","coordinates":[14.45697,50.03013]}},{"type":"Feature","properties":{"label:cs":"Pamětní deska Bohumila Nováka na železničním mostě přes Sulickou ulici v Praze","P31":"http://www.wikidata.org/entity/Q721747","P31^label:cs":"Pamětní deska","P131^label:cs":"Praha","P6736":"30661"},"geometry":{"type":"Point","coordinates":[14.44381,50.03381]}},{"type":"Feature","properties":{"label:cs":"Kaple svaté Anny v Krči","P31":"http://www.wikidata.org/entity/Q108325","P31^label:cs":"Kaple","P131^label:cs":"Praha","P6736":"28651"},"geometry":{"type":"Point","coordinates":[14.44246,50.03557]}},{"type":"Feature","properties":{"label:cs":"Kašna před zámkem Krč v Praze","P31":"http://www.wikidata.org/entity/Q12029081","P31^label:cs":"Kašna","P131^label:cs":"Praha","P6736":"27763"},"geometry":{"type":"Point","coordinates":[14.44728,50.0353]}},{"type":"Feature","properties":{"label:cs":"Pamětní deska Hadačovi v ulici Pod Krčským lesem v Praze","P31":"http://www.wikidata.org/entity/Q721747","P31^label:cs":"Pamětní deska","P131^label:cs":"Praha","P6736":"9025"},"geometry":{"type":"Point","coordinates":[14.45796,50.02619]}}]}