{"type":"FeatureCollection","features":[{"type":"Feature","properties":{"label:cs":"Kříž západně od Předčic","P31":"http://www.wikidata.org/entity/Q2309609","P31^label:cs":"Pamětní kříž","P131^label:cs":"Týn nad Vltavou","P6736":"6364"},"geometry":{"type":"Point","coordinates":[14.45034,49.22023]}},{"type":"Feature","properties":{"label:cs":"Kaple v Předčicích","P31":"http://www.wikidata.org/entity/Q108325","P31^label:cs":"Kaple","P131^label:cs":"Týn nad Vltavou","P6736":"6363"},"geometry":{"type":"Point","coordinates":[14.45418,49.21955]}},{"type":"Feature","properties":{"label:cs":"Kříž nad Račinou","P31":"http://www.wikidata.org/entity/Q2309609","P31^label:cs":"Pamětní kříž","P131^label:cs":"Týn nad Vltavou","P6736":"2699"},"geometry":{"type":"Point","coordinates":[14.44259,49.22121]}},{"type":"Feature","properties":{"label:cs":"Boží muka u Předčic","P31":"http://www.wikidata.org/entity/Q3395121","P31^label:cs":"Boží muka","P131^label:cs":"Týn nad Vltavou","P6736":"2389"},"geometry":{"type":"Point","coordinates":[14.44887,49.22024]}},{"type":"Feature","properties":{"label:cs":"Kříž jižně od Předčic","P31":"http://www.wikidata.org/entity/Q2309609","P31^label:cs":"Pamětní kříž","P131^label:cs":"Týn nad Vltavou","P6736":"2388"},"geometry":{"type":"Point","coordinates":[14.45499,49.21774]}},{"type":"Feature","properties":{"label:cs":"Kříž východně od Předčic","P31":"http://www.wikidata.org/entity/Q2309609","P31^label:cs":"Pamětní kříž","P131^label:cs":"Týn nad Vltavou","P6736":"2387"},"geometry":{"type":"Point","coordinates":[14.45639,49.22147]}}]}