{"type":"FeatureCollection","features":[{"type":"Feature","properties":{"label:cs":"Skalní reliéf Sfinga u lesní cesty východně od Ješovic","P31":"http://www.wikidata.org/entity/Q245117","P31^label:cs":"Reliéf","P131^label:cs":"Liběchov","P6736":"29977"},"geometry":{"type":"Point","coordinates":[14.45135,50.43684]}},{"type":"Feature","properties":{"label:cs":"Skalní kaple svaté Maří Magdaleny u lesní cesty východně od Ješovic","P31":"http://www.wikidata.org/entity/Q108325","P31^label:cs":"Kaple","P131^label:cs":"Liběchov","P6736":"29979"},"geometry":{"type":"Point","coordinates":[14.45172,50.43054]}},{"type":"Feature","properties":{"label:cs":"Jeskyně Harfenice západně od Tupadel","P31":"http://www.wikidata.org/entity/?","P31^label:cs":"Něco jiného","P131^label:cs":"Tupadly","P6736":"11853"},"geometry":{"type":"Point","coordinates":[14.45302,50.43521]}},{"type":"Feature","properties":{"label:cs":"Skalní reliéf Had u lesní cesty severozápadně od Želíz","P31":"http://www.wikidata.org/entity/Q245117","P31^label:cs":"Reliéf","P131^label:cs":"Želízy","P6736":"29976"},"geometry":{"type":"Point","coordinates":[14.45085,50.43863]}},{"type":"Feature","properties":{"label:cs":"Skalní reliéfy u jeskyně Harfenice západně od Želíz","P31":"http://www.wikidata.org/entity/Q245117","P31^label:cs":"Reliéf","P131^label:cs":"Želízy","P6736":"29978"},"geometry":{"type":"Point","coordinates":[14.45262,50.43494]}}]}