{"type":"FeatureCollection","features":[{"type":"Feature","properties":{"label:cs":"Bludný kámen v Českých Budějovicích na náměstí Přemysla Otakara II","P31":"Q11734477","P31^label:cs":"Památný kámen","P131^label:cs":"České Budějovice","P6736":"9918"},"geometry":{"type":"Point","coordinates":[14.47451,48.97445]}},{"type":"Feature","properties":{"label:cs":"Památník Emy Destinové v Českých Budějovicích","P31":"Q5003624","P31^label:cs":"Památník","P131^label:cs":"České Budějovice","P6736":"9917"},"geometry":{"type":"Point","coordinates":[14.47513,48.97217]}},{"type":"Feature","properties":{"label:cs":"Kašna v Českých Budějovicích u ulice U Koněspřežky","P31":"Q12029081","P31^label:cs":"Kašna","P131^label:cs":"České Budějovice","P6736":"9916"},"geometry":{"type":"Point","coordinates":[14.47163,48.97158]}},{"type":"Feature","properties":{"label:cs":"Památník první evropské železnice v Českých Budějovicích","P31":"Q5003624","P31^label:cs":"Památník","P131^label:cs":"České Budějovice","P6736":"9915"},"geometry":{"type":"Point","coordinates":[14.47173,48.96834]}},{"type":"Feature","properties":{"label:cs":"Socha Panny Marie Budějovické v Českých Budějovicích u Malše","P31":"Q179700","P31^label:cs":"Socha","P131^label:cs":"České Budějovice","P6736":"9914"},"geometry":{"type":"Point","coordinates":[14.47479,48.9716]}},{"type":"Feature","properties":{"label:cs":"Plastika v Českých Budějovicích v ulici Dr. Stejskala","P31":"Q12045520","P31^label:cs":"Plastika","P131^label:cs":"České Budějovice","P6736":"9913"},"geometry":{"type":"Point","coordinates":[14.47482,48.97142]}},{"type":"Feature","properties":{"label:cs":"Socha svatého Jana Nepomuckého v Českých Budějovicích na Zátkově nábřeží","P31":"Q179700","P31^label:cs":"Socha","P131^label:cs":"České Budějovice","P6736":"9912"},"geometry":{"type":"Point","coordinates":[14.47338,48.97206]}},{"type":"Feature","properties":{"label:cs":"Kříž v Českých Budějovicích na Zátkově nábřeží","P31":"Q2309609","P31^label:cs":"Pamětní kříž","P131^label:cs":"České Budějovice","P6736":"9911"},"geometry":{"type":"Point","coordinates":[14.47392,48.97193]}},{"type":"Feature","properties":{"label:cs":"Socha šnečího muže na budově Jihočeské Filharmonie v Českých Budějovicích","P31":"Q179700","P31^label:cs":"Socha","P131^label:cs":"České Budějovice","P6736":"9903"},"geometry":{"type":"Point","coordinates":[14.47643,48.97397]}},{"type":"Feature","properties":{"label:cs":"Kašna v Českých Budějovicích východně od Kněžské ulice","P31":"Q12029081","P31^label:cs":"Kašna","P131^label:cs":"České Budějovice","P6736":"9902"},"geometry":{"type":"Point","coordinates":[14.47834,48.97594]}},{"type":"Feature","properties":{"label:cs":"Socha v Českých Budějovicích u Kněžské ulice","P31":"Q179700","P31^label:cs":"Socha","P131^label:cs":"České Budějovice","P6736":"9901"},"geometry":{"type":"Point","coordinates":[14.47695,48.97676]}},{"type":"Feature","properties":{"label:cs":"Kašna v Českých Budějovicích u Kněžské ulice","P31":"Q12029081","P31^label:cs":"Kašna","P131^label:cs":"České Budějovice","P6736":"9900"},"geometry":{"type":"Point","coordinates":[14.47722,48.97701]}},{"type":"Feature","properties":{"label:cs":"Památník v Českých Budějovicích Na Mlýnské stoce","P31":"Q5003624","P31^label:cs":"Památník","P131^label:cs":"České Budějovice","P6736":"9899"},"geometry":{"type":"Point","coordinates":[14.47486,48.97777]}},{"type":"Feature","properties":{"label:cs":"Mariánský sloup v Českých Budějovicích","P31":"Q179700","P31^label:cs":"Socha","P131^label:cs":"České Budějovice","P6736":"9898"},"geometry":{"type":"Point","coordinates":[14.47484,48.97844]}},{"type":"Feature","properties":{"label:cs":"Ukazatel směru v Českých Budějovicích u Krajinské ulice","P31":"Q5003624","P31^label:cs":"Památník","P131^label:cs":"České Budějovice","P6736":"9897"},"geometry":{"type":"Point","coordinates":[14.4743,48.97822]}},{"type":"Feature","properties":{"label:cs":"Kašna v Českých Budějovicích u Krajinské ulici","P31":"Q12029081","P31^label:cs":"Kašna","P131^label:cs":"České Budějovice","P6736":"9896"},"geometry":{"type":"Point","coordinates":[14.47368,48.97825]}},{"type":"Feature","properties":{"label:cs":"Socha svatého Jana Nepomuckého v Českých Budějovicích u Mlýnské stoky","P31":"Q179700","P31^label:cs":"Socha","P131^label:cs":"České Budějovice","P6736":"9895"},"geometry":{"type":"Point","coordinates":[14.47182,48.97789]}},{"type":"Feature","properties":{"label:cs":"Pomník v Českých Budějovicích u Husovy třídy","P31":"Q4989906","P31^label:cs":"Pomník","P131^label:cs":"České Budějovice","P6736":"9894"},"geometry":{"type":"Point","coordinates":[14.46367,48.97813]}},{"type":"Feature","properties":{"label:cs":"Kaple v Českých Budějovicích u Husovy třídy","P31":"Q108325","P31^label:cs":"Kaple","P131^label:cs":"České Budějovice","P6736":"9892"},"geometry":{"type":"Point","coordinates":[14.45803,48.97865]}},{"type":"Feature","properties":{"label:cs":"Socha Vojtěcha Adalberta Lanny v Českých Budějovicích","P31":"Q179700","P31^label:cs":"Socha","P131^label:cs":"České Budějovice","P6736":"9806"},"geometry":{"type":"Point","coordinates":[14.47853,48.97494]}},{"type":"Feature","properties":{"label:cs":"Meteorologický sloup na Senovážném náměstí","P31":"Q4817","P31^label:cs":"Sloup","P131^label:cs":"České Budějovice","P6736":"9805"},"geometry":{"type":"Point","coordinates":[14.47811,48.97347]}},{"type":"Feature","properties":{"label:cs":"Socha svatého Jana Nepomuckého v Jirsíkově ulici v Českých Budějovicích","P31":"Q179700","P31^label:cs":"Socha","P131^label:cs":"České Budějovice","P6736":"9804"},"geometry":{"type":"Point","coordinates":[14.47744,48.97338]}},{"type":"Feature","properties":{"label:cs":"Plastika II na Senovážném náměstí","P31":"Q12045520","P31^label:cs":"Plastika","P131^label:cs":"České Budějovice","P6736":"9803"},"geometry":{"type":"Point","coordinates":[14.47795,48.97307]}},{"type":"Feature","properties":{"label:cs":"Plastika I na Senovážném náměstí","P31":"Q12045520","P31^label:cs":"Plastika","P131^label:cs":"České Budějovice","P6736":"9802"},"geometry":{"type":"Point","coordinates":[14.47793,48.97277]}},{"type":"Feature","properties":{"label:cs":"Socha za finančním úřadem v Českých Budějovicích","P31":"Q179700","P31^label:cs":"Socha","P131^label:cs":"České Budějovice","P6736":"9801"},"geometry":{"type":"Point","coordinates":[14.47624,48.9699]}},{"type":"Feature","properties":{"label:cs":"Pomník obětem fašismu u Lidické třídy v Českých Budějovicích","P31":"Q575759","P31^label:cs":"Pomník padlým","P131^label:cs":"České Budějovice","P6736":"9800"},"geometry":{"type":"Point","coordinates":[14.47574,48.97001]}},{"type":"Feature","properties":{"label:cs":"Socha před budovou Finančního úřadu v Českých Budějovicích","P31":"Q179700","P31^label:cs":"Socha","P131^label:cs":"České Budějovice","P6736":"9799"},"geometry":{"type":"Point","coordinates":[14.47546,48.96941]}},{"type":"Feature","properties":{"label:cs":"Boží muka u Piaristického náměstí v Českých Budějovicích","P31":"Q3395121","P31^label:cs":"Boží muka","P131^label:cs":"České Budějovice","P6736":"9798"},"geometry":{"type":"Point","coordinates":[14.47236,48.97554]}},{"type":"Feature","properties":{"label:cs":"Sousoší Kalvárie u Piaristického náměstí v Českých Budějovicích","P31":"Q179700","P31^label:cs":"Socha","P131^label:cs":"České Budějovice","P6736":"9797"},"geometry":{"type":"Point","coordinates":[14.47237,48.97559]}},{"type":"Feature","properties":{"label:cs":"Socha Jana Valeria Jirsíka v Českých Budějovicích","P31":"Q179700","P31^label:cs":"Socha","P131^label:cs":"České Budějovice","P6736":"9796"},"geometry":{"type":"Point","coordinates":[14.4756,48.97543]}},{"type":"Feature","properties":{"label:cs":"Kašna na Náměstí Přemysla Otakara II v Českých Budějovicích","P31":"Q12029081","P31^label:cs":"Kašna","P131^label:cs":"České Budějovice","P6736":"9795"},"geometry":{"type":"Point","coordinates":[14.47432,48.97455]}},{"type":"Feature","properties":{"label:cs":"Fontána v Kanovnické ulici v Českých Budějovicích","P31":"Q12029081","P31^label:cs":"Kašna","P131^label:cs":"České Budějovice","P6736":"9794"},"geometry":{"type":"Point","coordinates":[14.47572,48.97512]}},{"type":"Feature","properties":{"label:cs":"Sousoší Humanoidi na Lanově třídě v Českých Budějovicích","P31":"Q179700","P31^label:cs":"Socha","P131^label:cs":"České Budějovice","P6736":"9793"},"geometry":{"type":"Point","coordinates":[14.47905,48.97446]}}]}