{"type":"FeatureCollection","features":[{"type":"Feature","properties":{"label:cs":"Pamětní deska ilegální skupiny Julia Fučíka na plotu domu Benešovská 1863/23 na Vinohradech","P31":"http://www.wikidata.org/entity/Q721747","P31^label:cs":"Pamětní deska","P131^label:cs":"Praha","P6736":"41044"},"geometry":{"type":"Point","coordinates":[14.46561,50.07451]}},{"type":"Feature","properties":{"label:cs":"Pamětní deska bratří Čapků na domě Bratří Čapků 1853/28 na Vinohradech","P31":"http://www.wikidata.org/entity/Q721747","P31^label:cs":"Pamětní deska","P131^label:cs":"Praha","P6736":"41025"},"geometry":{"type":"Point","coordinates":[14.46723,50.07496]}},{"type":"Feature","properties":{"label:cs":"Pamětní deska neznámému hrdinovi na plotu domu Vlašimská 1865/10 na Vinohradech","P31":"http://www.wikidata.org/entity/Q721747","P31^label:cs":"Pamětní deska","P131^label:cs":"Praha","P6736":"41024"},"geometry":{"type":"Point","coordinates":[14.46432,50.07452]}},{"type":"Feature","properties":{"label:cs":"Pamětní deska Františka Klečka na plotu domu Vlašimská 1847/12 na Vinohradech","P31":"http://www.wikidata.org/entity/Q721747","P31^label:cs":"Pamětní deska","P131^label:cs":"Praha","P6736":"41023"},"geometry":{"type":"Point","coordinates":[14.46515,50.07496]}},{"type":"Feature","properties":{"label:cs":"Pamětní deska Jana Dvořáka na plotu domu Vlašimská 1846/14 na Vinohradech","P31":"http://www.wikidata.org/entity/Q721747","P31^label:cs":"Pamětní deska","P131^label:cs":"Praha","P6736":"41022"},"geometry":{"type":"Point","coordinates":[14.46549,50.07532]}},{"type":"Feature","properties":{"label:cs":"Pamětní deska Dominika Tatarky na náměstí Jiřího z Lobkovic 2288/20 na Vinohradech","P31":"http://www.wikidata.org/entity/Q721747","P31^label:cs":"Pamětní deska","P131^label:cs":"Praha","P6736":"41021"},"geometry":{"type":"Point","coordinates":[14.46808,50.07634]}},{"type":"Feature","properties":{"label:cs":"Pamětní deska Jaroslava Dudka na domě Kouřimská 2368/4 na Vinohradech","P31":"http://www.wikidata.org/entity/Q721747","P31^label:cs":"Pamětní deska","P131^label:cs":"Praha","P6736":"41020"},"geometry":{"type":"Point","coordinates":[14.46836,50.07721]}},{"type":"Feature","properties":{"label:cs":"Pamětní deska Radovana Lukavského na domě Kouřimská 2347/24 na Vinohradech","P31":"http://www.wikidata.org/entity/Q721747","P31^label:cs":"Pamětní deska","P131^label:cs":"Praha","P6736":"41019"},"geometry":{"type":"Point","coordinates":[14.471,50.0771]}},{"type":"Feature","properties":{"label:cs":"Pamětní deska Františka Halase na domě Kouřimská 2352/14 na Vinohradech","P31":"http://www.wikidata.org/entity/Q721747","P31^label:cs":"Pamětní deska","P131^label:cs":"Praha","P6736":"41018"},"geometry":{"type":"Point","coordinates":[14.46981,50.07735]}},{"type":"Feature","properties":{"label:cs":"Pamětní deska Otakara Zicha na domě Šrobárova 1838/36 na Vinohradech","P31":"http://www.wikidata.org/entity/Q721747","P31^label:cs":"Pamětní deska","P131^label:cs":"Praha","P6736":"41017"},"geometry":{"type":"Point","coordinates":[14.46751,50.07579]}},{"type":"Feature","properties":{"label:cs":"Pamětní deska Josefa Růžičky a Františka Gajdzici na domě Slezská 482/125 na Vinohradech","P31":"http://www.wikidata.org/entity/Q721747","P31^label:cs":"Pamětní deska","P131^label:cs":"Praha","P6736":"41016"},"geometry":{"type":"Point","coordinates":[14.46541,50.07714]}},{"type":"Feature","properties":{"label:cs":"Pamětní deska Jiřího Plachého na domě Chrudimská 2158/5 na Vinohradech","P31":"http://www.wikidata.org/entity/Q721747","P31^label:cs":"Pamětní deska","P131^label:cs":"Praha","P6736":"41015"},"geometry":{"type":"Point","coordinates":[14.46208,50.07748]}},{"type":"Feature","properties":{"label:cs":"Pamětní trolejbusová zastávka Orionka na Vinohradech","P31":"http://www.wikidata.org/entity/Q1516537","P31^label:cs":"Technická památka","P131^label:cs":"Praha","P6736":"40994"},"geometry":{"type":"Point","coordinates":[14.45962,50.07537]}},{"type":"Feature","properties":{"label:cs":"Pamětní deska Vlastimila Brodského na domě Jičínská 2285/4 na Vinohradech","P31":"http://www.wikidata.org/entity/Q721747","P31^label:cs":"Pamětní deska","P131^label:cs":"Praha","P6736":"40993"},"geometry":{"type":"Point","coordinates":[14.46128,50.07721]}},{"type":"Feature","properties":{"label:cs":"Pamětní deska Václava Hollara na Hollarově náměstí v Praze","P31":"http://www.wikidata.org/entity/Q721747","P31^label:cs":"Pamětní deska","P131^label:cs":"Praha","P6736":"30887"},"geometry":{"type":"Point","coordinates":[14.47799,50.07712]}},{"type":"Feature","properties":{"label:cs":"Socha Únos Evropy ve Vinohradské nemocnici v Praze","P31":"http://www.wikidata.org/entity/Q179700","P31^label:cs":"Socha","P131^label:cs":"Praha","P6736":"30858"},"geometry":{"type":"Point","coordinates":[14.47496,50.07616]}},{"type":"Feature","properties":{"label:cs":"Socha kůzlete ve Vinohradské nemocnici v Praze","P31":"http://www.wikidata.org/entity/Q179700","P31^label:cs":"Socha","P131^label:cs":"Praha","P6736":"30857"},"geometry":{"type":"Point","coordinates":[14.47645,50.07516]}},{"type":"Feature","properties":{"label:cs":"Plastika Oratorium ve Vinohradské nemocnici v Praze","P31":"http://www.wikidata.org/entity/Q12045520","P31^label:cs":"Plastika","P131^label:cs":"Praha","P6736":"30856"},"geometry":{"type":"Point","coordinates":[14.47667,50.07486]}},{"type":"Feature","properties":{"label:cs":"Socha Chvíle radosti ve Vinohradské nemocnici v Praze","P31":"http://www.wikidata.org/entity/Q179700","P31^label:cs":"Socha","P131^label:cs":"Praha","P6736":"30854"},"geometry":{"type":"Point","coordinates":[14.47717,50.07502]}},{"type":"Feature","properties":{"label:cs":"Socha Zmrzlinové snění ve Vinohradské nemocnici v Praze","P31":"http://www.wikidata.org/entity/Q179700","P31^label:cs":"Socha","P131^label:cs":"Praha","P6736":"30853"},"geometry":{"type":"Point","coordinates":[14.47696,50.07522]}},{"type":"Feature","properties":{"label:cs":"Socha Stydlivá ve Vinohradské nemocnici v Praze","P31":"http://www.wikidata.org/entity/Q179700","P31^label:cs":"Socha","P131^label:cs":"Praha","P6736":"30851"},"geometry":{"type":"Point","coordinates":[14.4769,50.07583]}},{"type":"Feature","properties":{"label:cs":"Velký kříž na Vinohradském hřbitově v Praze","P31":"http://www.wikidata.org/entity/Q2309609","P31^label:cs":"Pamětní kříž","P131^label:cs":"Praha","P6736":"11439"},"geometry":{"type":"Point","coordinates":[14.47993,50.07699]}},{"type":"Feature","properties":{"label:cs":"Pamětní deska Emilu Horčíkovi na domě Kubánské náměstí 1272/4 ve Vršovicích","P31":"http://www.wikidata.org/entity/Q721747","P31^label:cs":"Pamětní deska","P131^label:cs":"Praha","P6736":"42322"},"geometry":{"type":"Point","coordinates":[14.47772,50.07152]}},{"type":"Feature","properties":{"label:cs":"Pamětní deska Jiřího Horáčka na zdi továrny Koh-i-noor ve Vršovicích","P31":"http://www.wikidata.org/entity/Q721747","P31^label:cs":"Pamětní deska","P131^label:cs":"Praha","P6736":"41070"},"geometry":{"type":"Point","coordinates":[14.46338,50.06868]}},{"type":"Feature","properties":{"label:cs":"Pamětní deska obětem 2. světové války na kostele svatého Václava ve Vršovicích","P31":"http://www.wikidata.org/entity/Q721747","P31^label:cs":"Pamětní deska","P131^label:cs":"Praha","P6736":"41069"},"geometry":{"type":"Point","coordinates":[14.45948,50.06897]}},{"type":"Feature","properties":{"label:cs":"Pamětní deska Josefa Byliny, Miloše Ptáčka a Zdeňka Svobody na domě Kodaňská 850/87 ve Vršovicích","P31":"http://www.wikidata.org/entity/Q721747","P31^label:cs":"Pamětní deska","P131^label:cs":"Praha","P6736":"41068"},"geometry":{"type":"Point","coordinates":[14.46429,50.07006]}},{"type":"Feature","properties":{"label:cs":"Pomníček neznámým obětem Pražského povstání u domu Novorosijská 978/20 ve Vršovicích","P31":"http://www.wikidata.org/entity/Q4989906","P31^label:cs":"Pomník","P131^label:cs":"Praha","P6736":"41067"},"geometry":{"type":"Point","coordinates":[14.46915,50.07163]}},{"type":"Feature","properties":{"label:cs":"Pomníček obětem Pražského povstání u domu 28. pluku 1228/24 ve Vršovicích","P31":"http://www.wikidata.org/entity/Q4989906","P31^label:cs":"Pomník","P131^label:cs":"Praha","P6736":"41066"},"geometry":{"type":"Point","coordinates":[14.46474,50.07103]}},{"type":"Feature","properties":{"label:cs":"Pamětní deska Václava Dostála na domě 28. pluku 1029/54 ve Vršovicích","P31":"http://www.wikidata.org/entity/Q721747","P31^label:cs":"Pamětní deska","P131^label:cs":"Praha","P6736":"41065"},"geometry":{"type":"Point","coordinates":[14.46981,50.07178]}},{"type":"Feature","properties":{"label:cs":"Pamětní deska Jiřího Peška na domě 28. pluku 539/19 ve Vršovicích","P31":"http://www.wikidata.org/entity/Q721747","P31^label:cs":"Pamětní deska","P131^label:cs":"Praha","P6736":"41064"},"geometry":{"type":"Point","coordinates":[14.46268,50.07107]}},{"type":"Feature","properties":{"label:cs":"Pamětní deska Aloise Krameše na domě 28. pluku 128/12 ve Vršovicích","P31":"http://www.wikidata.org/entity/Q721747","P31^label:cs":"Pamětní deska","P131^label:cs":"Praha","P6736":"41063"},"geometry":{"type":"Point","coordinates":[14.46279,50.07078]}},{"type":"Feature","properties":{"label:cs":"Pamětní deska Luboše Prkna na domě 28. pluku 484/15 ve Vršovicích","P31":"http://www.wikidata.org/entity/Q721747","P31^label:cs":"Pamětní deska","P131^label:cs":"Praha","P6736":"41062"},"geometry":{"type":"Point","coordinates":[14.46223,50.07102]}},{"type":"Feature","properties":{"label:cs":"Pamětní deska Jiřího Frankenbergera na domě 28. pluku 814/8 ve Vršovicích","P31":"http://www.wikidata.org/entity/Q721747","P31^label:cs":"Pamětní deska","P131^label:cs":"Praha","P6736":"41053"},"geometry":{"type":"Point","coordinates":[14.46223,50.07071]}},{"type":"Feature","properties":{"label:cs":"Pamětní deska obětem Pražského povstání na nároží ulic Kodaňská a Tolstého ve Vršovicích","P31":"http://www.wikidata.org/entity/Q721747","P31^label:cs":"Pamětní deska","P131^label:cs":"Praha","P6736":"41052"},"geometry":{"type":"Point","coordinates":[14.46036,50.07049]}},{"type":"Feature","properties":{"label:cs":"Pamětní deska Karla Poláčka na domě Bělocerkevská 1024/40 ve Vršovicích","P31":"http://www.wikidata.org/entity/Q721747","P31^label:cs":"Pamětní deska","P131^label:cs":"Praha","P6736":"41047"},"geometry":{"type":"Point","coordinates":[14.47054,50.0733]}},{"type":"Feature","properties":{"label:cs":"Pamětní deska Karla Fesla na plotě domu Ruská 818/114 ve Vršovicích","P31":"http://www.wikidata.org/entity/Q721747","P31^label:cs":"Pamětní deska","P131^label:cs":"Praha","P6736":"41046"},"geometry":{"type":"Point","coordinates":[14.46943,50.07325]}},{"type":"Feature","properties":{"label:cs":"Pomník obětem Pražského povstání u domu U Roháčových kasáren 973/25 ve Vršovicích","P31":"http://www.wikidata.org/entity/Q4989906","P31^label:cs":"Pomník","P131^label:cs":"Praha","P6736":"41045"},"geometry":{"type":"Point","coordinates":[14.46559,50.07296]}},{"type":"Feature","properties":{"label:cs":"Sousoší Matka s dětmi v Taškentské ulici","P31":"http://www.wikidata.org/entity/Q179700","P31^label:cs":"Socha","P131^label:cs":"Praha","P6736":"23811"},"geometry":{"type":"Point","coordinates":[14.46347,50.0671]}},{"type":"Feature","properties":{"label:cs":"Socha Akrobatka v Turkmenské ulici","P31":"http://www.wikidata.org/entity/Q179700","P31^label:cs":"Socha","P131^label:cs":"Praha","P6736":"23810"},"geometry":{"type":"Point","coordinates":[14.46439,50.06731]}},{"type":"Feature","properties":{"label:cs":"Socha Chlapec s modelem letadla v Tádžické ulici","P31":"http://www.wikidata.org/entity/Q179700","P31^label:cs":"Socha","P131^label:cs":"Praha","P6736":"23809"},"geometry":{"type":"Point","coordinates":[14.46524,50.06747]}},{"type":"Feature","properties":{"label:cs":"Socha Mladí milenci v Kazašské ulici","P31":"http://www.wikidata.org/entity/Q179700","P31^label:cs":"Socha","P131^label:cs":"Praha","P6736":"23808"},"geometry":{"type":"Point","coordinates":[14.46607,50.06765]}},{"type":"Feature","properties":{"label:cs":"Kamenná plastika u budovy bývalého Chemapolu v Kodaňské ulici","P31":"http://www.wikidata.org/entity/Q12045520","P31^label:cs":"Plastika","P131^label:cs":"Praha","P6736":"23807"},"geometry":{"type":"Point","coordinates":[14.46347,50.06976]}},{"type":"Feature","properties":{"label:cs":"Kašna na Kubánském náměstí","P31":"http://www.wikidata.org/entity/Q12029081","P31^label:cs":"Kašna","P131^label:cs":"Praha","P6736":"23806"},"geometry":{"type":"Point","coordinates":[14.47851,50.07124]}}]}