{"type":"FeatureCollection","features":[{"type":"Feature","properties":{"label:cs":"Velký kříž na Vinohradském hřbitově v Praze","P31":"http://www.wikidata.org/entity/Q2309609","P31^label:cs":"Pamětní kříž","P131^label:cs":"Praha","P6736":"11439"},"geometry":{"type":"Point","coordinates":[14.47993,50.07699]}},{"type":"Feature","properties":{"label:cs":"Kašna na Kubánském náměstí","P31":"http://www.wikidata.org/entity/Q12029081","P31^label:cs":"Kašna","P131^label:cs":"Praha","P6736":"23806"},"geometry":{"type":"Point","coordinates":[14.47851,50.07124]}},{"type":"Feature","properties":{"label:cs":"Kamenná plastika u budovy bývalého Chemapolu v Kodaňské ulici","P31":"http://www.wikidata.org/entity/Q12045520","P31^label:cs":"Plastika","P131^label:cs":"Praha","P6736":"23807"},"geometry":{"type":"Point","coordinates":[14.46347,50.06976]}},{"type":"Feature","properties":{"label:cs":"Socha Mladí milenci v Kazašské ulici","P31":"http://www.wikidata.org/entity/Q179700","P31^label:cs":"Socha","P131^label:cs":"Praha","P6736":"23808"},"geometry":{"type":"Point","coordinates":[14.46607,50.06765]}},{"type":"Feature","properties":{"label:cs":"Socha Chlapec s modelem letadla v Tádžické ulici","P31":"http://www.wikidata.org/entity/Q179700","P31^label:cs":"Socha","P131^label:cs":"Praha","P6736":"23809"},"geometry":{"type":"Point","coordinates":[14.46524,50.06747]}},{"type":"Feature","properties":{"label:cs":"Socha Akrobatka v Turkmenské ulici","P31":"http://www.wikidata.org/entity/Q179700","P31^label:cs":"Socha","P131^label:cs":"Praha","P6736":"23810"},"geometry":{"type":"Point","coordinates":[14.46439,50.06731]}},{"type":"Feature","properties":{"label:cs":"Sousoší Matka s dětmi v Taškentské ulici","P31":"http://www.wikidata.org/entity/Q179700","P31^label:cs":"Socha","P131^label:cs":"Praha","P6736":"23811"},"geometry":{"type":"Point","coordinates":[14.46347,50.0671]}},{"type":"Feature","properties":{"label:cs":"Socha svatého Václava na průčelí kostela na náměstí Svatopluka Čecha","P31":"http://www.wikidata.org/entity/Q179700","P31^label:cs":"Socha","P131^label:cs":"Praha","P6736":"23812"},"geometry":{"type":"Point","coordinates":[14.45929,50.06899]}},{"type":"Feature","properties":{"label:cs":"Socha Stydlivá ve Vinohradské nemocnici v Praze","P31":"http://www.wikidata.org/entity/Q179700","P31^label:cs":"Socha","P131^label:cs":"Praha","P6736":"30851"},"geometry":{"type":"Point","coordinates":[14.4769,50.07583]}},{"type":"Feature","properties":{"label:cs":"Socha Zmrzlinové snění ve Vinohradské nemocnici v Praze","P31":"http://www.wikidata.org/entity/Q179700","P31^label:cs":"Socha","P131^label:cs":"Praha","P6736":"30853"},"geometry":{"type":"Point","coordinates":[14.47696,50.07522]}},{"type":"Feature","properties":{"label:cs":"Socha Chvíle radosti ve Vinohradské nemocnici v Praze","P31":"http://www.wikidata.org/entity/Q179700","P31^label:cs":"Socha","P131^label:cs":"Praha","P6736":"30854"},"geometry":{"type":"Point","coordinates":[14.47717,50.07502]}},{"type":"Feature","properties":{"label:cs":"Plastika Oratorium ve Vinohradské nemocnici v Praze","P31":"http://www.wikidata.org/entity/Q12045520","P31^label:cs":"Plastika","P131^label:cs":"Praha","P6736":"30856"},"geometry":{"type":"Point","coordinates":[14.47667,50.07486]}},{"type":"Feature","properties":{"label:cs":"Socha kůzlete ve Vinohradské nemocnici v Praze","P31":"http://www.wikidata.org/entity/Q179700","P31^label:cs":"Socha","P131^label:cs":"Praha","P6736":"30857"},"geometry":{"type":"Point","coordinates":[14.47645,50.07516]}},{"type":"Feature","properties":{"label:cs":"Socha Únos Evropy ve Vinohradské nemocnici v Praze","P31":"http://www.wikidata.org/entity/Q179700","P31^label:cs":"Socha","P131^label:cs":"Praha","P6736":"30858"},"geometry":{"type":"Point","coordinates":[14.47496,50.07616]}},{"type":"Feature","properties":{"label:cs":"Pamětní deska Václava Hollara na Hollarově náměstí v Praze","P31":"http://www.wikidata.org/entity/Q721747","P31^label:cs":"Pamětní deska","P131^label:cs":"Praha","P6736":"30887"},"geometry":{"type":"Point","coordinates":[14.47799,50.07712]}}]}