{"type":"FeatureCollection","features":[{"type":"Feature","properties":{"label:cs":"Pomník padlým v 1.světové válce v Hoříně","P31":"Pomník padlým","P31^label:cs":"Pomník padlým","P131^label:cs":"Hořín","P6736":"22686"},"geometry":{"type":"Point","coordinates":[14.46251,50.34497]}},{"type":"Feature","properties":{"label:cs":"Socha svaté Anny u školy v Hoříně","P31":"Socha","P31^label:cs":"Socha","P131^label:cs":"Hořín","P6736":"22685"},"geometry":{"type":"Point","coordinates":[14.46389,50.34542]}},{"type":"Feature","properties":{"label:cs":"Trojstranná kaplička na rozcestí v centru Hořína","P31":"Kaplička","P31^label:cs":"Kaplička","P131^label:cs":"Hořín","P6736":"22684"},"geometry":{"type":"Point","coordinates":[14.46489,50.34386]}},{"type":"Feature","properties":{"label:cs":"Hřbitovní kaple v Hoříně","P31":"Kaple","P31^label:cs":"Kaple","P131^label:cs":"Hořín","P6736":"22683"},"geometry":{"type":"Point","coordinates":[14.46299,50.34322]}},{"type":"Feature","properties":{"label:cs":"Kaplička na rozcestí v jižní části Hořína","P31":"Kaplička","P31^label:cs":"Kaplička","P131^label:cs":"Hořín","P6736":"22682"},"geometry":{"type":"Point","coordinates":[14.4646,50.34239]}},{"type":"Feature","properties":{"label:cs":"Kříž na rozcestí v jižní části Hořína","P31":"Pamětní kříž","P31^label:cs":"Pamětní kříž","P131^label:cs":"Hořín","P6736":"22681"},"geometry":{"type":"Point","coordinates":[14.46396,50.3412]}}]}