{"type":"FeatureCollection","features":[{"type":"Feature","properties":{"label:cs":"Sousoší Kalvárie v Kunraticích","P31":"http://www.wikidata.org/entity/Q179700","P31^label:cs":"Socha","P131^label:cs":"Praha","P6736":"14223"},"geometry":{"type":"Point","coordinates":[14.47565,50.01192]}},{"type":"Feature","properties":{"label:cs":"Pomník Václava Šebka v Kunraticích","P31":"http://www.wikidata.org/entity/Q4989906","P31^label:cs":"Pomník","P131^label:cs":"Praha","P6736":"30480"},"geometry":{"type":"Point","coordinates":[14.47821,50.01263]}},{"type":"Feature","properties":{"label:cs":"Památník osvobození u Zelených domků","P31":"http://www.wikidata.org/entity/Q5003624","P31^label:cs":"Památník","P131^label:cs":"Praha","P6736":"30481"},"geometry":{"type":"Point","coordinates":[14.46887,50.01661]}},{"type":"Feature","properties":{"label:cs":"Pomník Karla Roda a Jindřicha Freivalda u Zelených domků v Krči","P31":"http://www.wikidata.org/entity/Q4989906","P31^label:cs":"Pomník","P131^label:cs":"Praha","P6736":"30482"},"geometry":{"type":"Point","coordinates":[14.46824,50.01724]}},{"type":"Feature","properties":{"label:cs":"Pomník padlým v Pražském povstání před areálem výzkumných ústavů v Krči","P31":"http://www.wikidata.org/entity/Q575759","P31^label:cs":"Pomník padlým","P131^label:cs":"Praha","P6736":"30483"},"geometry":{"type":"Point","coordinates":[14.46646,50.01796]}}]}