{"type":"FeatureCollection","features":[{"type":"Feature","properties":{"label:cs":"Kříž na rozcestí poblíž domu 23 v Horní Chřibské","P31":"http://www.wikidata.org/entity/Q2309609","P31^label:cs":"Pamětní kříž","P131^label:cs":"Chřibská","P6736":"29477"},"geometry":{"type":"Point","coordinates":[14.49997,50.8525]}},{"type":"Feature","properties":{"label:cs":"Kaple na hřbitově v Horní Chřibské","P31":"http://www.wikidata.org/entity/Q108325","P31^label:cs":"Kaple","P131^label:cs":"Chřibská","P6736":"29478"},"geometry":{"type":"Point","coordinates":[14.49594,50.8535]}},{"type":"Feature","properties":{"label:cs":"Kaplička naproti domu 262 v Chřibské","P31":"http://www.wikidata.org/entity/Q14552192","P31^label:cs":"Kaplička","P131^label:cs":"Chřibská","P6736":"29479"},"geometry":{"type":"Point","coordinates":[14.48374,50.85935]}},{"type":"Feature","properties":{"label:cs":"Pomník obětem pochodu smrti 24. 4. 1945 na hřbitově v Horní Chřibské","P31":"http://www.wikidata.org/entity/Q4989906","P31^label:cs":"Pomník","P131^label:cs":"Chřibská","P6736":"29492"},"geometry":{"type":"Point","coordinates":[14.49613,50.85321]}},{"type":"Feature","properties":{"label:cs":"Centrální kříž na hřbitově v Horní Chřibské","P31":"http://www.wikidata.org/entity/Q2309609","P31^label:cs":"Pamětní kříž","P131^label:cs":"Chřibská","P6736":"29493"},"geometry":{"type":"Point","coordinates":[14.49563,50.85365]}},{"type":"Feature","properties":{"label:cs":"Rozvalený podstavec ulomeného kříže u polní cesty na severním okraji Chřibské","P31":"http://www.wikidata.org/entity/Q2309609","P31^label:cs":"Pamětní kříž","P131^label:cs":"Chřibská","P6736":"29494"},"geometry":{"type":"Point","coordinates":[14.49284,50.85782]}}]}