{"type":"FeatureCollection","features":[{"type":"Feature","properties":{"label:cs":"Kaplička Křížové cesty-XIV u kostela ve Starých Křečanech","P31":"http://www.wikidata.org/entity/Q14552192","P31^label:cs":"Kaplička","P131^label:cs":"Staré Křečany","P6736":"37718"},"geometry":{"type":"Point","coordinates":[14.49776,50.95068]}},{"type":"Feature","properties":{"label:cs":"Kaplička Křížové cesty-XIII u kostela ve Starých Křečanech","P31":"http://www.wikidata.org/entity/Q14552192","P31^label:cs":"Kaplička","P131^label:cs":"Staré Křečany","P6736":"37717"},"geometry":{"type":"Point","coordinates":[14.49761,50.95063]}},{"type":"Feature","properties":{"label:cs":"Kaplička Křížové cesty-XII u kostela ve Starých Křečanech","P31":"http://www.wikidata.org/entity/Q14552192","P31^label:cs":"Kaplička","P131^label:cs":"Staré Křečany","P6736":"37716"},"geometry":{"type":"Point","coordinates":[14.49757,50.9505]}},{"type":"Feature","properties":{"label:cs":"Kaplička Křížové cesty-XI u kostela ve Starých Křečanech","P31":"http://www.wikidata.org/entity/Q14552192","P31^label:cs":"Kaplička","P131^label:cs":"Staré Křečany","P6736":"37715"},"geometry":{"type":"Point","coordinates":[14.49777,50.9503]}},{"type":"Feature","properties":{"label:cs":"Kaplička Křížové cesty-X u kostela ve Starých Křečanech","P31":"http://www.wikidata.org/entity/Q14552192","P31^label:cs":"Kaplička","P131^label:cs":"Staré Křečany","P6736":"37714"},"geometry":{"type":"Point","coordinates":[14.49786,50.9502]}},{"type":"Feature","properties":{"label:cs":"Kaplička Křížové cesty-IX u kostela ve Starých Křečanech","P31":"http://www.wikidata.org/entity/Q14552192","P31^label:cs":"Kaplička","P131^label:cs":"Staré Křečany","P6736":"37713"},"geometry":{"type":"Point","coordinates":[14.49799,50.95005]}},{"type":"Feature","properties":{"label:cs":"Kaplička Křížové cesty-VIII u kostela ve Starých Křečanech","P31":"http://www.wikidata.org/entity/Q14552192","P31^label:cs":"Kaplička","P131^label:cs":"Staré Křečany","P6736":"37712"},"geometry":{"type":"Point","coordinates":[14.49826,50.95]}},{"type":"Feature","properties":{"label:cs":"Kaplička Křížové cesty-VII u kostela ve Starých Křečanech","P31":"http://www.wikidata.org/entity/Q14552192","P31^label:cs":"Kaplička","P131^label:cs":"Staré Křečany","P6736":"37711"},"geometry":{"type":"Point","coordinates":[14.49868,50.95015]}},{"type":"Feature","properties":{"label:cs":"Kaplička Křížové cesty-VI u kostela ve Starých Křečanech","P31":"http://www.wikidata.org/entity/Q14552192","P31^label:cs":"Kaplička","P131^label:cs":"Staré Křečany","P6736":"37710"},"geometry":{"type":"Point","coordinates":[14.49875,50.95033]}},{"type":"Feature","properties":{"label:cs":"Kaplička Křížové cesty-V u kostela ve Starých Křečanech","P31":"http://www.wikidata.org/entity/Q14552192","P31^label:cs":"Kaplička","P131^label:cs":"Staré Křečany","P6736":"37708"},"geometry":{"type":"Point","coordinates":[14.49859,50.95048]}},{"type":"Feature","properties":{"label:cs":"Kaplička Křížové cesty-IV u kostela ve Starých Křečanech","P31":"http://www.wikidata.org/entity/Q14552192","P31^label:cs":"Kaplička","P131^label:cs":"Staré Křečany","P6736":"37707"},"geometry":{"type":"Point","coordinates":[14.49847,50.9506]}},{"type":"Feature","properties":{"label:cs":"Kaplička Křížové cesty-III u kostela ve Starých Křečanech","P31":"http://www.wikidata.org/entity/Q14552192","P31^label:cs":"Kaplička","P131^label:cs":"Staré Křečany","P6736":"37706"},"geometry":{"type":"Point","coordinates":[14.49836,50.95072]}},{"type":"Feature","properties":{"label:cs":"Kaplička Křížové cesty -II u kostela ve Starých Křečanech","P31":"http://www.wikidata.org/entity/Q14552192","P31^label:cs":"Kaplička","P131^label:cs":"Staré Křečany","P6736":"37705"},"geometry":{"type":"Point","coordinates":[14.49812,50.9508]}},{"type":"Feature","properties":{"label:cs":"Kaplička Křížové cesty-I u kostela ve Starých Křečanech","P31":"http://www.wikidata.org/entity/Q14552192","P31^label:cs":"Kaplička","P131^label:cs":"Staré Křečany","P6736":"37704"},"geometry":{"type":"Point","coordinates":[14.49791,50.95074]}},{"type":"Feature","properties":{"label:cs":"Kříž v zahradě domu 461 ve Starých Křečanech","P31":"http://www.wikidata.org/entity/Q2309609","P31^label:cs":"Pamětní kříž","P131^label:cs":"Staré Křečany","P6736":"37656"},"geometry":{"type":"Point","coordinates":[14.49463,50.94982]}},{"type":"Feature","properties":{"label:cs":"Pomník Františka Antonína Bernarda v centru Starých Křečan","P31":"http://www.wikidata.org/entity/Q4989906","P31^label:cs":"Pomník","P131^label:cs":"Staré Křečany","P6736":"37655"},"geometry":{"type":"Point","coordinates":[14.49722,50.95084]}},{"type":"Feature","properties":{"label:cs":"Kříž u kostela ve Starých Křečanech","P31":"http://www.wikidata.org/entity/Q2309609","P31^label:cs":"Pamětní kříž","P131^label:cs":"Staré Křečany","P6736":"37654"},"geometry":{"type":"Point","coordinates":[14.49784,50.95063]}},{"type":"Feature","properties":{"label:cs":"Socha anděla u brány k areálu kostela ve Starých Křečanech","P31":"http://www.wikidata.org/entity/Q179700","P31^label:cs":"Socha","P131^label:cs":"Staré Křečany","P6736":"37653"},"geometry":{"type":"Point","coordinates":[14.49792,50.95075]}},{"type":"Feature","properties":{"label:cs":"Socha svatého Jana Nepomuckého naproti domu 219 ve Starých Křečanech","P31":"http://www.wikidata.org/entity/Q179700","P31^label:cs":"Socha","P131^label:cs":"Staré Křečany","P6736":"37652"},"geometry":{"type":"Point","coordinates":[14.49705,50.95192]}},{"type":"Feature","properties":{"label:cs":"Pomník Josefa Horáka u školy ve Starých Křečanech","P31":"http://www.wikidata.org/entity/Q4989906","P31^label:cs":"Pomník","P131^label:cs":"Staré Křečany","P6736":"37651"},"geometry":{"type":"Point","coordinates":[14.49394,50.95081]}},{"type":"Feature","properties":{"label:cs":"Kříž na rozcestí u domu 225 ve Starých Křečanech","P31":"http://www.wikidata.org/entity/Q2309609","P31^label:cs":"Pamětní kříž","P131^label:cs":"Staré Křečany","P6736":"37650"},"geometry":{"type":"Point","coordinates":[14.48816,50.95237]}},{"type":"Feature","properties":{"label:cs":"Kříž naproti domu 144 ve Starých Křečanech","P31":"http://www.wikidata.org/entity/Q2309609","P31^label:cs":"Pamětní kříž","P131^label:cs":"Staré Křečany","P6736":"37649"},"geometry":{"type":"Point","coordinates":[14.4856,50.95509]}},{"type":"Feature","properties":{"label:cs":"Kříž u silnice nad domem 120 ve Starých Křečanech","P31":"http://www.wikidata.org/entity/Q2309609","P31^label:cs":"Pamětní kříž","P131^label:cs":"Staré Křečany","P6736":"37648"},"geometry":{"type":"Point","coordinates":[14.48295,50.95452]}},{"type":"Feature","properties":{"label:cs":"Kříž u potoka poblíž domu 12 ve Starých Křečanech","P31":"http://www.wikidata.org/entity/Q2309609","P31^label:cs":"Pamětní kříž","P131^label:cs":"Staré Křečany","P6736":"37647"},"geometry":{"type":"Point","coordinates":[14.48556,50.95131]}},{"type":"Feature","properties":{"label:cs":"Kříž u silnice poblíž domu 8 ve Starých Křečanech","P31":"http://www.wikidata.org/entity/Q2309609","P31^label:cs":"Pamětní kříž","P131^label:cs":"Staré Křečany","P6736":"37646"},"geometry":{"type":"Point","coordinates":[14.4878,50.95092]}},{"type":"Feature","properties":{"label:cs":"Socha svatého Antonína Paduánského u domu 62 ve Starých Křečanech","P31":"http://www.wikidata.org/entity/Q179700","P31^label:cs":"Socha","P131^label:cs":"Staré Křečany","P6736":"37645"},"geometry":{"type":"Point","coordinates":[14.48831,50.95012]}},{"type":"Feature","properties":{"label:cs":"Socha svatého Jana Nepomuckého u domu 406 ve Starých Křečanech","P31":"http://www.wikidata.org/entity/Q179700","P31^label:cs":"Socha","P131^label:cs":"Staré Křečany","P6736":"37644"},"geometry":{"type":"Point","coordinates":[14.49058,50.94551]}}]}