{"type":"FeatureCollection","features":[{"type":"Feature","properties":{"label:cs":"Socha Tři Grácie v parku mezi ulicemi Jabloňová a Ostružinová v Zahradním Městě","P31":"http://www.wikidata.org/entity/Q179700","P31^label:cs":"Socha","P131^label:cs":"Praha","P6736":"27848"},"geometry":{"type":"Point","coordinates":[14.49666,50.05719]}},{"type":"Feature","properties":{"label:cs":"Kašna v parku mezi ulicemi Jabloňová a Ostružinová v Zahradním Městě","P31":"http://www.wikidata.org/entity/Q12029081","P31^label:cs":"Kašna","P131^label:cs":"Praha","P6736":"27849"},"geometry":{"type":"Point","coordinates":[14.49704,50.05724]}},{"type":"Feature","properties":{"label:cs":"Kašna s kamennou plastikou v atriu polikliniky Zahradní Město","P31":"http://www.wikidata.org/entity/Q12029081","P31^label:cs":"Kašna","P131^label:cs":"Praha","P6736":"27850"},"geometry":{"type":"Point","coordinates":[14.49677,50.05611]}},{"type":"Feature","properties":{"label:cs":"Pomník padlým u hřbitova v Záběhlicích","P31":"http://www.wikidata.org/entity/Q575759","P31^label:cs":"Pomník padlým","P131^label:cs":"Praha","P6736":"27851"},"geometry":{"type":"Point","coordinates":[14.49589,50.05626]}},{"type":"Feature","properties":{"label:cs":"Socha Milenci v parku u ulice V Korytech v Záběhlicích","P31":"http://www.wikidata.org/entity/Q179700","P31^label:cs":"Socha","P131^label:cs":"Praha","P6736":"27852"},"geometry":{"type":"Point","coordinates":[14.49341,50.05542]}},{"type":"Feature","properties":{"label:cs":"Kříž v ulici U Zahradního Města v Záběhlicích","P31":"http://www.wikidata.org/entity/Q2309609","P31^label:cs":"Pamětní kříž","P131^label:cs":"Praha","P6736":"27853"},"geometry":{"type":"Point","coordinates":[14.4976,50.05549]}}]}