{"type":"FeatureCollection","features":[{"type":"Feature","properties":{"label:cs":"Kříž ve Stádleci u křižovatky","P31":"http://www.wikidata.org/entity/Q2309609","P31^label:cs":"Pamětní kříž","P131^label:cs":"Stádlec","P6736":"7676"},"geometry":{"type":"Point","coordinates":[14.4986,49.37761]}},{"type":"Feature","properties":{"label:cs":"Boží muka jižně od Stádlece","P31":"http://www.wikidata.org/entity/Q3395121","P31^label:cs":"Boží muka","P131^label:cs":"Stádlec","P6736":"7675"},"geometry":{"type":"Point","coordinates":[14.49185,49.37203]}},{"type":"Feature","properties":{"label:cs":"Kaple ve Stádleci na křižovatce","P31":"http://www.wikidata.org/entity/Q108325","P31^label:cs":"Kaple","P131^label:cs":"Stádlec","P6736":"7602"},"geometry":{"type":"Point","coordinates":[14.49125,49.3783]}},{"type":"Feature","properties":{"label:cs":"Sousoší Nejsvětější Trojice ve Stádleci","P31":"http://www.wikidata.org/entity/Q179700","P31^label:cs":"Socha","P131^label:cs":"Stádlec","P6736":"7601"},"geometry":{"type":"Point","coordinates":[14.49579,49.37948]}},{"type":"Feature","properties":{"label:cs":"Pomník padlým ve Stádleci","P31":"http://www.wikidata.org/entity/Q575759","P31^label:cs":"Pomník padlým","P131^label:cs":"Stádlec","P6736":"7600"},"geometry":{"type":"Point","coordinates":[14.49535,49.3788]}},{"type":"Feature","properties":{"label:cs":"Kříž západně od Stádlece","P31":"http://www.wikidata.org/entity/Q2309609","P31^label:cs":"Pamětní kříž","P131^label:cs":"Stádlec","P6736":"2522"},"geometry":{"type":"Point","coordinates":[14.48322,49.37772]}}]}