{"type":"FeatureCollection","features":[{"type":"Feature","properties":{"label:cs":"Kříž u silnice poblíž domu 336 v Království","P31":"http://www.wikidata.org/entity/Q2309609","P31^label:cs":"Pamětní kříž","P131^label:cs":"Šluknov","P6736":"33226"},"geometry":{"type":"Point","coordinates":[14.48697,50.9995]}},{"type":"Feature","properties":{"label:cs":"Pomník Tomáše Garrigue Masaryka v Království","P31":"http://www.wikidata.org/entity/Q4989906","P31^label:cs":"Pomník","P131^label:cs":"Šluknov","P6736":"33192"},"geometry":{"type":"Point","coordinates":[14.48876,50.99887]}},{"type":"Feature","properties":{"label:cs":"Obrázek Ježíše Krista na kostele v Království","P31":"http://www.wikidata.org/entity/Q478798","P31^label:cs":"Obrázek","P131^label:cs":"Šluknov","P6736":"33191"},"geometry":{"type":"Point","coordinates":[14.48953,50.99773]}},{"type":"Feature","properties":{"label:cs":"Pamětní deska Ferdinanda Kindermanna vpravo na kostele v Království","P31":"http://www.wikidata.org/entity/Q721747","P31^label:cs":"Pamětní deska","P131^label:cs":"Šluknov","P6736":"33190"},"geometry":{"type":"Point","coordinates":[14.48932,50.99815]}},{"type":"Feature","properties":{"label:cs":"Pamětní deska Wenzela Karla vlevo na kostele v Království","P31":"http://www.wikidata.org/entity/Q721747","P31^label:cs":"Pamětní deska","P131^label:cs":"Šluknov","P6736":"33188"},"geometry":{"type":"Point","coordinates":[14.48954,50.99817]}},{"type":"Feature","properties":{"label:cs":"Pomník Františka Josefa I. u kostela v Království","P31":"http://www.wikidata.org/entity/Q4989906","P31^label:cs":"Pomník","P131^label:cs":"Šluknov","P6736":"33187"},"geometry":{"type":"Point","coordinates":[14.48966,50.99826]}},{"type":"Feature","properties":{"label:cs":"Kaple Panny Marie Bolestné v Království","P31":"http://www.wikidata.org/entity/Q108325","P31^label:cs":"Kaple","P131^label:cs":"Šluknov","P6736":"33186"},"geometry":{"type":"Point","coordinates":[14.4913,50.99769]}},{"type":"Feature","properties":{"label:cs":"Kříž u domu 68 v Království","P31":"http://www.wikidata.org/entity/Q2309609","P31^label:cs":"Pamětní kříž","P131^label:cs":"Šluknov","P6736":"33185"},"geometry":{"type":"Point","coordinates":[14.49677,50.99537]}}]}