{"type":"FeatureCollection","features":[{"type":"Feature","properties":{"label:cs":"Socha svatého Jana Nepomuckého v Království","P31":"http://www.wikidata.org/entity/Q179700","P31^label:cs":"Socha","P131^label:cs":"Šluknov","P6736":"33246"},"geometry":{"type":"Point","coordinates":[14.48345,51.00344]}},{"type":"Feature","properties":{"label:cs":"Kříž na rozcestí poblíž domu 20 v Království","P31":"http://www.wikidata.org/entity/Q2309609","P31^label:cs":"Pamětní kříž","P131^label:cs":"Šluknov","P6736":"33227"},"geometry":{"type":"Point","coordinates":[14.48066,51.00257]}},{"type":"Feature","properties":{"label:cs":"Kapličky Křížové cesty v Království","P31":"http://www.wikidata.org/entity/Q14552192","P31^label:cs":"Kaplička","P131^label:cs":"Šluknov","P6736":"33225"},"geometry":{"type":"Point","coordinates":[14.49435,51.0048]}},{"type":"Feature","properties":{"label:cs":"Pomník padlým v 1. světové válce v Království","P31":"http://www.wikidata.org/entity/Q575759","P31^label:cs":"Pomník padlým","P131^label:cs":"Šluknov","P6736":"33224"},"geometry":{"type":"Point","coordinates":[14.49464,51.00495]}},{"type":"Feature","properties":{"label:cs":"Kaple Kalvárie u Křížové cesty v Království","P31":"http://www.wikidata.org/entity/Q108325","P31^label:cs":"Kaple","P131^label:cs":"Šluknov","P6736":"33223"},"geometry":{"type":"Point","coordinates":[14.49501,51.00491]}},{"type":"Feature","properties":{"label:cs":"Kaple Božího hrobu u Křížové cesty v Království","P31":"http://www.wikidata.org/entity/Q108325","P31^label:cs":"Kaple","P131^label:cs":"Šluknov","P6736":"33222"},"geometry":{"type":"Point","coordinates":[14.49491,51.00477]}},{"type":"Feature","properties":{"label:cs":"Kaple Bičování Krista u Křížové cesty v Království","P31":"http://www.wikidata.org/entity/Q108325","P31^label:cs":"Kaple","P131^label:cs":"Šluknov","P6736":"33221"},"geometry":{"type":"Point","coordinates":[14.49456,51.00463]}},{"type":"Feature","properties":{"label:cs":"Kaple Žaláře Krista u Křížové cesty v Království","P31":"http://www.wikidata.org/entity/Q108325","P31^label:cs":"Kaple","P131^label:cs":"Šluknov","P6736":"33220"},"geometry":{"type":"Point","coordinates":[14.49429,51.00452]}},{"type":"Feature","properties":{"label:cs":"Kaplička Poslední večeře Páně u cesty ke Křížové cestě v Království","P31":"http://www.wikidata.org/entity/Q14552192","P31^label:cs":"Kaplička","P131^label:cs":"Šluknov","P6736":"33194"},"geometry":{"type":"Point","coordinates":[14.49317,51.00337]}}]}