{"type":"FeatureCollection","features":[{"type":"Feature","properties":{"label:cs":"Kříž v Čenkově u Bechyně","P31":"http://www.wikidata.org/entity/Q2309609","P31^label:cs":"Pamětní kříž","P131^label:cs":"Čenkov u Bechyně","P6736":"36591"},"geometry":{"type":"Point","coordinates":[14.49983,49.2326]}},{"type":"Feature","properties":{"label:cs":"Kaple v Čenkově u Bechyně","P31":"http://www.wikidata.org/entity/Q108325","P31^label:cs":"Kaple","P131^label:cs":"Čenkov u Bechyně","P6736":"36590"},"geometry":{"type":"Point","coordinates":[14.50034,49.23443]}},{"type":"Feature","properties":{"label:cs":"Kříž západně od Čenkova u Bechyně","P31":"http://www.wikidata.org/entity/Q2309609","P31^label:cs":"Pamětní kříž","P131^label:cs":"Čenkov u Bechyně","P6736":"36589"},"geometry":{"type":"Point","coordinates":[14.49219,49.23394]}},{"type":"Feature","properties":{"label:cs":"Boží muka severně od Smilovic","P31":"http://www.wikidata.org/entity/Q3395121","P31^label:cs":"Boží muka","P131^label:cs":"Žimutice","P6736":"36588"},"geometry":{"type":"Point","coordinates":[14.48086,49.23287]}},{"type":"Feature","properties":{"label:cs":"Kaple ve Smilovicích","P31":"http://www.wikidata.org/entity/Q108325","P31^label:cs":"Kaple","P131^label:cs":"Žimutice","P6736":"36587"},"geometry":{"type":"Point","coordinates":[14.48331,49.23081]}},{"type":"Feature","properties":{"label:cs":"Kříž u kaple ve Smilovicích","P31":"http://www.wikidata.org/entity/Q2309609","P31^label:cs":"Pamětní kříž","P131^label:cs":"Žimutice","P6736":"36586"},"geometry":{"type":"Point","coordinates":[14.4834,49.23081]}},{"type":"Feature","properties":{"label:cs":"Kříž na zahradě ve Smilovicích","P31":"http://www.wikidata.org/entity/Q2309609","P31^label:cs":"Pamětní kříž","P131^label:cs":"Žimutice","P6736":"36584"},"geometry":{"type":"Point","coordinates":[14.48348,49.22897]}}]}