{"type":"FeatureCollection","features":[{"type":"Feature","properties":{"label:cs":"Kříž na rozcestí u domu 279 ve Starých Křečanech","P31":"http://www.wikidata.org/entity/Q2309609","P31^label:cs":"Pamětní kříž","P131^label:cs":"Staré Křečany","P6736":"37661"},"geometry":{"type":"Point","coordinates":[14.51175,50.95821]}},{"type":"Feature","properties":{"label:cs":"Socha svatého Jana Nepomuckého poblíž domu 714 ve Starých Křečanech","P31":"http://www.wikidata.org/entity/Q179700","P31^label:cs":"Socha","P131^label:cs":"Staré Křečany","P6736":"37660"},"geometry":{"type":"Point","coordinates":[14.5087,50.95514]}},{"type":"Feature","properties":{"label:cs":"Kříž naproti domu 248 ve Starých Křečanech","P31":"http://www.wikidata.org/entity/Q2309609","P31^label:cs":"Pamětní kříž","P131^label:cs":"Staré Křečany","P6736":"37659"},"geometry":{"type":"Point","coordinates":[14.50486,50.95258]}},{"type":"Feature","properties":{"label:cs":"Kříž poblíž domu 19 ve Starých Křečanech","P31":"http://www.wikidata.org/entity/Q2309609","P31^label:cs":"Pamětní kříž","P131^label:cs":"Staré Křečany","P6736":"37658"},"geometry":{"type":"Point","coordinates":[14.5035,50.9531]}},{"type":"Feature","properties":{"label:cs":"Kříž u domu 242 ve Starých Křečanech","P31":"http://www.wikidata.org/entity/Q2309609","P31^label:cs":"Pamětní kříž","P131^label:cs":"Staré Křečany","P6736":"37657"},"geometry":{"type":"Point","coordinates":[14.50314,50.95371]}}]}