{"type":"FeatureCollection","features":[{"type":"Feature","properties":{"label:cs":"Pomník padlým v 1. světové válce v Mladoboleslavské ulici v Skuhrově","P31":"http://www.wikidata.org/entity/Q575759","P31^label:cs":"Pomník padlým","P131^label:cs":"Velký Borek","P6736":"20677"},"geometry":{"type":"Point","coordinates":[14.51115,50.33948]}},{"type":"Feature","properties":{"label:cs":"Socha svatého Jana Nepomuckého v Borecké ulici v Skuhrově","P31":"http://www.wikidata.org/entity/Q179700","P31^label:cs":"Socha","P131^label:cs":"Velký Borek","P6736":"20676"},"geometry":{"type":"Point","coordinates":[14.5118,50.33959]}},{"type":"Feature","properties":{"label:cs":"Kaplička na rozcestí ve Velkém Borku","P31":"http://www.wikidata.org/entity/Q14552192","P31^label:cs":"Kaplička","P131^label:cs":"Velký Borek","P6736":"20675"},"geometry":{"type":"Point","coordinates":[14.51514,50.3453]}},{"type":"Feature","properties":{"label:cs":"Pomník padlým v 1. světové válce ve Velkém Borku","P31":"http://www.wikidata.org/entity/Q575759","P31^label:cs":"Pomník padlým","P131^label:cs":"Velký Borek","P6736":"20674"},"geometry":{"type":"Point","coordinates":[14.51536,50.34501]}},{"type":"Feature","properties":{"label:cs":"Kříž u kapličky svatého Václava ve Velkém Borku","P31":"http://www.wikidata.org/entity/Q2309609","P31^label:cs":"Pamětní kříž","P131^label:cs":"Velký Borek","P6736":"20673"},"geometry":{"type":"Point","coordinates":[14.51705,50.34462]}},{"type":"Feature","properties":{"label:cs":"Kaplička svatého Václava ve Velkém Borku","P31":"http://www.wikidata.org/entity/Q14552192","P31^label:cs":"Kaplička","P131^label:cs":"Velký Borek","P6736":"20672"},"geometry":{"type":"Point","coordinates":[14.51701,50.34462]}},{"type":"Feature","properties":{"label:cs":"Pomník Jana Amose Komenského u školy ve Velkém Borku","P31":"http://www.wikidata.org/entity/Q4989906","P31^label:cs":"Pomník","P131^label:cs":"Velký Borek","P6736":"20671"},"geometry":{"type":"Point","coordinates":[14.51767,50.34425]}}]}