{"type":"FeatureCollection","features":[{"type":"Feature","properties":{"label:cs":"Kříž na rozcestí u domu 23 v Království","P31":"http://www.wikidata.org/entity/Q2309609","P31^label:cs":"Pamětní kříž","P131^label:cs":"Šluknov","P6736":"33176"},"geometry":{"type":"Point","coordinates":[14.51446,50.99315]}},{"type":"Feature","properties":{"label:cs":"Kříž u silnice na východním okraji Království","P31":"http://www.wikidata.org/entity/Q2309609","P31^label:cs":"Pamětní kříž","P131^label:cs":"Šluknov","P6736":"33177"},"geometry":{"type":"Point","coordinates":[14.51909,50.99407]}},{"type":"Feature","properties":{"label:cs":"Kříž u silnice poblíž domu 46 v Království","P31":"http://www.wikidata.org/entity/Q2309609","P31^label:cs":"Pamětní kříž","P131^label:cs":"Šluknov","P6736":"33179"},"geometry":{"type":"Point","coordinates":[14.51118,50.99501]}},{"type":"Feature","properties":{"label:cs":"Kříž v zahradě domu 159 v Království","P31":"http://www.wikidata.org/entity/Q2309609","P31^label:cs":"Pamětní kříž","P131^label:cs":"Šluknov","P6736":"33181"},"geometry":{"type":"Point","coordinates":[14.50863,50.99475]}},{"type":"Feature","properties":{"label:cs":"Kříž v zahradě domu 159 v Království","P31":"http://www.wikidata.org/entity/Q2309609","P31^label:cs":"Pamětní kříž","P131^label:cs":"Šluknov","P6736":"33182"},"geometry":{"type":"Point","coordinates":[14.50655,50.99413]}},{"type":"Feature","properties":{"label:cs":"Kříž u silnice v severní části Království","P31":"http://www.wikidata.org/entity/Q2309609","P31^label:cs":"Pamětní kříž","P131^label:cs":"Šluknov","P6736":"33183"},"geometry":{"type":"Point","coordinates":[14.50298,50.99625]}},{"type":"Feature","properties":{"label:cs":"Kaple Nejsvětější Trojice v Království","P31":"http://www.wikidata.org/entity/Q108325","P31^label:cs":"Kaple","P131^label:cs":"Šluknov","P6736":"33184"},"geometry":{"type":"Point","coordinates":[14.50231,50.99461]}}]}