{"type":"FeatureCollection","features":[{"type":"Feature","properties":{"label:cs":"Kovová plastika cyklisty na rohu ulic Masarykovy a Varnsdorfská v Krásné Lípě","P31":"http://www.wikidata.org/entity/Q12045520","P31^label:cs":"Plastika","P131^label:cs":"Krásná Lípa","P6736":"29942"},"geometry":{"type":"Point","coordinates":[14.51085,50.91303]}},{"type":"Feature","properties":{"label:cs":"Kříž ve Smetanově ulici naproti hřbitovu v Krásné Lípě","P31":"http://www.wikidata.org/entity/Q2309609","P31^label:cs":"Pamětní kříž","P131^label:cs":"Krásná Lípa","P6736":"29921"},"geometry":{"type":"Point","coordinates":[14.50452,50.9102]}},{"type":"Feature","properties":{"label:cs":"Socha lva v parku ve Smetanově ulici v Krásné Lípě","P31":"http://www.wikidata.org/entity/Q179700","P31^label:cs":"Socha","P131^label:cs":"Krásná Lípa","P6736":"29922"},"geometry":{"type":"Point","coordinates":[14.50484,50.91098]}},{"type":"Feature","properties":{"label:cs":"Kříž u domu 485/20 v Kyjovské ulici v Krásné Lípě","P31":"http://www.wikidata.org/entity/Q2309609","P31^label:cs":"Pamětní kříž","P131^label:cs":"Krásná Lípa","P6736":"29924"},"geometry":{"type":"Point","coordinates":[14.50282,50.91504]}},{"type":"Feature","properties":{"label:cs":"Socha svaté Barbory u kostela v Krásné Lípě","P31":"http://www.wikidata.org/entity/Q179700","P31^label:cs":"Socha","P131^label:cs":"Krásná Lípa","P6736":"29925"},"geometry":{"type":"Point","coordinates":[14.50724,50.91412]}},{"type":"Feature","properties":{"label:cs":"Kříž u kostela v Krásné Lípě","P31":"http://www.wikidata.org/entity/Q2309609","P31^label:cs":"Pamětní kříž","P131^label:cs":"Krásná Lípa","P6736":"29926"},"geometry":{"type":"Point","coordinates":[14.50742,50.91408]}},{"type":"Feature","properties":{"label:cs":"Kříž u domova důchodců v Nemocniční ulici v Krásné Lípě","P31":"http://www.wikidata.org/entity/Q2309609","P31^label:cs":"Pamětní kříž","P131^label:cs":"Krásná Lípa","P6736":"29927"},"geometry":{"type":"Point","coordinates":[14.507,50.91655]}},{"type":"Feature","properties":{"label:cs":"Plastika Čtyři živly na Křinickém náměstí v Krásné Lípě","P31":"http://www.wikidata.org/entity/Q12045520","P31^label:cs":"Plastika","P131^label:cs":"Krásná Lípa","P6736":"29928"},"geometry":{"type":"Point","coordinates":[14.50839,50.91352]}},{"type":"Feature","properties":{"label:cs":"Kříž v Štefánikově ulici v Krásné Lípě","P31":"http://www.wikidata.org/entity/Q2309609","P31^label:cs":"Pamětní kříž","P131^label:cs":"Krásná Lípa","P6736":"29929"},"geometry":{"type":"Point","coordinates":[14.51581,50.91151]}},{"type":"Feature","properties":{"label:cs":"Pomník Augusta Strádala v Pražské ulici v Krásné Lípě","P31":"http://www.wikidata.org/entity/Q4989906","P31^label:cs":"Pomník","P131^label:cs":"Krásná Lípa","P6736":"29930"},"geometry":{"type":"Point","coordinates":[14.50967,50.91056]}},{"type":"Feature","properties":{"label:cs":"Kovová plastika Tour de Feminin v Masarykově ulici v Krásné Lípě","P31":"http://www.wikidata.org/entity/Q12045520","P31^label:cs":"Plastika","P131^label:cs":"Krásná Lípa","P6736":"29943"},"geometry":{"type":"Point","coordinates":[14.51015,50.91294]}}]}