{"type":"FeatureCollection","features":[{"type":"Feature","properties":{"label:cs":"Kovová plastika v ulici Šestajovická v Hloubětíně","P31":"Q12045520","P31^label:cs":"Plastika","P131^label:cs":"Praha","P6736":"25207"},"geometry":{"type":"Point","coordinates":[14.53715,50.10361]}},{"type":"Feature","properties":{"label:cs":"Plastika na prostranství u stanice metra Hloubětínská v Praze","P31":"Q12045520","P31^label:cs":"Plastika","P131^label:cs":"Praha","P6736":"18146"},"geometry":{"type":"Point","coordinates":[14.53766,50.10572]}},{"type":"Feature","properties":{"label:cs":"Pomník padlým na návsi ve Starém Hloubětíně","P31":"Q575759","P31^label:cs":"Pomník padlým","P131^label:cs":"Praha","P6736":"16675"},"geometry":{"type":"Point","coordinates":[14.53482,50.1045]}},{"type":"Feature","properties":{"label:cs":"Plastika ženské postavy na soklu před bazénem v Hloubětíně","P31":"Q12045520","P31^label:cs":"Plastika","P131^label:cs":"Praha","P6736":"16674"},"geometry":{"type":"Point","coordinates":[14.53513,50.10477]}},{"type":"Feature","properties":{"label:cs":"Plastika ženy před zdravotním střediskem v Hloubětíně","P31":"Q12045520","P31^label:cs":"Plastika","P131^label:cs":"Praha","P6736":"16673"},"geometry":{"type":"Point","coordinates":[14.53695,50.10444]}}]}