{"type":"FeatureCollection","features":[{"type":"Feature","properties":{"label:cs":"Kaplička při silnici na západním okraji Vidimi","P31":"http://www.wikidata.org/entity/Q14552192","P31^label:cs":"Kaplička","P131^label:cs":"Vidim","P6736":"16116"},"geometry":{"type":"Point","coordinates":[14.52396,50.46515]}},{"type":"Feature","properties":{"label:cs":"Socha svatého Augustina u vchodu do kostela svatého Martina ve Vidimi","P31":"http://www.wikidata.org/entity/Q179700","P31^label:cs":"Socha","P131^label:cs":"Vidim","P6736":"30003"},"geometry":{"type":"Point","coordinates":[14.52654,50.46758]}},{"type":"Feature","properties":{"label:cs":"Socha svaté Anny u vchodu do kostela svatého Martina ve Vidimi","P31":"http://www.wikidata.org/entity/Q179700","P31^label:cs":"Socha","P131^label:cs":"Vidim","P6736":"30004"},"geometry":{"type":"Point","coordinates":[14.52663,50.46756]}},{"type":"Feature","properties":{"label:cs":"Památník osvobození v květnu 1945 u kostela svatého Martina ve Vidimi","P31":"http://www.wikidata.org/entity/Q5003624","P31^label:cs":"Památník","P131^label:cs":"Vidim","P6736":"30005"},"geometry":{"type":"Point","coordinates":[14.52672,50.46751]}},{"type":"Feature","properties":{"label:cs":"Socha svatého Jana Nepomuckého na návsi ve Vidimi","P31":"http://www.wikidata.org/entity/Q179700","P31^label:cs":"Socha","P131^label:cs":"Vidim","P6736":"30006"},"geometry":{"type":"Point","coordinates":[14.52643,50.46706]}},{"type":"Feature","properties":{"label:cs":"Reliéf Ježíše Krista vytesaný ve skále u komunikace pod návsí ve Vidimi","P31":"http://www.wikidata.org/entity/Q12045520","P31^label:cs":"Plastika","P131^label:cs":"Vidim","P6736":"30007"},"geometry":{"type":"Point","coordinates":[14.52584,50.46885]}}]}