{"type":"FeatureCollection","features":[{"type":"Feature","properties":{"label:cs":"Kaplička ve Bzí","P31":"Kaplička","P31^label:cs":"Kaplička","P131^label:cs":"Dolní Bukovsko","P6736":"6278"},"geometry":{"type":"Point","coordinates":[14.54143,49.18237]}},{"type":"Feature","properties":{"label:cs":"Pomník padlým ve Bzí","P31":"Pomník padlým","P31^label:cs":"Pomník padlým","P131^label:cs":"Dolní Bukovsko","P6736":"6277"},"geometry":{"type":"Point","coordinates":[14.53937,49.18213]}},{"type":"Feature","properties":{"label:cs":"Boží muka západně od Bzí","P31":"Boží muka","P31^label:cs":"Boží muka","P131^label:cs":"Modrá Hůrka","P6736":"6276"},"geometry":{"type":"Point","coordinates":[14.53684,49.18282]}},{"type":"Feature","properties":{"label:cs":"Kříž mezi Bzí a Modrou Hůrkou","P31":"Pamětní kříž","P31^label:cs":"Pamětní kříž","P131^label:cs":"Modrá Hůrka","P6736":"2086"},"geometry":{"type":"Point","coordinates":[14.53435,49.18182]}},{"type":"Feature","properties":{"label:cs":"Kříž u Bzí u Pivovarského rybníku","P31":"Pamětní kříž","P31^label:cs":"Pamětní kříž","P131^label:cs":"Dolní Bukovsko","P6736":"1314"},"geometry":{"type":"Point","coordinates":[14.54414,49.18248]}}]}