{"type":"FeatureCollection","features":[{"type":"Feature","properties":{"label:cs":"Pomník generála Sachera v parku u kostela ve Skalici","P31":"http://www.wikidata.org/entity/Q4989906","P31^label:cs":"Pomník","P131^label:cs":"Skalice u České Lípy","P6736":"26914"},"geometry":{"type":"Point","coordinates":[14.52936,50.7439]}},{"type":"Feature","properties":{"label:cs":"Sloup svatého Antonína u polní cesty jihovýchodně od Skalice","P31":"http://www.wikidata.org/entity/Q4817","P31^label:cs":"Sloup","P131^label:cs":"Skalice u České Lípy","P6736":"26913"},"geometry":{"type":"Point","coordinates":[14.53361,50.73678]}},{"type":"Feature","properties":{"label:cs":"Kaplička v severní části Skalice u České Lípy","P31":"http://www.wikidata.org/entity/Q14552192","P31^label:cs":"Kaplička","P131^label:cs":"Skalice u České Lípy","P6736":"26572"},"geometry":{"type":"Point","coordinates":[14.53261,50.74809]}},{"type":"Feature","properties":{"label:cs":"Socha svatého Jana Nepomuckého u bývalé fary v Skalici u České Lípy","P31":"http://www.wikidata.org/entity/Q179700","P31^label:cs":"Socha","P131^label:cs":"Skalice u České Lípy","P6736":"26571"},"geometry":{"type":"Point","coordinates":[14.5297,50.74415]}},{"type":"Feature","properties":{"label:cs":"Pomník padlým v 1. světové válce u kostela v Skalici u České Lípy","P31":"http://www.wikidata.org/entity/Q575759","P31^label:cs":"Pomník padlým","P131^label:cs":"Skalice u České Lípy","P6736":"26570"},"geometry":{"type":"Point","coordinates":[14.52879,50.74375]}},{"type":"Feature","properties":{"label:cs":"Kříž na rozcestí poblíž domu 456 v Skalici u České Lípy","P31":"http://www.wikidata.org/entity/Q2309609","P31^label:cs":"Pamětní kříž","P131^label:cs":"Skalice u České Lípy","P6736":"26569"},"geometry":{"type":"Point","coordinates":[14.52724,50.74208]}},{"type":"Feature","properties":{"label:cs":"Boží muka na rozcestí v centru Skalice u České Lípy","P31":"http://www.wikidata.org/entity/Q3395121","P31^label:cs":"Boží muka","P131^label:cs":"Skalice u České Lípy","P6736":"26568"},"geometry":{"type":"Point","coordinates":[14.52519,50.74132]}}]}