{"type":"FeatureCollection","features":[{"type":"Feature","properties":{"label:cs":"Kříž v ulici Ke Koupališti v Dolních Křečanech","P31":"http://www.wikidata.org/entity/Q2309609","P31^label:cs":"Pamětní kříž","P131^label:cs":"Rumburk","P6736":"37805"},"geometry":{"type":"Point","coordinates":[14.54208,50.96105]}},{"type":"Feature","properties":{"label:cs":"Kříž u domu Šluknovská 23/27 v Dolních Křečanech","P31":"http://www.wikidata.org/entity/Q2309609","P31^label:cs":"Pamětní kříž","P131^label:cs":"Rumburk","P6736":"37804"},"geometry":{"type":"Point","coordinates":[14.53957,50.95972]}},{"type":"Feature","properties":{"label:cs":"Kříž u domu Šluknovská 218/34 v Dolních Křečanech","P31":"http://www.wikidata.org/entity/Q2309609","P31^label:cs":"Pamětní kříž","P131^label:cs":"Rumburk","P6736":"37803"},"geometry":{"type":"Point","coordinates":[14.53641,50.96228]}},{"type":"Feature","properties":{"label:cs":"Kříž u domu Šluknovská 185/9 v Dolních Křečanech","P31":"http://www.wikidata.org/entity/Q2309609","P31^label:cs":"Pamětní kříž","P131^label:cs":"Rumburk","P6736":"37802"},"geometry":{"type":"Point","coordinates":[14.52986,50.96397]}},{"type":"Feature","properties":{"label:cs":"Pomník-desky padlým v 1. světové válce na kapli v Dolních Křečanech","P31":"http://www.wikidata.org/entity/Q575759","P31^label:cs":"Pomník padlým","P131^label:cs":"Rumburk","P6736":"37669"},"geometry":{"type":"Point","coordinates":[14.53368,50.96009]}},{"type":"Feature","properties":{"label:cs":"Kaple svaté Alžběty Durinské v Dolních Křečanech","P31":"http://www.wikidata.org/entity/Q108325","P31^label:cs":"Kaple","P131^label:cs":"Rumburk","P6736":"37668"},"geometry":{"type":"Point","coordinates":[14.53369,50.96013]}},{"type":"Feature","properties":{"label:cs":"Kříž v zahradě domu 21 v Dolních Křečanech","P31":"http://www.wikidata.org/entity/Q2309609","P31^label:cs":"Pamětní kříž","P131^label:cs":"Rumburk","P6736":"37667"},"geometry":{"type":"Point","coordinates":[14.53064,50.96014]}},{"type":"Feature","properties":{"label:cs":"Kříž u Mandavy za zahradou domu 2 v Dolních Křečanech","P31":"http://www.wikidata.org/entity/Q2309609","P31^label:cs":"Pamětní kříž","P131^label:cs":"Rumburk","P6736":"37666"},"geometry":{"type":"Point","coordinates":[14.53075,50.96082]}},{"type":"Feature","properties":{"label:cs":"Kříž na rozcestí ulic Starokřečanské a Strážní v Dolních Křečanech","P31":"http://www.wikidata.org/entity/Q2309609","P31^label:cs":"Pamětní kříž","P131^label:cs":"Rumburk","P6736":"37665"},"geometry":{"type":"Point","coordinates":[14.52945,50.9604]}},{"type":"Feature","properties":{"label:cs":"Kříž v zahradě domu 26 v Dolních Křečanech","P31":"http://www.wikidata.org/entity/Q2309609","P31^label:cs":"Pamětní kříž","P131^label:cs":"Rumburk","P6736":"37664"},"geometry":{"type":"Point","coordinates":[14.52431,50.95947]}}]}