{"type":"FeatureCollection","features":[{"type":"Feature","properties":{"label:cs":"Kaplička svatého Václava v Bosyni","P31":"http://www.wikidata.org/entity/Q14552192","P31^label:cs":"Kaplička","P131^label:cs":"Vysoká","P6736":"41860"},"geometry":{"type":"Point","coordinates":[14.54235,50.41524]}},{"type":"Feature","properties":{"label:cs":"Pamětní deska Jana Husa na evangelickém kostele ve Vysoké","P31":"http://www.wikidata.org/entity/Q721747","P31^label:cs":"Pamětní deska","P131^label:cs":"Vysoká","P6736":"41866"},"geometry":{"type":"Point","coordinates":[14.53394,50.41188]}},{"type":"Feature","properties":{"label:cs":"Pamětní deska Tomáše Garrigue Masaryka na škole ve Vysoké","P31":"http://www.wikidata.org/entity/Q721747","P31^label:cs":"Pamětní deska","P131^label:cs":"Vysoká","P6736":"41865"},"geometry":{"type":"Point","coordinates":[14.53592,50.41219]}},{"type":"Feature","properties":{"label:cs":"Pamětní deska padlým na škole ve Vysoké","P31":"http://www.wikidata.org/entity/Q721747","P31^label:cs":"Pamětní deska","P131^label:cs":"Vysoká","P6736":"41864"},"geometry":{"type":"Point","coordinates":[14.53598,50.4122]}},{"type":"Feature","properties":{"label:cs":"Kříž u kostela ve Vysoké","P31":"http://www.wikidata.org/entity/Q2309609","P31^label:cs":"Pamětní kříž","P131^label:cs":"Vysoká","P6736":"41863"},"geometry":{"type":"Point","coordinates":[14.53738,50.41227]}}]}