{"type":"FeatureCollection","features":[{"type":"Feature","properties":{"label:cs":"Památka neznámého účelu v parku v Červené Písce","P31":"http://www.wikidata.org/entity/?","P31^label:cs":"Neznámý","P131^label:cs":"Tuhaň","P6736":"40913"},"geometry":{"type":"Point","coordinates":[14.53571,50.29424]}},{"type":"Feature","properties":{"label:cs":"Busta královny u domu 172 v Červené Písce","P31":"http://www.wikidata.org/entity/Q179700","P31^label:cs":"Socha","P131^label:cs":"Tuhaň","P6736":"40910"},"geometry":{"type":"Point","coordinates":[14.53475,50.29391]}},{"type":"Feature","properties":{"label:cs":"Pomník Boženy Němcové v Červené Písce","P31":"http://www.wikidata.org/entity/Q4989906","P31^label:cs":"Pomník","P131^label:cs":"Tuhaň","P6736":"40909"},"geometry":{"type":"Point","coordinates":[14.53593,50.29395]}},{"type":"Feature","properties":{"label:cs":"Kříž na rozcestí v Červené Písce","P31":"http://www.wikidata.org/entity/Q2309609","P31^label:cs":"Pamětní kříž","P131^label:cs":"Tuhaň","P6736":"40908"},"geometry":{"type":"Point","coordinates":[14.53584,50.29452]}},{"type":"Feature","properties":{"label:cs":"Pomník Ivanu Uvologovi v Červené Písce","P31":"http://www.wikidata.org/entity/Q575759","P31^label:cs":"Pomník padlým","P131^label:cs":"Tuhaň","P6736":"40907"},"geometry":{"type":"Point","coordinates":[14.53559,50.29461]}}]}