{"type":"FeatureCollection","features":[{"type":"Feature","properties":{"label:cs":"Socha Orfea v zámecké zahradě ve Vidimi","P31":"http://www.wikidata.org/entity/Q179700","P31^label:cs":"Socha","P131^label:cs":"Vidim","P6736":"41027"},"geometry":{"type":"Point","coordinates":[14.52481,50.4657]}},{"type":"Feature","properties":{"label:cs":"Pamětní deska Josefa Wilde ve vstupu na hřbitov ve Vidimi","P31":"http://www.wikidata.org/entity/Q721747","P31^label:cs":"Pamětní deska","P131^label:cs":"Vidim","P6736":"41026"},"geometry":{"type":"Point","coordinates":[14.52709,50.47053]}},{"type":"Feature","properties":{"label:cs":"Kašna v zámeckém parku ve Vidimi","P31":"http://www.wikidata.org/entity/Q12029081","P31^label:cs":"Kašna","P131^label:cs":"Vidim","P6736":"41012"},"geometry":{"type":"Point","coordinates":[14.52527,50.46592]}},{"type":"Feature","properties":{"label:cs":"Sochy puttů s rybami na schodišti v zámeckém parku ve Vidimi","P31":"http://www.wikidata.org/entity/Q179700","P31^label:cs":"Socha","P131^label:cs":"Vidim","P6736":"41011"},"geometry":{"type":"Point","coordinates":[14.52557,50.4662]}},{"type":"Feature","properties":{"label:cs":"Socha Ganymeda v zámeckém parku ve Vidimi","P31":"http://www.wikidata.org/entity/Q179700","P31^label:cs":"Socha","P131^label:cs":"Vidim","P6736":"41010"},"geometry":{"type":"Point","coordinates":[14.52605,50.46619]}},{"type":"Feature","properties":{"label:cs":"Socha Herkula v zámeckém parku ve Vidimi","P31":"http://www.wikidata.org/entity/Q179700","P31^label:cs":"Socha","P131^label:cs":"Vidim","P6736":"41009"},"geometry":{"type":"Point","coordinates":[14.52595,50.46617]}},{"type":"Feature","properties":{"label:cs":"Sochy jelenů na sloupech brány k zámku ve Vidimi","P31":"http://www.wikidata.org/entity/Q179700","P31^label:cs":"Socha","P131^label:cs":"Vidim","P6736":"41008"},"geometry":{"type":"Point","coordinates":[14.52557,50.46641]}},{"type":"Feature","properties":{"label:cs":"Sochy putti na sloupech brány naproti zámku ve Vidimi","P31":"http://www.wikidata.org/entity/Q179700","P31^label:cs":"Socha","P131^label:cs":"Vidim","P6736":"41007"},"geometry":{"type":"Point","coordinates":[14.52545,50.46648]}},{"type":"Feature","properties":{"label:cs":"Reliéf Ježíše Krista vytesaný ve skále u komunikace pod návsí ve Vidimi","P31":"http://www.wikidata.org/entity/Q245117","P31^label:cs":"Reliéf","P131^label:cs":"Vidim","P6736":"30007"},"geometry":{"type":"Point","coordinates":[14.52584,50.46885]}},{"type":"Feature","properties":{"label:cs":"Socha svatého Jana Nepomuckého na návsi ve Vidimi","P31":"http://www.wikidata.org/entity/Q179700","P31^label:cs":"Socha","P131^label:cs":"Vidim","P6736":"30006"},"geometry":{"type":"Point","coordinates":[14.52643,50.46706]}},{"type":"Feature","properties":{"label:cs":"Památník osvobození v květnu 1945 u kostela svatého Martina ve Vidimi","P31":"http://www.wikidata.org/entity/Q5003624","P31^label:cs":"Památník","P131^label:cs":"Vidim","P6736":"30005"},"geometry":{"type":"Point","coordinates":[14.52672,50.46751]}},{"type":"Feature","properties":{"label:cs":"Socha svaté Anny u vchodu do kostela svatého Martina ve Vidimi","P31":"http://www.wikidata.org/entity/Q179700","P31^label:cs":"Socha","P131^label:cs":"Vidim","P6736":"30004"},"geometry":{"type":"Point","coordinates":[14.52663,50.46756]}},{"type":"Feature","properties":{"label:cs":"Socha svatého Augustina u vchodu do kostela svatého Martina ve Vidimi","P31":"http://www.wikidata.org/entity/Q179700","P31^label:cs":"Socha","P131^label:cs":"Vidim","P6736":"30003"},"geometry":{"type":"Point","coordinates":[14.52654,50.46758]}},{"type":"Feature","properties":{"label:cs":"Kaplička při silnici na západním okraji Vidimi","P31":"http://www.wikidata.org/entity/Q14552192","P31^label:cs":"Kaplička","P131^label:cs":"Vidim","P6736":"16116"},"geometry":{"type":"Point","coordinates":[14.52396,50.46515]}}]}