{"type":"FeatureCollection","features":[{"type":"Feature","properties":{"label:cs":"Kaplička u silnice na západním okraji Čakoviček","P31":"http://www.wikidata.org/entity/Q14552192","P31^label:cs":"Kaplička","P131^label:cs":"Čakovičky","P6736":"29460"},"geometry":{"type":"Point","coordinates":[14.52564,50.23199]}},{"type":"Feature","properties":{"label:cs":"Zvonička na návsi v Čakovičkách","P31":"http://www.wikidata.org/entity/Q10861631","P31^label:cs":"Zvonička","P131^label:cs":"Čakovičky","P6736":"29459"},"geometry":{"type":"Point","coordinates":[14.5319,50.23143]}},{"type":"Feature","properties":{"label:cs":"Pomník padlým v 1. světové válce v Čakovičkách","P31":"http://www.wikidata.org/entity/Q575759","P31^label:cs":"Pomník padlým","P131^label:cs":"Čakovičky","P6736":"29458"},"geometry":{"type":"Point","coordinates":[14.5321,50.23121]}},{"type":"Feature","properties":{"label:cs":"Kaplička na rozcestí na jižním okraji Čakoviček","P31":"http://www.wikidata.org/entity/Q14552192","P31^label:cs":"Kaplička","P131^label:cs":"Čakovičky","P6736":"29457"},"geometry":{"type":"Point","coordinates":[14.5324,50.22773]}},{"type":"Feature","properties":{"label:cs":"Kaple na návsi v Nové Vsi","P31":"http://www.wikidata.org/entity/Q108325","P31^label:cs":"Kaple","P131^label:cs":"Nová Ves","P6736":"42304"},"geometry":{"type":"Point","coordinates":[14.53599,50.21943]}}]}