{"type":"FeatureCollection","features":[{"type":"Feature","properties":{"label:cs":"Kaplička v Hartmanicích na návsi","P31":"http://www.wikidata.org/entity/Q14552192","P31^label:cs":"Kaplička","P131^label:cs":"Hartmanice","P6736":"6357"},"geometry":{"type":"Point","coordinates":[14.56455,49.20752]}},{"type":"Feature","properties":{"label:cs":"Kaple v Hartmanicích","P31":"http://www.wikidata.org/entity/Q108325","P31^label:cs":"Kaple","P131^label:cs":"Hartmanice","P6736":"6356"},"geometry":{"type":"Point","coordinates":[14.56539,49.20701]}},{"type":"Feature","properties":{"label:cs":"Pomník padlým v Hartmanicích","P31":"http://www.wikidata.org/entity/Q575759","P31^label:cs":"Pomník padlým","P131^label:cs":"Hartmanice","P6736":"6355"},"geometry":{"type":"Point","coordinates":[14.56546,49.20709]}},{"type":"Feature","properties":{"label:cs":"Kaplička v Hartmanicích u křižovatky","P31":"http://www.wikidata.org/entity/Q14552192","P31^label:cs":"Kaplička","P131^label:cs":"Hartmanice","P6736":"6354"},"geometry":{"type":"Point","coordinates":[14.56768,49.20784]}},{"type":"Feature","properties":{"label:cs":"Kaplička nad Hartmanicemi","P31":"http://www.wikidata.org/entity/Q14552192","P31^label:cs":"Kaplička","P131^label:cs":"Hartmanice","P6736":"1507"},"geometry":{"type":"Point","coordinates":[14.55719,49.21023]}},{"type":"Feature","properties":{"label:cs":"Kaplička u Hartmanic","P31":"http://www.wikidata.org/entity/Q14552192","P31^label:cs":"Kaplička","P131^label:cs":"Hartmanice","P6736":"1506"},"geometry":{"type":"Point","coordinates":[14.56362,49.20456]}}]}