{"type":"FeatureCollection","features":[{"type":"Feature","properties":{"label:cs":"Dřevěná zvonice u domu 41 v Horním Podluží","P31":"http://www.wikidata.org/entity/Q200334","P31^label:cs":"Zvonice","P131^label:cs":"Horní Podluží","P6736":"28524"},"geometry":{"type":"Point","coordinates":[14.54773,50.88045]}},{"type":"Feature","properties":{"label:cs":"Socha svatého Josefa u domu 96 v Horním Podluží","P31":"http://www.wikidata.org/entity/Q179700","P31^label:cs":"Socha","P131^label:cs":"Horní Podluží","P6736":"28525"},"geometry":{"type":"Point","coordinates":[14.55357,50.88258]}},{"type":"Feature","properties":{"label:cs":"Kříž u lávky přes Lužničku v Horním Podluží","P31":"http://www.wikidata.org/entity/Q2309609","P31^label:cs":"Pamětní kříž","P131^label:cs":"Horní Podluží","P6736":"28526"},"geometry":{"type":"Point","coordinates":[14.55651,50.88198]}},{"type":"Feature","properties":{"label:cs":"Socha svatého Jana Nepomuckého u lávky přes Lužničku v Horním Podluží","P31":"http://www.wikidata.org/entity/Q179700","P31^label:cs":"Socha","P131^label:cs":"Horní Podluží","P6736":"28527"},"geometry":{"type":"Point","coordinates":[14.55649,50.88194]}},{"type":"Feature","properties":{"label:cs":"Socha Kalvárie u domu 302 v Horním Podluží","P31":"http://www.wikidata.org/entity/Q179700","P31^label:cs":"Socha","P131^label:cs":"Horní Podluží","P6736":"28528"},"geometry":{"type":"Point","coordinates":[14.5555,50.88147]}},{"type":"Feature","properties":{"label:cs":"Kříž u Lužničky pod domem 101 v Horním Podluží","P31":"http://www.wikidata.org/entity/Q2309609","P31^label:cs":"Pamětní kříž","P131^label:cs":"Horní Podluží","P6736":"28529"},"geometry":{"type":"Point","coordinates":[14.55988,50.88189]}},{"type":"Feature","properties":{"label:cs":"Kříž u cyklostezky poblíž domu 289 v Horním Podluží","P31":"http://www.wikidata.org/entity/Q2309609","P31^label:cs":"Pamětní kříž","P131^label:cs":"Horní Podluží","P6736":"28530"},"geometry":{"type":"Point","coordinates":[14.56145,50.88052]}},{"type":"Feature","properties":{"label:cs":"Kříž u cyklostezky jižně od Horního Podluží","P31":"http://www.wikidata.org/entity/Q2309609","P31^label:cs":"Pamětní kříž","P131^label:cs":"Horní Podluží","P6736":"28531"},"geometry":{"type":"Point","coordinates":[14.56418,50.87825]}}]}