{"type":"FeatureCollection","features":[{"type":"Feature","properties":{"label:cs":"Socha Medvědi ve vnitrobloku v ulici Jiráskova v Novém Boru","P31":"Q179700","P31^label:cs":"Socha","P131^label:cs":"Nový Bor","P6736":"25628"},"geometry":{"type":"Point","coordinates":[14.55407,50.75404]}},{"type":"Feature","properties":{"label:cs":"Skleněná plastika na třídě T.G.Masaryka v Novém Boru","P31":"Q12045520","P31^label:cs":"Plastika","P131^label:cs":"Nový Bor","P6736":"25627"},"geometry":{"type":"Point","coordinates":[14.55345,50.75487]}},{"type":"Feature","properties":{"label:cs":"Kašna před kinem v Novém Boru","P31":"Q12029081","P31^label:cs":"Kašna","P131^label:cs":"Nový Bor","P6736":"25626"},"geometry":{"type":"Point","coordinates":[14.55355,50.75849]}},{"type":"Feature","properties":{"label:cs":"Pomník Bedřicha Smetany v Smetanových sadech v Novém Boru","P31":"Q4989906","P31^label:cs":"Pomník","P131^label:cs":"Nový Bor","P6736":"25625"},"geometry":{"type":"Point","coordinates":[14.55386,50.75878]}},{"type":"Feature","properties":{"label:cs":"Socha Panny Marie u zdi kostela Nanebevzetí Panny Marie v Novém Boru","P31":"Q179700","P31^label:cs":"Socha","P131^label:cs":"Nový Bor","P6736":"25624"},"geometry":{"type":"Point","coordinates":[14.55723,50.75869]}},{"type":"Feature","properties":{"label:cs":"Soška svatého Floriána na zřejmě bývalé kapličce na Tyršově náměstí v Novém Boru","P31":"Q179700","P31^label:cs":"Socha","P131^label:cs":"Nový Bor","P6736":"25623"},"geometry":{"type":"Point","coordinates":[14.55649,50.76059]}},{"type":"Feature","properties":{"label:cs":"Socha na štítu parkhotelu Morris v Novém Boru","P31":"Q179700","P31^label:cs":"Socha","P131^label:cs":"Nový Bor","P6736":"25622"},"geometry":{"type":"Point","coordinates":[14.55673,50.76162]}},{"type":"Feature","properties":{"label:cs":"Plastika ze skla a kovu Spirála na Tyršově náměstí v Novém Boru","P31":"Q12045520","P31^label:cs":"Plastika","P131^label:cs":"Nový Bor","P6736":"25621"},"geometry":{"type":"Point","coordinates":[14.55682,50.76078]}},{"type":"Feature","properties":{"label:cs":"Socha babičky s vnučkou u kašny na Tyršově náměstí v Novém Boru","P31":"Q179700","P31^label:cs":"Socha","P131^label:cs":"Nový Bor","P6736":"25620"},"geometry":{"type":"Point","coordinates":[14.55657,50.76061]}},{"type":"Feature","properties":{"label:cs":"Kašna se sochou rybáře na Tyršově náměstí v Novém Boru","P31":"Q12029081","P31^label:cs":"Kašna","P131^label:cs":"Nový Bor","P6736":"25619"},"geometry":{"type":"Point","coordinates":[14.55659,50.76065]}},{"type":"Feature","properties":{"label:cs":"Plastika Kosmický koráb na náměstí Míru v Novém Boru","P31":"Q12045520","P31^label:cs":"Plastika","P131^label:cs":"Nový Bor","P6736":"25618"},"geometry":{"type":"Point","coordinates":[14.55721,50.75968]}},{"type":"Feature","properties":{"label:cs":"Kašna na náměstí Míru v Novém Boru","P31":"Q12029081","P31^label:cs":"Kašna","P131^label:cs":"Nový Bor","P6736":"25617"},"geometry":{"type":"Point","coordinates":[14.55686,50.75945]}},{"type":"Feature","properties":{"label:cs":"Pomník padlým v 1.světové válce na Lesním hřbitově v Novém Boru","P31":"Q575759","P31^label:cs":"Pomník padlým","P131^label:cs":"Nový Bor","P6736":"25616"},"geometry":{"type":"Point","coordinates":[14.56658,50.76057]}},{"type":"Feature","properties":{"label:cs":"Skalní obrázek svatého Kryštofa v Liberecké ulici v Novém Boru","P31":"Q478798","P31^label:cs":"Obrázek","P131^label:cs":"Nový Bor","P6736":"25610"},"geometry":{"type":"Point","coordinates":[14.562,50.76373]}},{"type":"Feature","properties":{"label:cs":"Kříž na Palackého náměstí v Novém Boru","P31":"Q2309609","P31^label:cs":"Pamětní kříž","P131^label:cs":"Nový Bor","P6736":"22992"},"geometry":{"type":"Point","coordinates":[14.55643,50.75546]}},{"type":"Feature","properties":{"label:cs":"Pomník Jana Husa v parku v České ulici v Novém Boru","P31":"Q4989906","P31^label:cs":"Pomník","P131^label:cs":"Nový Bor","P6736":"22991"},"geometry":{"type":"Point","coordinates":[14.55922,50.75341]}}]}