{"type":"FeatureCollection","features":[{"type":"Feature","properties":{"label:cs":"Památník Mistra Jana Husa před ZŠ ve Vinoři","P31":"Q5003624","P31^label:cs":"Památník","P131^label:cs":"Praha","P6736":"16629"},"geometry":{"type":"Point","coordinates":[14.5814,50.14637]}},{"type":"Feature","properties":{"label:cs":"Socha sv. Jana Nepomuckého před ZŠ ve Vinoři","P31":"Q179700","P31^label:cs":"Socha","P131^label:cs":"Praha","P6736":"16628"},"geometry":{"type":"Point","coordinates":[14.58043,50.14258]}},{"type":"Feature","properties":{"label:cs":"Pomník padlým v 2. světové válce ve středu Vinoře","P31":"Q575759","P31^label:cs":"Pomník padlým","P131^label:cs":"Praha","P6736":"16627"},"geometry":{"type":"Point","coordinates":[14.57965,50.14449]}},{"type":"Feature","properties":{"label:cs":"Pomník padlým v 1. světové válce ve středu Vinoře","P31":"Q575759","P31^label:cs":"Pomník padlým","P131^label:cs":"Praha","P6736":"16626"},"geometry":{"type":"Point","coordinates":[14.57974,50.14469]}},{"type":"Feature","properties":{"label:cs":"Památník osvobození Rudou armádou a pomník padlých rudoarmějců ve středu Vinoře","P31":"Q5003624","P31^label:cs":"Památník","P131^label:cs":"Praha","P6736":"16625"},"geometry":{"type":"Point","coordinates":[14.57997,50.14483]}},{"type":"Feature","properties":{"label:cs":"Kaple č. 25 poutní cesty Via Sancta Stará Boleslav - Praha ve středu Vinoře","P31":"Q108325","P31^label:cs":"Kaple","P131^label:cs":"Praha","P6736":"16624"},"geometry":{"type":"Point","coordinates":[14.58029,50.14481]}},{"type":"Feature","properties":{"label:cs":"Rozlučkový kříž na okraji Ctěnického háje u zastávky autobusu","P31":"Q3395121","P31^label:cs":"Boží muka","P131^label:cs":"Praha","P6736":"15543"},"geometry":{"type":"Point","coordinates":[14.57836,50.14833]}}]}