{"type":"FeatureCollection","features":[{"type":"Feature","properties":{"label:cs":"Kříž na jihozápadním okraji Nebužel","P31":"http://www.wikidata.org/entity/Q2309609","P31^label:cs":"Pamětní kříž","P131^label:cs":"Nebužely","P6736":"30942"},"geometry":{"type":"Point","coordinates":[14.58748,50.38991]}},{"type":"Feature","properties":{"label:cs":"Socha svatého Jana Nepomuckého u kostela svatého Jiljí v Nebuželech","P31":"http://www.wikidata.org/entity/Q179700","P31^label:cs":"Socha","P131^label:cs":"Nebužely","P6736":"30943"},"geometry":{"type":"Point","coordinates":[14.58914,50.39122]}},{"type":"Feature","properties":{"label:cs":"Pamětní deska padlým v 1. světové válce na zdi kostela svatého Jiljí v Nebuželech","P31":"http://www.wikidata.org/entity/Q721747","P31^label:cs":"Pamětní deska","P131^label:cs":"Nebužely","P6736":"30944"},"geometry":{"type":"Point","coordinates":[14.58905,50.39139]}},{"type":"Feature","properties":{"label:cs":"Pomník padlým na návsi v Nebuželech","P31":"http://www.wikidata.org/entity/Q575759","P31^label:cs":"Pomník padlým","P131^label:cs":"Nebužely","P6736":"30945"},"geometry":{"type":"Point","coordinates":[14.5876,50.39199]}},{"type":"Feature","properties":{"label:cs":"Kříž u domu 107 v Nebuželech","P31":"http://www.wikidata.org/entity/Q2309609","P31^label:cs":"Pamětní kříž","P131^label:cs":"Nebužely","P6736":"30946"},"geometry":{"type":"Point","coordinates":[14.58595,50.39347]}},{"type":"Feature","properties":{"label:cs":"Kříž u cesty na západním okraji Nebužel","P31":"http://www.wikidata.org/entity/Q2309609","P31^label:cs":"Pamětní kříž","P131^label:cs":"Nebužely","P6736":"30947"},"geometry":{"type":"Point","coordinates":[14.58408,50.39421]}},{"type":"Feature","properties":{"label:cs":"Kříž v úvozu severně od Nebužel","P31":"http://www.wikidata.org/entity/Q2309609","P31^label:cs":"Pamětní kříž","P131^label:cs":"Nebužely","P6736":"30948"},"geometry":{"type":"Point","coordinates":[14.58496,50.39603]}}]}