{"type":"FeatureCollection","features":[{"type":"Feature","properties":{"label:cs":"Kaple Maří Magdaleny v Chomoutech","P31":"http://www.wikidata.org/entity/Q108325","P31^label:cs":"Kaple","P131^label:cs":"Nový Bor","P6736":"39889"},"geometry":{"type":"Point","coordinates":[14.57313,50.7291]}},{"type":"Feature","properties":{"label:cs":"Kříž u silnice z Bukovan do Sloupu","P31":"http://www.wikidata.org/entity/Q2309609","P31^label:cs":"Pamětní kříž","P131^label:cs":"Nový Bor","P6736":"39888"},"geometry":{"type":"Point","coordinates":[14.57712,50.73208]}},{"type":"Feature","properties":{"label:cs":"Kříž u lesní cesty jihovýchodně od Sloupu","P31":"http://www.wikidata.org/entity/Q2309609","P31^label:cs":"Pamětní kříž","P131^label:cs":"Sloup v Čechách","P6736":"39016"},"geometry":{"type":"Point","coordinates":[14.58648,50.73188]}},{"type":"Feature","properties":{"label:cs":"Pamětní deska Františka Josefa I. na hradu Sloup","P31":"http://www.wikidata.org/entity/Q721747","P31^label:cs":"Pamětní deska","P131^label:cs":"Sloup v Čechách","P6736":"39015"},"geometry":{"type":"Point","coordinates":[14.58085,50.73588]}},{"type":"Feature","properties":{"label:cs":"Socha poustevníka na hradě Sloup","P31":"http://www.wikidata.org/entity/Q179700","P31^label:cs":"Socha","P131^label:cs":"Sloup v Čechách","P6736":"22993"},"geometry":{"type":"Point","coordinates":[14.58105,50.73581]}}]}