{"type":"FeatureCollection","features":[{"type":"Feature","properties":{"label:cs":"Kříž u kostela v Kamenici","P31":"http://www.wikidata.org/entity/Q2309609","P31^label:cs":"Pamětní kříž","P131^label:cs":"Kamenice","P6736":"33303"},"geometry":{"type":"Point","coordinates":[14.58268,49.89849]}},{"type":"Feature","properties":{"label:cs":"Kříž na místě zrušeného hřbitova v Těptíně","P31":"http://www.wikidata.org/entity/Q2309609","P31^label:cs":"Pamětní kříž","P131^label:cs":"Kamenice","P6736":"33304"},"geometry":{"type":"Point","coordinates":[14.57757,49.89781]}},{"type":"Feature","properties":{"label:cs":"Kříž na hrobce Ringhofferů v Těptíně","P31":"http://www.wikidata.org/entity/Q2309609","P31^label:cs":"Pamětní kříž","P131^label:cs":"Kamenice","P6736":"33305"},"geometry":{"type":"Point","coordinates":[14.57205,49.89821]}},{"type":"Feature","properties":{"label:cs":"Centrální kříž na hřbitově v Těptíně","P31":"http://www.wikidata.org/entity/Q2309609","P31^label:cs":"Pamětní kříž","P131^label:cs":"Kamenice","P6736":"33306"},"geometry":{"type":"Point","coordinates":[14.56856,49.89733]}},{"type":"Feature","properties":{"label:cs":"Kaple na hřbitově v Těptíně","P31":"http://www.wikidata.org/entity/Q108325","P31^label:cs":"Kaple","P131^label:cs":"Kamenice","P6736":"33307"},"geometry":{"type":"Point","coordinates":[14.56873,49.8972]}}]}