{"type":"FeatureCollection","features":[{"type":"Feature","properties":{"label:cs":"Kříž na rozcestí polních cest severně od Radvance","P31":"http://www.wikidata.org/entity/Q2309609","P31^label:cs":"Pamětní kříž","P131^label:cs":"Radvanec","P6736":"39159"},"geometry":{"type":"Point","coordinates":[14.59533,50.76408]}},{"type":"Feature","properties":{"label:cs":"Skalní reliéf Krista na Kalvárii u lesní cesty severně od Radvance","P31":"http://www.wikidata.org/entity/Q245117","P31^label:cs":"Reliéf","P131^label:cs":"Radvanec","P6736":"39158"},"geometry":{"type":"Point","coordinates":[14.59439,50.76136]}},{"type":"Feature","properties":{"label:cs":"Skalní kříž poblíž domu 29 v Radvanci","P31":"http://www.wikidata.org/entity/Q38411643","P31^label:cs":"Křížový kámen","P131^label:cs":"Radvanec","P6736":"39157"},"geometry":{"type":"Point","coordinates":[14.59263,50.75682]}},{"type":"Feature","properties":{"label:cs":"Skalní reliéf Krista na Kalvárii u domu 105 v Radvanci","P31":"http://www.wikidata.org/entity/Q245117","P31^label:cs":"Reliéf","P131^label:cs":"Radvanec","P6736":"39156"},"geometry":{"type":"Point","coordinates":[14.59235,50.75603]}},{"type":"Feature","properties":{"label:cs":"Sloup svatého Antonína pod obecním úřadem v Radvanci","P31":"http://www.wikidata.org/entity/Q4817","P31^label:cs":"Sloup","P131^label:cs":"Radvanec","P6736":"39155"},"geometry":{"type":"Point","coordinates":[14.59235,50.7544]}},{"type":"Feature","properties":{"label:cs":"Sluneční hodiny naproti obecnímu úřadu v Radvanci","P31":"http://www.wikidata.org/entity/Q376","P31^label:cs":"Hodiny","P131^label:cs":"Radvanec","P6736":"39154"},"geometry":{"type":"Point","coordinates":[14.59291,50.75436]}},{"type":"Feature","properties":{"label:cs":"Reliéf ve skále pod kaplí v Radvanci","P31":"http://www.wikidata.org/entity/Q245117","P31^label:cs":"Reliéf","P131^label:cs":"Radvanec","P6736":"39153"},"geometry":{"type":"Point","coordinates":[14.59205,50.75362]}},{"type":"Feature","properties":{"label:cs":"Kaple svatého Antonína Paduánského v Radvanci","P31":"http://www.wikidata.org/entity/Q108325","P31^label:cs":"Kaple","P131^label:cs":"Radvanec","P6736":"39152"},"geometry":{"type":"Point","coordinates":[14.59221,50.75354]}},{"type":"Feature","properties":{"label:cs":"Kříž u autobusové zastávky v Radvanci","P31":"http://www.wikidata.org/entity/Q2309609","P31^label:cs":"Pamětní kříž","P131^label:cs":"Radvanec","P6736":"39151"},"geometry":{"type":"Point","coordinates":[14.59005,50.75216]}},{"type":"Feature","properties":{"label:cs":"Kříž na rozcestí v Radvanci","P31":"http://www.wikidata.org/entity/Q2309609","P31^label:cs":"Pamětní kříž","P131^label:cs":"Radvanec","P6736":"39150"},"geometry":{"type":"Point","coordinates":[14.59106,50.75105]}},{"type":"Feature","properties":{"label:cs":"Socha svatého Jana Nepomuckého u potoka v Radvanci","P31":"http://www.wikidata.org/entity/Q179700","P31^label:cs":"Socha","P131^label:cs":"Radvanec","P6736":"39149"},"geometry":{"type":"Point","coordinates":[14.5923,50.75144]}},{"type":"Feature","properties":{"label:cs":"Kaplička u školicího střediska v Maxově","P31":"http://www.wikidata.org/entity/Q14552192","P31^label:cs":"Kaplička","P131^label:cs":"Radvanec","P6736":"39148"},"geometry":{"type":"Point","coordinates":[14.61004,50.75188]}}]}