{"type":"FeatureCollection","features":[{"type":"Feature","properties":{"label:cs":"Kříž v Hrutově","P31":"http://www.wikidata.org/entity/Q2309609","P31^label:cs":"Pamětní kříž","P131^label:cs":"Lišov","P6736":"37362"},"geometry":{"type":"Point","coordinates":[14.60739,49.04254]}},{"type":"Feature","properties":{"label:cs":"Kaple v Hrutově","P31":"http://www.wikidata.org/entity/Q108325","P31^label:cs":"Kaple","P131^label:cs":"Lišov","P6736":"37361"},"geometry":{"type":"Point","coordinates":[14.60746,49.04236]}},{"type":"Feature","properties":{"label:cs":"Kříž v Hrutově před statkem","P31":"http://www.wikidata.org/entity/Q2309609","P31^label:cs":"Pamětní kříž","P131^label:cs":"Lišov","P6736":"37360"},"geometry":{"type":"Point","coordinates":[14.60678,49.04166]}},{"type":"Feature","properties":{"label:cs":"Kříž v Hrutově u zatáčky","P31":"http://www.wikidata.org/entity/Q2309609","P31^label:cs":"Pamětní kříž","P131^label:cs":"Lišov","P6736":"37359"},"geometry":{"type":"Point","coordinates":[14.6051,49.04356]}},{"type":"Feature","properties":{"label:cs":"Kříž v Hrutově na zahradě","P31":"http://www.wikidata.org/entity/Q2309609","P31^label:cs":"Pamětní kříž","P131^label:cs":"Lišov","P6736":"37358"},"geometry":{"type":"Point","coordinates":[14.60529,49.04354]}},{"type":"Feature","properties":{"label:cs":"Kříž v Hrutově v zahradě","P31":"http://www.wikidata.org/entity/Q2309609","P31^label:cs":"Pamětní kříž","P131^label:cs":"Lišov","P6736":"37356"},"geometry":{"type":"Point","coordinates":[14.60498,49.04336]}}]}