{"type":"FeatureCollection","features":[{"type":"Feature","properties":{"label:cs":"Kříž jižně od Zvíkova u stromu v poli","P31":"http://www.wikidata.org/entity/Q2309609","P31^label:cs":"Pamětní kříž","P131^label:cs":"Zvíkov","P6736":"2892"},"geometry":{"type":"Point","coordinates":[14.6123,48.97416]}},{"type":"Feature","properties":{"label:cs":"Kříž jižně od Zvíkova u okraje louky","P31":"http://www.wikidata.org/entity/Q2309609","P31^label:cs":"Pamětní kříž","P131^label:cs":"Zvíkov","P6736":"2895"},"geometry":{"type":"Point","coordinates":[14.62189,48.97745]}},{"type":"Feature","properties":{"label:cs":"Kříž jižně od Zvíkova u polní cesty","P31":"http://www.wikidata.org/entity/Q2309609","P31^label:cs":"Pamětní kříž","P131^label:cs":"Zvíkov","P6736":"2893"},"geometry":{"type":"Point","coordinates":[14.61411,48.97779]}},{"type":"Feature","properties":{"label:cs":"Kříž jižně od Zvíkova na rozcestí","P31":"http://www.wikidata.org/entity/Q2309609","P31^label:cs":"Pamětní kříž","P131^label:cs":"Zvíkov","P6736":"2896"},"geometry":{"type":"Point","coordinates":[14.6215,48.97622]}},{"type":"Feature","properties":{"label:cs":"Kříž východně od Zvíkova u cesty","P31":"http://www.wikidata.org/entity/Q2309609","P31^label:cs":"Pamětní kříž","P131^label:cs":"Zvíkov","P6736":"2889"},"geometry":{"type":"Point","coordinates":[14.6235,48.97889]}},{"type":"Feature","properties":{"label:cs":"Kříž mezi Zvíkovem a Vlkovicemi","P31":"http://www.wikidata.org/entity/Q2309609","P31^label:cs":"Pamětní kříž","P131^label:cs":"Zvíkov","P6736":"2891"},"geometry":{"type":"Point","coordinates":[14.62845,48.97894]}},{"type":"Feature","properties":{"label:cs":"Kříž západně od Vlkovic","P31":"http://www.wikidata.org/entity/Q2309609","P31^label:cs":"Pamětní kříž","P131^label:cs":"Zvíkov","P6736":"2887"},"geometry":{"type":"Point","coordinates":[14.62865,48.97895]}},{"type":"Feature","properties":{"label:cs":"Kříž jižně od Zvíkova","P31":"http://www.wikidata.org/entity/Q2309609","P31^label:cs":"Pamětní kříž","P131^label:cs":"Zvíkov","P6736":"2894"},"geometry":{"type":"Point","coordinates":[14.61614,48.97855]}}]}