{"type":"FeatureCollection","features":[{"type":"Feature","properties":{"label:cs":"Pamětní deska Bjarnata Krawce na domě 2408 v ulici Bjarnata Krawce ve Varnsdorfu","P31":"http://www.wikidata.org/entity/Q721747","P31^label:cs":"Pamětní deska","P131^label:cs":"Varnsdorf","P6736":"29071"},"geometry":{"type":"Point","coordinates":[14.61518,50.91265]}},{"type":"Feature","properties":{"label:cs":"Kříž u mostu přes Mandavu v ulici Petra Bezruče ve Varnsdorfu","P31":"http://www.wikidata.org/entity/Q2309609","P31^label:cs":"Pamětní kříž","P131^label:cs":"Varnsdorf","P6736":"29070"},"geometry":{"type":"Point","coordinates":[14.61389,50.91583]}},{"type":"Feature","properties":{"label:cs":"Kříž v ulici Štefánikova ve Varnsdorfu","P31":"http://www.wikidata.org/entity/Q2309609","P31^label:cs":"Pamětní kříž","P131^label:cs":"Varnsdorf","P6736":"29060"},"geometry":{"type":"Point","coordinates":[14.62373,50.91259]}},{"type":"Feature","properties":{"label:cs":"Kříž u domu 471 na náměstí Edvarda Beneše ve Varnsdorfu","P31":"http://www.wikidata.org/entity/Q2309609","P31^label:cs":"Pamětní kříž","P131^label:cs":"Varnsdorf","P6736":"29059"},"geometry":{"type":"Point","coordinates":[14.62044,50.91167]}},{"type":"Feature","properties":{"label:cs":"Pamětní deska Hanky Krawcec na domě 471 na náměstí Edvarda Beneše ve Varnsdorfu","P31":"http://www.wikidata.org/entity/Q721747","P31^label:cs":"Pamětní deska","P131^label:cs":"Varnsdorf","P6736":"29030"},"geometry":{"type":"Point","coordinates":[14.62023,50.91181]}},{"type":"Feature","properties":{"label:cs":"Pamětní deska 1. uvedení Missa Solemnis na kostele svatých Petra a Pavla ve Varnsdorfu","P31":"http://www.wikidata.org/entity/Q721747","P31^label:cs":"Pamětní deska","P131^label:cs":"Varnsdorf","P6736":"29026"},"geometry":{"type":"Point","coordinates":[14.61998,50.91206]}},{"type":"Feature","properties":{"label:cs":"Socha Panny Marie u kostela svatých Petra a Pavla ve Varnsdorfu","P31":"http://www.wikidata.org/entity/Q179700","P31^label:cs":"Socha","P131^label:cs":"Varnsdorf","P6736":"29024"},"geometry":{"type":"Point","coordinates":[14.61994,50.91209]}},{"type":"Feature","properties":{"label:cs":"Socha Mateřství před školkou Pražská 2812 ve Varnsdorfu","P31":"http://www.wikidata.org/entity/Q179700","P31^label:cs":"Socha","P131^label:cs":"Varnsdorf","P6736":"29022"},"geometry":{"type":"Point","coordinates":[14.61951,50.90696]}},{"type":"Feature","properties":{"label:cs":"Pomník osvobození v parku v Národní ulici ve Varnsdorfu","P31":"http://www.wikidata.org/entity/Q4989906","P31^label:cs":"Pomník","P131^label:cs":"Varnsdorf","P6736":"29020"},"geometry":{"type":"Point","coordinates":[14.62436,50.90901]}}]}