{"type":"FeatureCollection","features":[{"type":"Feature","properties":{"label:cs":"Kaplička západně od Dynína","P31":"http://www.wikidata.org/entity/Q14552192","P31^label:cs":"Kaplička","P131^label:cs":"Dynín","P6736":"38057"},"geometry":{"type":"Point","coordinates":[14.62625,49.13708]}},{"type":"Feature","properties":{"label:cs":"Pomník padlým v Dyníně","P31":"http://www.wikidata.org/entity/Q575759","P31^label:cs":"Pomník padlým","P131^label:cs":"Dynín","P6736":"38056"},"geometry":{"type":"Point","coordinates":[14.6328,49.13697]}},{"type":"Feature","properties":{"label:cs":"Kříž u kaple v Dyníně","P31":"http://www.wikidata.org/entity/Q2309609","P31^label:cs":"Pamětní kříž","P131^label:cs":"Dynín","P6736":"38055"},"geometry":{"type":"Point","coordinates":[14.6329,49.13699]}},{"type":"Feature","properties":{"label:cs":"Kaple v Dyníně","P31":"http://www.wikidata.org/entity/Q108325","P31^label:cs":"Kaple","P131^label:cs":"Dynín","P6736":"38054"},"geometry":{"type":"Point","coordinates":[14.63299,49.13697]}},{"type":"Feature","properties":{"label:cs":"Kaplička jižně od Dynína","P31":"http://www.wikidata.org/entity/Q14552192","P31^label:cs":"Kaplička","P131^label:cs":"Dynín","P6736":"38051"},"geometry":{"type":"Point","coordinates":[14.62904,49.12567]}}]}