{"type":"FeatureCollection","features":[{"type":"Feature","properties":{"label:cs":"Socha svatého Jana na Křížovém vrchu u Cvikova","P31":"http://www.wikidata.org/entity/Q179700","P31^label:cs":"Socha","P131^label:cs":"Cvikov","P6736":"41801"},"geometry":{"type":"Point","coordinates":[14.64415,50.78859]}},{"type":"Feature","properties":{"label:cs":"Socha svaté Maří Magdaleny na Křížovém vrchu u Cvikova","P31":"http://www.wikidata.org/entity/Q179700","P31^label:cs":"Socha","P131^label:cs":"Cvikov","P6736":"41800"},"geometry":{"type":"Point","coordinates":[14.64399,50.78859]}},{"type":"Feature","properties":{"label:cs":"Kříž na Křížovém vrchu u Cvikova","P31":"http://www.wikidata.org/entity/Q2309609","P31^label:cs":"Pamětní kříž","P131^label:cs":"Cvikov","P6736":"41799"},"geometry":{"type":"Point","coordinates":[14.64406,50.78863]}},{"type":"Feature","properties":{"label:cs":"Kaple Božího hrobu na Křížovém vrchu u Cvikova","P31":"http://www.wikidata.org/entity/Q108325","P31^label:cs":"Kaple","P131^label:cs":"Cvikov","P6736":"41798"},"geometry":{"type":"Point","coordinates":[14.64394,50.78845]}},{"type":"Feature","properties":{"label:cs":"Kaplička XIV. zastavení křížové cesty u Cvikova","P31":"http://www.wikidata.org/entity/Q14552192","P31^label:cs":"Kaplička","P131^label:cs":"Cvikov","P6736":"41797"},"geometry":{"type":"Point","coordinates":[14.64365,50.78831]}},{"type":"Feature","properties":{"label:cs":"Kaplička XIII. zastavení křížové cesty u Cvikova","P31":"http://www.wikidata.org/entity/Q14552192","P31^label:cs":"Kaplička","P131^label:cs":"Cvikov","P6736":"41796"},"geometry":{"type":"Point","coordinates":[14.64346,50.78812]}},{"type":"Feature","properties":{"label:cs":"Kaplička XII. zastavení křížové cesty u Cvikova","P31":"http://www.wikidata.org/entity/Q14552192","P31^label:cs":"Kaplička","P131^label:cs":"Cvikov","P6736":"41795"},"geometry":{"type":"Point","coordinates":[14.6433,50.78794]}},{"type":"Feature","properties":{"label:cs":"Kaplička XI. zastavení křížové cesty u Cvikova","P31":"http://www.wikidata.org/entity/Q14552192","P31^label:cs":"Kaplička","P131^label:cs":"Cvikov","P6736":"41794"},"geometry":{"type":"Point","coordinates":[14.64314,50.78779]}},{"type":"Feature","properties":{"label:cs":"Kaplička X. zastavení křížové cesty u Cvikova","P31":"http://www.wikidata.org/entity/Q14552192","P31^label:cs":"Kaplička","P131^label:cs":"Cvikov","P6736":"41793"},"geometry":{"type":"Point","coordinates":[14.64298,50.78764]}},{"type":"Feature","properties":{"label:cs":"Kaplička IX. zastavení křížové cesty u Cvikova","P31":"http://www.wikidata.org/entity/Q14552192","P31^label:cs":"Kaplička","P131^label:cs":"Cvikov","P6736":"41792"},"geometry":{"type":"Point","coordinates":[14.64281,50.78748]}},{"type":"Feature","properties":{"label:cs":"Kaplička VIII. zastavení křížové cesty u Cvikova","P31":"http://www.wikidata.org/entity/Q14552192","P31^label:cs":"Kaplička","P131^label:cs":"Cvikov","P6736":"41791"},"geometry":{"type":"Point","coordinates":[14.64264,50.7873]}},{"type":"Feature","properties":{"label:cs":"Kaplička VII. zastavení křížové cesty u Cvikova","P31":"http://www.wikidata.org/entity/Q14552192","P31^label:cs":"Kaplička","P131^label:cs":"Cvikov","P6736":"41790"},"geometry":{"type":"Point","coordinates":[14.64247,50.78712]}},{"type":"Feature","properties":{"label:cs":"Kaplička VI. zastavení křížové cesty u Cvikova","P31":"http://www.wikidata.org/entity/Q14552192","P31^label:cs":"Kaplička","P131^label:cs":"Cvikov","P6736":"41789"},"geometry":{"type":"Point","coordinates":[14.64229,50.78695]}},{"type":"Feature","properties":{"label:cs":"Kaplička V. zastavení křížové cesty u Cvikova","P31":"http://www.wikidata.org/entity/Q14552192","P31^label:cs":"Kaplička","P131^label:cs":"Cvikov","P6736":"41788"},"geometry":{"type":"Point","coordinates":[14.64216,50.78677]}},{"type":"Feature","properties":{"label:cs":"Kaplička IV. zastavení křížové cesty u Cvikova","P31":"http://www.wikidata.org/entity/Q14552192","P31^label:cs":"Kaplička","P131^label:cs":"Cvikov","P6736":"41787"},"geometry":{"type":"Point","coordinates":[14.64196,50.78662]}},{"type":"Feature","properties":{"label:cs":"Kaplička III. zastavení křížové cesty u Cvikova","P31":"http://www.wikidata.org/entity/Q14552192","P31^label:cs":"Kaplička","P131^label:cs":"Cvikov","P6736":"41786"},"geometry":{"type":"Point","coordinates":[14.6418,50.78645]}},{"type":"Feature","properties":{"label:cs":"Kaplička II. zastavení křížové cesty u Cvikova","P31":"http://www.wikidata.org/entity/Q14552192","P31^label:cs":"Kaplička","P131^label:cs":"Cvikov","P6736":"41785"},"geometry":{"type":"Point","coordinates":[14.64167,50.78625]}},{"type":"Feature","properties":{"label:cs":"Kaplička I. zastavení křížové cesty u Cvikova","P31":"http://www.wikidata.org/entity/Q14552192","P31^label:cs":"Kaplička","P131^label:cs":"Cvikov","P6736":"41784"},"geometry":{"type":"Point","coordinates":[14.64152,50.78605]}},{"type":"Feature","properties":{"label:cs":"Kaplička Ježíše přijímajícího pohár hořkosti pod křížovou cestou u Cvikova","P31":"http://www.wikidata.org/entity/Q14552192","P31^label:cs":"Kaplička","P131^label:cs":"Cvikov","P6736":"41783"},"geometry":{"type":"Point","coordinates":[14.6413,50.78584]}},{"type":"Feature","properties":{"label:cs":"Kříž u silnice severně od Cvikova","P31":"http://www.wikidata.org/entity/Q2309609","P31^label:cs":"Pamětní kříž","P131^label:cs":"Cvikov","P6736":"41782"},"geometry":{"type":"Point","coordinates":[14.63844,50.79172]}},{"type":"Feature","properties":{"label:cs":"Plastika českého lva u dětské léčebny v Cvikově","P31":"http://www.wikidata.org/entity/Q12045520","P31^label:cs":"Plastika","P131^label:cs":"Cvikov","P6736":"41780"},"geometry":{"type":"Point","coordinates":[14.63957,50.7847]}},{"type":"Feature","properties":{"label:cs":"Kaplička svaté Zdislavy v Ústavní ulici v Cvikově","P31":"http://www.wikidata.org/entity/Q14552192","P31^label:cs":"Kaplička","P131^label:cs":"Cvikov","P6736":"41779"},"geometry":{"type":"Point","coordinates":[14.63577,50.78102]}}]}