{"type":"FeatureCollection","features":[{"type":"Feature","properties":{"label:cs":"Výklenková kaplička u kostela Nanebevzetí Panny Marie v Trhových Svinech","P31":"http://www.wikidata.org/entity/Q14552192","P31^label:cs":"Kaplička","P131^label:cs":"Trhové Sviny","P6736":"38196"},"geometry":{"type":"Point","coordinates":[14.63635,48.84159]}},{"type":"Feature","properties":{"label:cs":"Kříž u kostela Nanebevzetí Panny Marie v Trhových Svinech","P31":"http://www.wikidata.org/entity/Q2309609","P31^label:cs":"Pamětní kříž","P131^label:cs":"Trhové Sviny","P6736":"38195"},"geometry":{"type":"Point","coordinates":[14.63624,48.84154]}},{"type":"Feature","properties":{"label:cs":"Pamětní deska Karlu Valdaufovi v Trhových Svinech","P31":"http://www.wikidata.org/entity/Q721747","P31^label:cs":"Pamětní deska","P131^label:cs":"Trhové Sviny","P6736":"38193"},"geometry":{"type":"Point","coordinates":[14.63678,48.84041]}},{"type":"Feature","properties":{"label:cs":"Pomník padlým na Žižkově náměstí v Trhových Svinech","P31":"http://www.wikidata.org/entity/Q575759","P31^label:cs":"Pomník padlým","P131^label:cs":"Trhové Sviny","P6736":"26286"},"geometry":{"type":"Point","coordinates":[14.63805,48.84041]}},{"type":"Feature","properties":{"label:cs":"Kašna na Žižkově náměstí v Trhových Svinech","P31":"http://www.wikidata.org/entity/Q12029081","P31^label:cs":"Kašna","P131^label:cs":"Trhové Sviny","P6736":"26284"},"geometry":{"type":"Point","coordinates":[14.63776,48.84047]}},{"type":"Feature","properties":{"label:cs":"Socha svatého Jana Nepomuckého a svaté Barbory na Žižkově náměstí v Trhových Svinech","P31":"http://www.wikidata.org/entity/Q179700","P31^label:cs":"Socha","P131^label:cs":"Trhové Sviny","P6736":"26283"},"geometry":{"type":"Point","coordinates":[14.63745,48.84054]}}]}