{"type":"FeatureCollection","features":[{"type":"Feature","properties":{"label:cs":"Vartenská kaple poutní cesty Via Sancta v Pražské ulici v Brandýse nad Labem","P31":"http://www.wikidata.org/entity/Q108325","P31^label:cs":"Kaple","P131^label:cs":"Brandýs nad Labem-Stará Boleslav","P6736":"18157"},"geometry":{"type":"Point","coordinates":[14.6548,50.17898]}},{"type":"Feature","properties":{"label:cs":"Pomník padlým z místní části Vrábí u Pražské ulice v Brandýse nad Labem","P31":"http://www.wikidata.org/entity/Q575759","P31^label:cs":"Pomník padlým","P131^label:cs":"Brandýs nad Labem-Stará Boleslav","P6736":"18152"},"geometry":{"type":"Point","coordinates":[14.6545,50.17916]}},{"type":"Feature","properties":{"label:cs":"Boží muka v ulici Pražská v Brandýse nad Labem","P31":"http://www.wikidata.org/entity/Q3395121","P31^label:cs":"Boží muka","P131^label:cs":"Brandýs nad Labem-Stará Boleslav","P6736":"18151"},"geometry":{"type":"Point","coordinates":[14.65417,50.17846]}},{"type":"Feature","properties":{"label:cs":"Kaple u tvrze Vrábí v Brandýse nad Labem","P31":"http://www.wikidata.org/entity/Q108325","P31^label:cs":"Kaple","P131^label:cs":"Brandýs nad Labem-Stará Boleslav","P6736":"18150"},"geometry":{"type":"Point","coordinates":[14.65088,50.1782]}},{"type":"Feature","properties":{"label:cs":"Kříž v parčíku u Výletní ulice v Brandýse nad Labem","P31":"http://www.wikidata.org/entity/Q2309609","P31^label:cs":"Pamětní kříž","P131^label:cs":"Brandýs nad Labem-Stará Boleslav","P6736":"18149"},"geometry":{"type":"Point","coordinates":[14.64882,50.18121]}},{"type":"Feature","properties":{"label:cs":"Kaplička u Hrušovského rybníka v Brandýse nad Labem","P31":"http://www.wikidata.org/entity/Q14552192","P31^label:cs":"Kaplička","P131^label:cs":"Brandýs nad Labem-Stará Boleslav","P6736":"18148"},"geometry":{"type":"Point","coordinates":[14.64112,50.18196]}},{"type":"Feature","properties":{"label:cs":"Kříž západně od Brandýsa nad Labem u polní cesty do Popovic","P31":"http://www.wikidata.org/entity/Q2309609","P31^label:cs":"Pamětní kříž","P131^label:cs":"Brandýs nad Labem-Stará Boleslav","P6736":"16183"},"geometry":{"type":"Point","coordinates":[14.63957,50.18346]}}]}