{"type":"FeatureCollection","features":[{"type":"Feature","properties":{"label:cs":"Plastika na sídlišti v Táboře","P31":"Q12045520","P31^label:cs":"Plastika","P131^label:cs":"Tábor","P6736":"10711"},"geometry":{"type":"Point","coordinates":[14.64833,49.42181]}},{"type":"Feature","properties":{"label:cs":"Sousoší u ulice Kapitána Jaroše v Táboře","P31":"Q179700","P31^label:cs":"Socha","P131^label:cs":"Tábor","P6736":"10710"},"geometry":{"type":"Point","coordinates":[14.6501,49.42004]}},{"type":"Feature","properties":{"label:cs":"Kašna v parku v Táboře","P31":"Q12029081","P31^label:cs":"Kašna","P131^label:cs":"Tábor","P6736":"10709"},"geometry":{"type":"Point","coordinates":[14.65231,49.42079]}},{"type":"Feature","properties":{"label:cs":"Plastika v parku v Táboře","P31":"Q12045520","P31^label:cs":"Plastika","P131^label:cs":"Tábor","P6736":"10708"},"geometry":{"type":"Point","coordinates":[14.652,49.42227]}},{"type":"Feature","properties":{"label:cs":"Sousoší hrochů v parku v Táboře","P31":"Q179700","P31^label:cs":"Socha","P131^label:cs":"Tábor","P6736":"10707"},"geometry":{"type":"Point","coordinates":[14.65271,49.4204]}},{"type":"Feature","properties":{"label:cs":"Pomník padlým v Klokotech","P31":"Q575759","P31^label:cs":"Pomník padlým","P131^label:cs":"Tábor","P6736":"7858"},"geometry":{"type":"Point","coordinates":[14.64463,49.41479]}},{"type":"Feature","properties":{"label:cs":"Památník obětem heydrichiády v Táboře","P31":"Q5003624","P31^label:cs":"Památník","P131^label:cs":"Tábor","P6736":"7782"},"geometry":{"type":"Point","coordinates":[14.65301,49.42197]}},{"type":"Feature","properties":{"label:cs":"Památník na konec druhé světové války v Táboře","P31":"Q5003624","P31^label:cs":"Památník","P131^label:cs":"Tábor","P6736":"7781"},"geometry":{"type":"Point","coordinates":[14.65333,49.41993]}},{"type":"Feature","properties":{"label:cs":"Kaple v Táboře u Lipové aleje","P31":"Q108325","P31^label:cs":"Kaple","P131^label:cs":"Tábor","P6736":"6742"},"geometry":{"type":"Point","coordinates":[14.64926,49.41394]}},{"type":"Feature","properties":{"label:cs":"Obrázek na Křížové cestě u Tábora - 5. zastavení","P31":"Q478798","P31^label:cs":"Obrázek","P131^label:cs":"Tábor","P6736":"2622"},"geometry":{"type":"Point","coordinates":[14.64689,49.41423]}},{"type":"Feature","properties":{"label:cs":"Obrázek na Křížové cestě u Tábora - 4. zastavení","P31":"Q478798","P31^label:cs":"Obrázek","P131^label:cs":"Tábor","P6736":"2621"},"geometry":{"type":"Point","coordinates":[14.64743,49.41418]}},{"type":"Feature","properties":{"label:cs":"Obrázek na Křížové cestě u Tábora - 3. zastavení","P31":"Q478798","P31^label:cs":"Obrázek","P131^label:cs":"Tábor","P6736":"2620"},"geometry":{"type":"Point","coordinates":[14.64797,49.41402]}},{"type":"Feature","properties":{"label:cs":"Obrázek na Křížové cestě u Tábora - 2. zastavení","P31":"Q478798","P31^label:cs":"Obrázek","P131^label:cs":"Tábor","P6736":"2619"},"geometry":{"type":"Point","coordinates":[14.64855,49.41399]}},{"type":"Feature","properties":{"label:cs":"Obrázek na Křížové cestě u Tábora - 1. zastavení","P31":"Q478798","P31^label:cs":"Obrázek","P131^label:cs":"Tábor","P6736":"2618"},"geometry":{"type":"Point","coordinates":[14.64913,49.41388]}},{"type":"Feature","properties":{"label:cs":"Kaple u Klokot u Tábora","P31":"Q108325","P31^label:cs":"Kaple","P131^label:cs":"Tábor","P6736":"2617"},"geometry":{"type":"Point","coordinates":[14.64856,49.41327]}},{"type":"Feature","properties":{"label:cs":"Obrázek na Křížové cestě u Tábora - 12. zastavení","P31":"Q478798","P31^label:cs":"Obrázek","P131^label:cs":"Tábor","P6736":"1735"},"geometry":{"type":"Point","coordinates":[14.63952,49.41283]}},{"type":"Feature","properties":{"label:cs":"Obrázek na Křížové cestě u Tábora - 11. zastavení","P31":"Q478798","P31^label:cs":"Obrázek","P131^label:cs":"Tábor","P6736":"1734"},"geometry":{"type":"Point","coordinates":[14.64043,49.41277]}},{"type":"Feature","properties":{"label:cs":"Obrázek na Křížové cestě u Tábora - 8. zastavení","P31":"Q478798","P31^label:cs":"Obrázek","P131^label:cs":"Tábor","P6736":"1739"},"geometry":{"type":"Point","coordinates":[14.64293,49.414]}},{"type":"Feature","properties":{"label:cs":"Obrázek na Křížové cestě u Tábora - 7. zastavení","P31":"Q478798","P31^label:cs":"Obrázek","P131^label:cs":"Tábor","P6736":"1738"},"geometry":{"type":"Point","coordinates":[14.64579,49.41446]}},{"type":"Feature","properties":{"label:cs":"Obrázek na Křížové cestě u Tábora - 6. zastavení","P31":"Q478798","P31^label:cs":"Obrázek","P131^label:cs":"Tábor","P6736":"1737"},"geometry":{"type":"Point","coordinates":[14.64635,49.41439]}},{"type":"Feature","properties":{"label:cs":"Obrázek na Křížové cestě u Tábora - 9. zastavení","P31":"Q478798","P31^label:cs":"Obrázek","P131^label:cs":"Tábor","P6736":"1733"},"geometry":{"type":"Point","coordinates":[14.64189,49.41344]}},{"type":"Feature","properties":{"label:cs":"Kříž na Křížové cestě u Tábora - 10. zastavení","P31":"Q2309609","P31^label:cs":"Pamětní kříž","P131^label:cs":"Tábor","P6736":"1732"},"geometry":{"type":"Point","coordinates":[14.64142,49.41306]}},{"type":"Feature","properties":{"label:cs":"Kaple na křížové cestě u Tábora","P31":"Q108325","P31^label:cs":"Kaple","P131^label:cs":"Tábor","P6736":"1736"},"geometry":{"type":"Point","coordinates":[14.6386,49.41278]}}]}