{"type":"FeatureCollection","features":[{"type":"Feature","properties":{"label:cs":"Sluneční hodiny u školky v Štefánikově ulici v Říčanech","P31":"http://www.wikidata.org/entity/Q376","P31^label:cs":"Hodiny","P131^label:cs":"Říčany","P6736":"31581"},"geometry":{"type":"Point","coordinates":[14.66205,49.9926]}},{"type":"Feature","properties":{"label:cs":"Busta Jana Amose Komenského u gymnázia v Říčanech","P31":"http://www.wikidata.org/entity/Q179700","P31^label:cs":"Socha","P131^label:cs":"Říčany","P6736":"31582"},"geometry":{"type":"Point","coordinates":[14.66271,49.99155]}},{"type":"Feature","properties":{"label:cs":"Pomník padlému Josefu Korešovi v parku v Olivově ulici v Říčanech","P31":"http://www.wikidata.org/entity/Q575759","P31^label:cs":"Pomník padlým","P131^label:cs":"Říčany","P6736":"31583"},"geometry":{"type":"Point","coordinates":[14.66099,49.99068]}},{"type":"Feature","properties":{"label:cs":"Reliéf na budově spořitelny na Masarykově náměstí v Říčanech","P31":"http://www.wikidata.org/entity/Q245117","P31^label:cs":"Reliéf","P131^label:cs":"Říčany","P6736":"31584"},"geometry":{"type":"Point","coordinates":[14.65732,49.99181]}},{"type":"Feature","properties":{"label:cs":"Pomník Tomáše Garrigue Masaryka na Masarykově náměstí v Říčanech","P31":"http://www.wikidata.org/entity/Q4989906","P31^label:cs":"Pomník","P131^label:cs":"Říčany","P6736":"31585"},"geometry":{"type":"Point","coordinates":[14.65708,49.9918]}},{"type":"Feature","properties":{"label:cs":"Pomník padlým na Masarykově náměstí v Říčanech","P31":"http://www.wikidata.org/entity/Q575759","P31^label:cs":"Pomník padlým","P131^label:cs":"Říčany","P6736":"31586"},"geometry":{"type":"Point","coordinates":[14.65692,49.99182]}},{"type":"Feature","properties":{"label:cs":"Pamětní deska obětem holocaustu na Masarykově náměstí v Říčanech","P31":"http://www.wikidata.org/entity/Q721747","P31^label:cs":"Pamětní deska","P131^label:cs":"Říčany","P6736":"31587"},"geometry":{"type":"Point","coordinates":[14.65692,49.99191]}}]}