{"type":"FeatureCollection","features":[{"type":"Feature","properties":{"label:cs":"Pomník padlým v Říčanech Radošovicích","P31":"http://www.wikidata.org/entity/Q575759","P31^label:cs":"Pomník padlým","P131^label:cs":"Říčany","P6736":"13741"},"geometry":{"type":"Point","coordinates":[14.67094,50.00085]}},{"type":"Feature","properties":{"label:cs":"Kaplička v Říčanech Radošovicích","P31":"http://www.wikidata.org/entity/Q14552192","P31^label:cs":"Kaplička","P131^label:cs":"Říčany","P6736":"14861"},"geometry":{"type":"Point","coordinates":[14.66701,50.00135]}},{"type":"Feature","properties":{"label:cs":"Pomník Antonína Švehly v Říčanech","P31":"http://www.wikidata.org/entity/Q4989906","P31^label:cs":"Pomník","P131^label:cs":"Říčany","P6736":"31577"},"geometry":{"type":"Point","coordinates":[14.65989,49.99466]}},{"type":"Feature","properties":{"label:cs":"Kašna v parku Antonína Švehly v Říčanech","P31":"http://www.wikidata.org/entity/Q12029081","P31^label:cs":"Kašna","P131^label:cs":"Říčany","P6736":"31578"},"geometry":{"type":"Point","coordinates":[14.65976,49.99458]}},{"type":"Feature","properties":{"label:cs":"Betonová plastika Křeslo v parku Antonína Švehly v Říčanech","P31":"http://www.wikidata.org/entity/Q12045520","P31^label:cs":"Plastika","P131^label:cs":"Říčany","P6736":"31579"},"geometry":{"type":"Point","coordinates":[14.65969,49.99446]}},{"type":"Feature","properties":{"label:cs":"Kříž v parku Antonína Švehly v Říčanech","P31":"http://www.wikidata.org/entity/Q2309609","P31^label:cs":"Pamětní kříž","P131^label:cs":"Říčany","P6736":"31580"},"geometry":{"type":"Point","coordinates":[14.65951,49.99438]}}]}