{"type":"FeatureCollection","features":[{"type":"Feature","properties":{"label:cs":"Kříž západně od Dolních Slověnic","P31":"http://www.wikidata.org/entity/Q2309609","P31^label:cs":"Pamětní kříž","P131^label:cs":"Lišov","P6736":"38114"},"geometry":{"type":"Point","coordinates":[14.65878,49.0468]}},{"type":"Feature","properties":{"label:cs":"Kříž v Dolních Slověnicích","P31":"http://www.wikidata.org/entity/Q2309609","P31^label:cs":"Pamětní kříž","P131^label:cs":"Lišov","P6736":"37408"},"geometry":{"type":"Point","coordinates":[14.66698,49.04881]}},{"type":"Feature","properties":{"label:cs":"Kříž u kostela v Dolních Slověnicích","P31":"http://www.wikidata.org/entity/Q2309609","P31^label:cs":"Pamětní kříž","P131^label:cs":"Lišov","P6736":"37407"},"geometry":{"type":"Point","coordinates":[14.66577,49.04907]}},{"type":"Feature","properties":{"label:cs":"Kříž v jižní části Dolních Slověnic","P31":"http://www.wikidata.org/entity/Q2309609","P31^label:cs":"Pamětní kříž","P131^label:cs":"Lišov","P6736":"37406"},"geometry":{"type":"Point","coordinates":[14.66292,49.04668]}},{"type":"Feature","properties":{"label:cs":"Kříž na mostě jižně od Dolních Slověnic","P31":"http://www.wikidata.org/entity/Q2309609","P31^label:cs":"Pamětní kříž","P131^label:cs":"Lišov","P6736":"37405"},"geometry":{"type":"Point","coordinates":[14.66276,49.04424]}},{"type":"Feature","properties":{"label:cs":"Kříž jižně od Dolních Slověnic","P31":"http://www.wikidata.org/entity/Q2309609","P31^label:cs":"Pamětní kříž","P131^label:cs":"Lišov","P6736":"37404"},"geometry":{"type":"Point","coordinates":[14.6623,49.04056]}},{"type":"Feature","properties":{"label:cs":"Kříž východně od Horních Slověnic u rozcestí","P31":"http://www.wikidata.org/entity/Q2309609","P31^label:cs":"Pamětní kříž","P131^label:cs":"Lišov","P6736":"37412"},"geometry":{"type":"Point","coordinates":[14.67655,49.05021]}},{"type":"Feature","properties":{"label:cs":"Kaplička v Horních Slověnicích","P31":"http://www.wikidata.org/entity/Q14552192","P31^label:cs":"Kaplička","P131^label:cs":"Lišov","P6736":"37410"},"geometry":{"type":"Point","coordinates":[14.67211,49.04884]}},{"type":"Feature","properties":{"label:cs":"Pomník padlým v Horních Slověnicích","P31":"http://www.wikidata.org/entity/Q575759","P31^label:cs":"Pomník padlým","P131^label:cs":"Lišov","P6736":"37409"},"geometry":{"type":"Point","coordinates":[14.67183,49.04865]}}]}