{"type":"FeatureCollection","features":[{"type":"Feature","properties":{"label:cs":"Pomník lásce v Jirnách","P31":"http://www.wikidata.org/entity/Q4989906","P31^label:cs":"Pomník","P131^label:cs":"Jirny","P6736":"40203"},"geometry":{"type":"Point","coordinates":[14.69534,50.10961]}},{"type":"Feature","properties":{"label:cs":"Pomník padlým v Jirnách","P31":"http://www.wikidata.org/entity/Q575759","P31^label:cs":"Pomník padlým","P131^label:cs":"Jirny","P6736":"40202"},"geometry":{"type":"Point","coordinates":[14.69922,50.11463]}},{"type":"Feature","properties":{"label:cs":"Pamětní deska obětem 1. světové války na sokolovně v Jirnách","P31":"http://www.wikidata.org/entity/Q721747","P31^label:cs":"Pamětní deska","P131^label:cs":"Jirny","P6736":"40201"},"geometry":{"type":"Point","coordinates":[14.69734,50.11581]}},{"type":"Feature","properties":{"label:cs":"Zvonice v areálu kostela v Jirnách","P31":"http://www.wikidata.org/entity/Q200334","P31^label:cs":"Zvonice","P131^label:cs":"Jirny","P6736":"40200"},"geometry":{"type":"Point","coordinates":[14.69933,50.11444]}},{"type":"Feature","properties":{"label:cs":"Socha svatého Judy Tadeáše v areálu kostela v Jirnách","P31":"http://www.wikidata.org/entity/Q179700","P31^label:cs":"Socha","P131^label:cs":"Jirny","P6736":"40199"},"geometry":{"type":"Point","coordinates":[14.69922,50.11432]}},{"type":"Feature","properties":{"label:cs":"Kříž u vstupu do areálu kostela v Jirnách","P31":"http://www.wikidata.org/entity/Q2309609","P31^label:cs":"Pamětní kříž","P131^label:cs":"Jirny","P6736":"40198"},"geometry":{"type":"Point","coordinates":[14.69923,50.11449]}},{"type":"Feature","properties":{"label:cs":"Kříž u kostela v Jirnách","P31":"http://www.wikidata.org/entity/Q2309609","P31^label:cs":"Pamětní kříž","P131^label:cs":"Jirny","P6736":"40196"},"geometry":{"type":"Point","coordinates":[14.69932,50.11427]}},{"type":"Feature","properties":{"label:cs":"Zvonička v Šestajovicích","P31":"http://www.wikidata.org/entity/Q10861631","P31^label:cs":"Zvonička","P131^label:cs":"Šestajovice","P6736":"40210"},"geometry":{"type":"Point","coordinates":[14.68272,50.11075]}},{"type":"Feature","properties":{"label:cs":"Pomník padlým v Šestajovicích","P31":"http://www.wikidata.org/entity/Q575759","P31^label:cs":"Pomník padlým","P131^label:cs":"Šestajovice","P6736":"40209"},"geometry":{"type":"Point","coordinates":[14.68294,50.11071]}},{"type":"Feature","properties":{"label:cs":"Pamětní deska na škole v Šestajovicích","P31":"http://www.wikidata.org/entity/Q721747","P31^label:cs":"Pamětní deska","P131^label:cs":"Šestajovice","P6736":"40208"},"geometry":{"type":"Point","coordinates":[14.68296,50.11195]}},{"type":"Feature","properties":{"label:cs":"Kříž na kruhovém objezdu v Šestajovicích","P31":"http://www.wikidata.org/entity/Q2309609","P31^label:cs":"Pamětní kříž","P131^label:cs":"Šestajovice","P6736":"40207"},"geometry":{"type":"Point","coordinates":[14.68131,50.11169]}},{"type":"Feature","properties":{"label:cs":"Kříž v Parku jírovců v Šestajovicích","P31":"http://www.wikidata.org/entity/Q2309609","P31^label:cs":"Pamětní kříž","P131^label:cs":"Šestajovice","P6736":"40206"},"geometry":{"type":"Point","coordinates":[14.68626,50.11212]}},{"type":"Feature","properties":{"label:cs":"Kaplička svatého Isidora v Jirnách","P31":"http://www.wikidata.org/entity/Q14552192","P31^label:cs":"Kaplička","P131^label:cs":"Šestajovice","P6736":"40204"},"geometry":{"type":"Point","coordinates":[14.68869,50.11357]}}]}