{"type":"FeatureCollection","features":[{"type":"Feature","properties":{"label:cs":"Pamětní deska Fridrichu Falckému v Nové Vsi","P31":"http://www.wikidata.org/entity/Q721747","P31^label:cs":"Pamětní deska","P131^label:cs":"Pyšely","P6736":"32468"},"geometry":{"type":"Point","coordinates":[14.6818,49.87982]}},{"type":"Feature","properties":{"label:cs":"Boží muka v Nové Vsi","P31":"http://www.wikidata.org/entity/Q3395121","P31^label:cs":"Boží muka","P131^label:cs":"Pyšely","P6736":"32504"},"geometry":{"type":"Point","coordinates":[14.68149,49.87954]}},{"type":"Feature","properties":{"label:cs":"Výklenková kaplička v Nové Vsi","P31":"http://www.wikidata.org/entity/Q14552192","P31^label:cs":"Kaplička","P131^label:cs":"Pyšely","P6736":"32505"},"geometry":{"type":"Point","coordinates":[14.68393,49.88007]}},{"type":"Feature","properties":{"label:cs":"Pamětní deska vyplenění Nové Vsi švédskými vojsky","P31":"http://www.wikidata.org/entity/Q721747","P31^label:cs":"Pamětní deska","P131^label:cs":"Pyšely","P6736":"32506"},"geometry":{"type":"Point","coordinates":[14.68356,49.88001]}},{"type":"Feature","properties":{"label:cs":"Socha Svatého Jana Nepomuckého v Pyšelích","P31":"http://www.wikidata.org/entity/Q179700","P31^label:cs":"Socha","P131^label:cs":"Pyšely","P6736":"32519"},"geometry":{"type":"Point","coordinates":[14.67826,49.87717]}}]}