{"type":"FeatureCollection","features":[{"type":"Feature","properties":{"label:cs":"Kaplička jižně od Čerazi v poli","P31":"http://www.wikidata.org/entity/Q14552192","P31^label:cs":"Kaplička","P131^label:cs":"Vesce","P6736":"36602"},"geometry":{"type":"Point","coordinates":[14.69423,49.2402]}},{"type":"Feature","properties":{"label:cs":"Kaple v Čerazi","P31":"http://www.wikidata.org/entity/Q108325","P31^label:cs":"Kaple","P131^label:cs":"Vesce","P6736":"36601"},"geometry":{"type":"Point","coordinates":[14.6916,49.24709]}},{"type":"Feature","properties":{"label:cs":"Kaplička v Čerazi","P31":"http://www.wikidata.org/entity/Q14552192","P31^label:cs":"Kaplička","P131^label:cs":"Vesce","P6736":"36600"},"geometry":{"type":"Point","coordinates":[14.69275,49.24734]}},{"type":"Feature","properties":{"label:cs":"Kříž v Čerazi","P31":"http://www.wikidata.org/entity/Q2309609","P31^label:cs":"Pamětní kříž","P131^label:cs":"Vesce","P6736":"36599"},"geometry":{"type":"Point","coordinates":[14.69283,49.24717]}},{"type":"Feature","properties":{"label:cs":"Křížek u pole severovýchodně od Čerazi","P31":"http://www.wikidata.org/entity/Q2309609","P31^label:cs":"Pamětní kříž","P131^label:cs":"Vesce","P6736":"31839"},"geometry":{"type":"Point","coordinates":[14.69652,49.25124]}}]}