{"type":"FeatureCollection","features":[{"type":"Feature","properties":{"label:cs":"Kříž severozápadně od České Skalice","P31":"http://www.wikidata.org/entity/Q2309609","P31^label:cs":"Pamětní kříž","P131^label:cs":"Skalice","P6736":"39393"},"geometry":{"type":"Point","coordinates":[14.68746,49.30887]}},{"type":"Feature","properties":{"label:cs":"Kaplička severně od Skalice","P31":"http://www.wikidata.org/entity/Q14552192","P31^label:cs":"Kaplička","P131^label:cs":"Skalice","P6736":"39392"},"geometry":{"type":"Point","coordinates":[14.69228,49.30611]}},{"type":"Feature","properties":{"label:cs":"Pomník padlým ve Skalici","P31":"http://www.wikidata.org/entity/Q575759","P31^label:cs":"Pomník padlým","P131^label:cs":"Skalice","P6736":"39391"},"geometry":{"type":"Point","coordinates":[14.69409,49.30374]}},{"type":"Feature","properties":{"label:cs":"Kříž ve Skalici","P31":"http://www.wikidata.org/entity/Q2309609","P31^label:cs":"Pamětní kříž","P131^label:cs":"Skalice","P6736":"39390"},"geometry":{"type":"Point","coordinates":[14.69495,49.30445]}},{"type":"Feature","properties":{"label:cs":"Kříž na návsi ve Skalici","P31":"http://www.wikidata.org/entity/Q2309609","P31^label:cs":"Pamětní kříž","P131^label:cs":"Skalice","P6736":"39389"},"geometry":{"type":"Point","coordinates":[14.69495,49.30347]}},{"type":"Feature","properties":{"label:cs":"Památka východně od Skalice","P31":"http://www.wikidata.org/entity/Q11734477","P31^label:cs":"Památný kámen","P131^label:cs":"Skalice","P6736":"39388"},"geometry":{"type":"Point","coordinates":[14.69808,49.30519]}},{"type":"Feature","properties":{"label:cs":"Kříž ve Skalici u kostela","P31":"http://www.wikidata.org/entity/Q2309609","P31^label:cs":"Pamětní kříž","P131^label:cs":"Skalice","P6736":"39387"},"geometry":{"type":"Point","coordinates":[14.69692,49.30246]}},{"type":"Feature","properties":{"label:cs":"Kříž západně od Skalice","P31":"http://www.wikidata.org/entity/Q2309609","P31^label:cs":"Pamětní kříž","P131^label:cs":"Skalice","P6736":"39190"},"geometry":{"type":"Point","coordinates":[14.68104,49.30399]}},{"type":"Feature","properties":{"label:cs":"Kříž ve Skalici na rozcestí","P31":"http://www.wikidata.org/entity/Q2309609","P31^label:cs":"Pamětní kříž","P131^label:cs":"Skalice","P6736":"39189"},"geometry":{"type":"Point","coordinates":[14.69128,49.30421]}}]}