{"type":"FeatureCollection","features":[{"type":"Feature","properties":{"label:cs":"Zvonička v Klokočné","P31":"http://www.wikidata.org/entity/Q10861631","P31^label:cs":"Zvonička","P131^label:cs":"Klokočná","P6736":"32424"},"geometry":{"type":"Point","coordinates":[14.71831,49.95779]}},{"type":"Feature","properties":{"label:cs":"Kříž v Klokočné na návsi","P31":"http://www.wikidata.org/entity/Q2309609","P31^label:cs":"Pamětní kříž","P131^label:cs":"Klokočná","P6736":"32425"},"geometry":{"type":"Point","coordinates":[14.71825,49.95777]}},{"type":"Feature","properties":{"label:cs":"Kříž v Klokočné u hřbitova","P31":"http://www.wikidata.org/entity/Q2309609","P31^label:cs":"Pamětní kříž","P131^label:cs":"Klokočná","P6736":"32426"},"geometry":{"type":"Point","coordinates":[14.71305,49.95486]}},{"type":"Feature","properties":{"label:cs":"Centrální kříž na hřbitově v Klokočné","P31":"http://www.wikidata.org/entity/Q2309609","P31^label:cs":"Pamětní kříž","P131^label:cs":"Klokočná","P6736":"32427"},"geometry":{"type":"Point","coordinates":[14.71322,49.95514]}},{"type":"Feature","properties":{"label:cs":"Pomník Lumíra Březovského v Klokočné","P31":"http://www.wikidata.org/entity/Q4989906","P31^label:cs":"Pomník","P131^label:cs":"Klokočná","P6736":"32428"},"geometry":{"type":"Point","coordinates":[14.71836,49.9579]}},{"type":"Feature","properties":{"label:cs":"Pomník padlým v Klokočné","P31":"http://www.wikidata.org/entity/Q575759","P31^label:cs":"Pomník padlým","P131^label:cs":"Klokočná","P6736":"32429"},"geometry":{"type":"Point","coordinates":[14.71832,49.95797]}},{"type":"Feature","properties":{"label:cs":"Památník 600 let od první zmínky o Klokočné","P31":"http://www.wikidata.org/entity/Q5003624","P31^label:cs":"Památník","P131^label:cs":"Klokočná","P6736":"32430"},"geometry":{"type":"Point","coordinates":[14.71838,49.95802]}},{"type":"Feature","properties":{"label:cs":"Pamětní deska neznámému vojínu Rudé armády v Klokočné","P31":"http://www.wikidata.org/entity/Q721747","P31^label:cs":"Pamětní deska","P131^label:cs":"Klokočná","P6736":"32431"},"geometry":{"type":"Point","coordinates":[14.71793,49.95727]}}]}