{"type":"FeatureCollection","features":[{"type":"Feature","properties":{"label:cs":"Kříž severozápadně od Hlivína v poli","P31":"http://www.wikidata.org/entity/Q2309609","P31^label:cs":"Pamětní kříž","P131^label:cs":"Bystřice","P6736":"10646"},"geometry":{"type":"Point","coordinates":[14.71232,49.68744]}},{"type":"Feature","properties":{"label:cs":"Kříž v Hlivíně v zahradě","P31":"http://www.wikidata.org/entity/Q2309609","P31^label:cs":"Pamětní kříž","P131^label:cs":"Bystřice","P6736":"10643"},"geometry":{"type":"Point","coordinates":[14.72144,49.68452]}},{"type":"Feature","properties":{"label:cs":"Kříž u Hlivína v lesíku","P31":"http://www.wikidata.org/entity/Q2309609","P31^label:cs":"Pamětní kříž","P131^label:cs":"Bystřice","P6736":"10642"},"geometry":{"type":"Point","coordinates":[14.72151,49.68587]}},{"type":"Feature","properties":{"label:cs":"Kříž v Hlivíně u rybníka","P31":"http://www.wikidata.org/entity/Q2309609","P31^label:cs":"Pamětní kříž","P131^label:cs":"Bystřice","P6736":"10641"},"geometry":{"type":"Point","coordinates":[14.72066,49.68574]}},{"type":"Feature","properties":{"label:cs":"Kříž v Hlivíně u silnice","P31":"http://www.wikidata.org/entity/Q2309609","P31^label:cs":"Pamětní kříž","P131^label:cs":"Bystřice","P6736":"10640"},"geometry":{"type":"Point","coordinates":[14.72104,49.68496]}},{"type":"Feature","properties":{"label:cs":"Kříž ve Strženci u rozcestí","P31":"http://www.wikidata.org/entity/Q2309609","P31^label:cs":"Pamětní kříž","P131^label:cs":"Bystřice","P6736":"10659"},"geometry":{"type":"Point","coordinates":[14.70434,49.68259]}}]}