{"type":"FeatureCollection","features":[{"type":"Feature","properties":{"label:cs":"Podstavec kříže v polích mezi Soběslaví a Klenovicemi","P31":"http://www.wikidata.org/entity/Q2309609","P31^label:cs":"Pamětní kříž","P131^label:cs":"Soběslav","P6736":"41149"},"geometry":{"type":"Point","coordinates":[14.71047,49.26771]}},{"type":"Feature","properties":{"label:cs":"Kříž v Soběslavi u Havlíčkova Nábřeží","P31":"http://www.wikidata.org/entity/Q2309609","P31^label:cs":"Pamětní kříž","P131^label:cs":"Soběslav","P6736":"40022"},"geometry":{"type":"Point","coordinates":[14.71805,49.25839]}},{"type":"Feature","properties":{"label:cs":"Památník na budově školy v Soběslavi","P31":"http://www.wikidata.org/entity/Q5003624","P31^label:cs":"Památník","P131^label:cs":"Soběslav","P6736":"37498"},"geometry":{"type":"Point","coordinates":[14.71609,49.2591]}},{"type":"Feature","properties":{"label:cs":"Kříž v Soběslavi u Lužnice","P31":"http://www.wikidata.org/entity/Q2309609","P31^label:cs":"Pamětní kříž","P131^label:cs":"Soběslav","P6736":"37489"},"geometry":{"type":"Point","coordinates":[14.70546,49.25948]}},{"type":"Feature","properties":{"label:cs":"Kaplička v západní části Soběslavi","P31":"http://www.wikidata.org/entity/Q14552192","P31^label:cs":"Kaplička","P131^label:cs":"Soběslav","P6736":"37488"},"geometry":{"type":"Point","coordinates":[14.70839,49.25992]}},{"type":"Feature","properties":{"label:cs":"Socha mistra Jana Husa v Soběslavi","P31":"http://www.wikidata.org/entity/Q179700","P31^label:cs":"Socha","P131^label:cs":"Soběslav","P6736":"37487"},"geometry":{"type":"Point","coordinates":[14.72064,49.25939]}},{"type":"Feature","properties":{"label:cs":"Kříž v Soběslavi na náměstí","P31":"http://www.wikidata.org/entity/Q2309609","P31^label:cs":"Pamětní kříž","P131^label:cs":"Soběslav","P6736":"37486"},"geometry":{"type":"Point","coordinates":[14.7191,49.25974]}},{"type":"Feature","properties":{"label:cs":"Socha svatého Josefa v Soběslavi","P31":"http://www.wikidata.org/entity/Q179700","P31^label:cs":"Socha","P131^label:cs":"Soběslav","P6736":"37485"},"geometry":{"type":"Point","coordinates":[14.71913,49.25969]}},{"type":"Feature","properties":{"label:cs":"Socha svatého Jana Nepomuckého v Soběslavi na náměstí","P31":"http://www.wikidata.org/entity/Q179700","P31^label:cs":"Socha","P131^label:cs":"Soběslav","P6736":"37484"},"geometry":{"type":"Point","coordinates":[14.71911,49.25977]}},{"type":"Feature","properties":{"label:cs":"Sloup se sochou Panny Marie v Soběslavi na náměstí","P31":"http://www.wikidata.org/entity/Q4817","P31^label:cs":"Sloup","P131^label:cs":"Soběslav","P6736":"37483"},"geometry":{"type":"Point","coordinates":[14.71974,49.25953]}},{"type":"Feature","properties":{"label:cs":"Kašna na náměstí v Soběslavi","P31":"http://www.wikidata.org/entity/Q12029081","P31^label:cs":"Kašna","P131^label:cs":"Soběslav","P6736":"31847"},"geometry":{"type":"Point","coordinates":[14.71981,49.2594]}}]}