{"type":"FeatureCollection","features":[{"type":"Feature","properties":{"label:cs":"Kříž na severním okraji Hrusic","P31":"http://www.wikidata.org/entity/Q2309609","P31^label:cs":"Pamětní kříž","P131^label:cs":"Hrusice","P6736":"31711"},"geometry":{"type":"Point","coordinates":[14.73788,49.9119]}},{"type":"Feature","properties":{"label:cs":"Pomník koucoura Mikeše v Hrusicích","P31":"http://www.wikidata.org/entity/Q4989906","P31^label:cs":"Pomník","P131^label:cs":"Hrusice","P6736":"31710"},"geometry":{"type":"Point","coordinates":[14.74142,49.91]}},{"type":"Feature","properties":{"label:cs":"Pamětní deska Josefa Lady v Hrusicích","P31":"http://www.wikidata.org/entity/Q721747","P31^label:cs":"Pamětní deska","P131^label:cs":"Hrusice","P6736":"31709"},"geometry":{"type":"Point","coordinates":[14.74083,49.90964]}},{"type":"Feature","properties":{"label:cs":"Pomník Josefa Lady v Hrusicích","P31":"http://www.wikidata.org/entity/Q4989906","P31^label:cs":"Pomník","P131^label:cs":"Hrusice","P6736":"31708"},"geometry":{"type":"Point","coordinates":[14.73738,49.9101]}},{"type":"Feature","properties":{"label:cs":"Pomník padlým v Hrusicích","P31":"http://www.wikidata.org/entity/Q575759","P31^label:cs":"Pomník padlým","P131^label:cs":"Hrusice","P6736":"31707"},"geometry":{"type":"Point","coordinates":[14.73785,49.90981]}},{"type":"Feature","properties":{"label:cs":"Kříž u kostela v Hrusicích","P31":"http://www.wikidata.org/entity/Q2309609","P31^label:cs":"Pamětní kříž","P131^label:cs":"Hrusice","P6736":"31705"},"geometry":{"type":"Point","coordinates":[14.7377,49.90985]}},{"type":"Feature","properties":{"label:cs":"Centrální kříž na hřbitově v Hrusicích","P31":"http://www.wikidata.org/entity/Q2309609","P31^label:cs":"Pamětní kříž","P131^label:cs":"Hrusice","P6736":"31704"},"geometry":{"type":"Point","coordinates":[14.73912,49.91355]}}]}