{"type":"FeatureCollection","features":[{"type":"Feature","properties":{"label:cs":"Památník ve Zlukově","P31":"Památník","P31^label:cs":"Památník","P131^label:cs":"Zlukov","P6736":"6298"},"geometry":{"type":"Point","coordinates":[14.74489,49.19291]}},{"type":"Feature","properties":{"label:cs":"Pomník padlým ve Zlukově","P31":"Pomník padlým","P31^label:cs":"Pomník padlým","P131^label:cs":"Zlukov","P6736":"6297"},"geometry":{"type":"Point","coordinates":[14.74496,49.19267]}},{"type":"Feature","properties":{"label:cs":"Kaple ve Zlukově","P31":"Kaple","P31^label:cs":"Kaple","P131^label:cs":"Zlukov","P6736":"6296"},"geometry":{"type":"Point","coordinates":[14.74471,49.19257]}},{"type":"Feature","properties":{"label:cs":"Kříž na křižovatce ve Zlukově","P31":"Pamětní kříž","P31^label:cs":"Pamětní kříž","P131^label:cs":"Zlukov","P6736":"6295"},"geometry":{"type":"Point","coordinates":[14.74518,49.19178]}},{"type":"Feature","properties":{"label:cs":"Kříž u Zlukova","P31":"Pamětní kříž","P31^label:cs":"Pamětní kříž","P131^label:cs":"Zlukov","P6736":"2880"},"geometry":{"type":"Point","coordinates":[14.74758,49.1949]}}]}