{"type":"FeatureCollection","features":[{"type":"Feature","properties":{"label:cs":"Kaplička jihozápadně od Odlochovic","P31":"Q14552192","P31^label:cs":"Kaplička","P131^label:cs":"Jankov","P6736":"10739"},"geometry":{"type":"Point","coordinates":[14.76119,49.62527]}},{"type":"Feature","properties":{"label:cs":"Pomník padlým v Odlochovicích","P31":"Q575759","P31^label:cs":"Pomník padlým","P131^label:cs":"Jankov","P6736":"10738"},"geometry":{"type":"Point","coordinates":[14.76364,49.62867]}},{"type":"Feature","properties":{"label:cs":"Kaplička severozápadně od Odlochovic","P31":"Q14552192","P31^label:cs":"Kaplička","P131^label:cs":"Jankov","P6736":"10737"},"geometry":{"type":"Point","coordinates":[14.76222,49.62977]}},{"type":"Feature","properties":{"label:cs":"Kaplička v Odlochovicích","P31":"Q14552192","P31^label:cs":"Kaplička","P131^label:cs":"Jankov","P6736":"10674"},"geometry":{"type":"Point","coordinates":[14.76384,49.62777]}},{"type":"Feature","properties":{"label:cs":"Kaple v Odlochovicích","P31":"Q108325","P31^label:cs":"Kaple","P131^label:cs":"Jankov","P6736":"10673"},"geometry":{"type":"Point","coordinates":[14.76551,49.62829]}},{"type":"Feature","properties":{"label:cs":"Kříž na návsi v Odlochovicích","P31":"Q2309609","P31^label:cs":"Pamětní kříž","P131^label:cs":"Jankov","P6736":"10672"},"geometry":{"type":"Point","coordinates":[14.76548,49.62843]}}]}