{"type":"FeatureCollection","features":[{"type":"Feature","properties":{"label:cs":"Křížek u cesty západně od Přehořova","P31":"http://www.wikidata.org/entity/Q2309609","P31^label:cs":"Pamětní kříž","P131^label:cs":"Soběslav","P6736":"39736"},"geometry":{"type":"Point","coordinates":[14.74631,49.24647]}},{"type":"Feature","properties":{"label:cs":"Křížek u cesty jižně od Chlebova","P31":"http://www.wikidata.org/entity/Q2309609","P31^label:cs":"Pamětní kříž","P131^label:cs":"Soběslav","P6736":"31837"},"geometry":{"type":"Point","coordinates":[14.74528,49.25341]}},{"type":"Feature","properties":{"label:cs":"Kříž v Přehořově u kostela","P31":"http://www.wikidata.org/entity/Q2309609","P31^label:cs":"Pamětní kříž","P131^label:cs":"Přehořov","P6736":"40692"},"geometry":{"type":"Point","coordinates":[14.7604,49.25214]}},{"type":"Feature","properties":{"label:cs":"Kříž na jižním okraji Přehořova","P31":"http://www.wikidata.org/entity/Q2309609","P31^label:cs":"Pamětní kříž","P131^label:cs":"Přehořov","P6736":"39731"},"geometry":{"type":"Point","coordinates":[14.75787,49.24358]}},{"type":"Feature","properties":{"label:cs":"Boží muka v polích jižně od Přehořova","P31":"http://www.wikidata.org/entity/Q3395121","P31^label:cs":"Boží muka","P131^label:cs":"Přehořov","P6736":"39578"},"geometry":{"type":"Point","coordinates":[14.75582,49.24027]}},{"type":"Feature","properties":{"label:cs":"Kříž v polích jihozápadně od Přehořova","P31":"http://www.wikidata.org/entity/Q2309609","P31^label:cs":"Pamětní kříž","P131^label:cs":"Soběslav","P6736":"39573"},"geometry":{"type":"Point","coordinates":[14.74839,49.24546]}},{"type":"Feature","properties":{"label:cs":"Kříž jihozápadně od Přehořova","P31":"http://www.wikidata.org/entity/Q2309609","P31^label:cs":"Pamětní kříž","P131^label:cs":"Soběslav","P6736":"39572"},"geometry":{"type":"Point","coordinates":[14.74695,49.24318]}}]}