{"type":"FeatureCollection","features":[{"type":"Feature","properties":{"label:cs":"Pomník padlým v druhé světové válce na východním okraji Hradešína","P31":"http://www.wikidata.org/entity/Q575759","P31^label:cs":"Pomník padlým","P131^label:cs":"Hradešín","P6736":"40865"},"geometry":{"type":"Point","coordinates":[14.75998,50.03892]}},{"type":"Feature","properties":{"label:cs":"Kaplička svatého Jana Nepomuckého západně od kostela v Hradešíně","P31":"http://www.wikidata.org/entity/Q14552192","P31^label:cs":"Kaplička","P131^label:cs":"Hradešín","P6736":"40864"},"geometry":{"type":"Point","coordinates":[14.75437,50.04037]}},{"type":"Feature","properties":{"label:cs":"Pomník padlým v Hradešíně","P31":"http://www.wikidata.org/entity/Q575759","P31^label:cs":"Pomník padlým","P131^label:cs":"Hradešín","P6736":"33797"},"geometry":{"type":"Point","coordinates":[14.75671,50.03867]}},{"type":"Feature","properties":{"label:cs":"Zvonice u kostela svatého Jiří v Hradešíně","P31":"http://www.wikidata.org/entity/Q200334","P31^label:cs":"Zvonice","P131^label:cs":"Hradešín","P6736":"33796"},"geometry":{"type":"Point","coordinates":[14.7554,50.04099]}},{"type":"Feature","properties":{"label:cs":"Kamenná kazatelna u kostela svatého Jiří v Hradešíně","P31":"http://www.wikidata.org/entity/?","P31^label:cs":"Něco jiného","P131^label:cs":"Hradešín","P6736":"33795"},"geometry":{"type":"Point","coordinates":[14.75582,50.04079]}},{"type":"Feature","properties":{"label:cs":"Kříž u kostela svatého Jiří v Hradešíně","P31":"http://www.wikidata.org/entity/Q2309609","P31^label:cs":"Pamětní kříž","P131^label:cs":"Hradešín","P6736":"33794"},"geometry":{"type":"Point","coordinates":[14.75564,50.04065]}},{"type":"Feature","properties":{"label:cs":"Švehlova zahrádka v Hradešíně","P31":"http://www.wikidata.org/entity/Q4989906","P31^label:cs":"Pomník","P131^label:cs":"Hradešín","P6736":"33793"},"geometry":{"type":"Point","coordinates":[14.75667,50.03994]}},{"type":"Feature","properties":{"label:cs":"Kříž na křižovatce u hřbitova v Hradešíně","P31":"http://www.wikidata.org/entity/Q2309609","P31^label:cs":"Pamětní kříž","P131^label:cs":"Hradešín","P6736":"33792"},"geometry":{"type":"Point","coordinates":[14.7597,50.03732]}},{"type":"Feature","properties":{"label:cs":"Centrální kříž na hřbitově v Hradešíně","P31":"http://www.wikidata.org/entity/Q2309609","P31^label:cs":"Pamětní kříž","P131^label:cs":"Hradešín","P6736":"33791"},"geometry":{"type":"Point","coordinates":[14.75895,50.03678]}},{"type":"Feature","properties":{"label:cs":"Morový sloup na západním okraji Škvorce","P31":"http://www.wikidata.org/entity/Q4817","P31^label:cs":"Sloup","P131^label:cs":"Škvorec","P6736":"33789"},"geometry":{"type":"Point","coordinates":[14.74949,50.04068]}}]}