{"type":"FeatureCollection","features":[{"type":"Feature","properties":{"label:cs":"Kříž na křižovatce v Ratměřicích","P31":"Q2309609","P31^label:cs":"Pamětní kříž","P131^label:cs":"Ratměřice","P6736":"10736"},"geometry":{"type":"Point","coordinates":[14.75605,49.64332]}},{"type":"Feature","properties":{"label:cs":"Kašna v Ratměřicích","P31":"Q12029081","P31^label:cs":"Kašna","P131^label:cs":"Ratměřice","P6736":"10735"},"geometry":{"type":"Point","coordinates":[14.75611,49.64399]}},{"type":"Feature","properties":{"label:cs":"Kaple nad studánkou u Ratměřic","P31":"Q108325","P31^label:cs":"Kaple","P131^label:cs":"Ratměřice","P6736":"10734"},"geometry":{"type":"Point","coordinates":[14.75592,49.64829]}},{"type":"Feature","properties":{"label:cs":"Socha svatého Jana Nepomuckého v Ratměřicích","P31":"Q179700","P31^label:cs":"Socha","P131^label:cs":"Ratměřice","P6736":"10671"},"geometry":{"type":"Point","coordinates":[14.75606,49.64373]}},{"type":"Feature","properties":{"label:cs":"Kříž v Ratměřicích u křižovatky","P31":"Q2309609","P31^label:cs":"Pamětní kříž","P131^label:cs":"Ratměřice","P6736":"10670"},"geometry":{"type":"Point","coordinates":[14.75342,49.64261]}},{"type":"Feature","properties":{"label:cs":"Kříž západně od Ratměřic","P31":"Q2309609","P31^label:cs":"Pamětní kříž","P131^label:cs":"Ratměřice","P6736":"10669"},"geometry":{"type":"Point","coordinates":[14.74932,49.64442]}},{"type":"Feature","properties":{"label:cs":"Kříž východně od Habrovky","P31":"Q2309609","P31^label:cs":"Pamětní kříž","P131^label:cs":"Ratměřice","P6736":"10668"},"geometry":{"type":"Point","coordinates":[14.74627,49.64459]}}]}