{"type":"FeatureCollection","features":[{"type":"Feature","properties":{"label:cs":"Socha svatého Václava před kostelem v Předměřicích nad Jizerou","P31":"http://www.wikidata.org/entity/Q179700","P31^label:cs":"Socha","P131^label:cs":"Předměřice nad Jizerou","P6736":"34917"},"geometry":{"type":"Point","coordinates":[14.78079,50.25641]}},{"type":"Feature","properties":{"label:cs":"Socha svatého Víta před kostelem v Předměřicích nad Jizerou","P31":"http://www.wikidata.org/entity/Q179700","P31^label:cs":"Socha","P131^label:cs":"Předměřice nad Jizerou","P6736":"34916"},"geometry":{"type":"Point","coordinates":[14.78112,50.25618]}},{"type":"Feature","properties":{"label:cs":"Socha svatého Jana Nepomuckého u kostela v Předměřicích nad Jizerou","P31":"http://www.wikidata.org/entity/Q179700","P31^label:cs":"Socha","P131^label:cs":"Předměřice nad Jizerou","P6736":"34915"},"geometry":{"type":"Point","coordinates":[14.78125,50.25612]}},{"type":"Feature","properties":{"label:cs":"Pomník padlým v první světové válce ve středu Tuřic","P31":"http://www.wikidata.org/entity/Q575759","P31^label:cs":"Pomník padlým","P131^label:cs":"Tuřice","P6736":"34558"},"geometry":{"type":"Point","coordinates":[14.77179,50.24935]}},{"type":"Feature","properties":{"label:cs":"Zvonička u autobusové zastávky v Tuřicích","P31":"http://www.wikidata.org/entity/Q10861631","P31^label:cs":"Zvonička","P131^label:cs":"Tuřice","P6736":"34378"},"geometry":{"type":"Point","coordinates":[14.76994,50.24902]}}]}