{"type":"FeatureCollection","features":[{"type":"Feature","properties":{"label:cs":"Plastika na okraji radarové louky v areálu Astronomického ústavu v Ondřejově","P31":"http://www.wikidata.org/entity/Q12045520","P31^label:cs":"Plastika","P131^label:cs":"Ondřejov","P6736":"31734"},"geometry":{"type":"Point","coordinates":[14.78029,49.90906]}},{"type":"Feature","properties":{"label:cs":"Plastika v sadu v areálu Astronomického ústavu v Ondřejově","P31":"http://www.wikidata.org/entity/Q12045520","P31^label:cs":"Plastika","P131^label:cs":"Ondřejov","P6736":"31733"},"geometry":{"type":"Point","coordinates":[14.78257,49.91249]}},{"type":"Feature","properties":{"label:cs":"Plastika v jižní části sadu v areálu Astronomického ústavu v Ondřejově","P31":"http://www.wikidata.org/entity/Q12045520","P31^label:cs":"Plastika","P131^label:cs":"Ondřejov","P6736":"31732"},"geometry":{"type":"Point","coordinates":[14.78324,49.91203]}},{"type":"Feature","properties":{"label:cs":"Plastika u kosmické laboratoře v areálu Astronomického ústavu v Ondřejově","P31":"http://www.wikidata.org/entity/Q12045520","P31^label:cs":"Plastika","P131^label:cs":"Ondřejov","P6736":"31731"},"geometry":{"type":"Point","coordinates":[14.78022,49.91038]}},{"type":"Feature","properties":{"label:cs":"Plastika Od slunečních hodin k slunovratu v areálu Astronomického ústavu v Ondřejově","P31":"http://www.wikidata.org/entity/Q12045520","P31^label:cs":"Plastika","P131^label:cs":"Ondřejov","P6736":"31730"},"geometry":{"type":"Point","coordinates":[14.78142,49.90895]}},{"type":"Feature","properties":{"label:cs":"Pomník Josefa Jana Friče v areálu Astronomického ústavu v Ondřejově","P31":"http://www.wikidata.org/entity/Q4989906","P31^label:cs":"Pomník","P131^label:cs":"Ondřejov","P6736":"31729"},"geometry":{"type":"Point","coordinates":[14.78163,49.90985]}},{"type":"Feature","properties":{"label:cs":"Pamětní deska Jana Friče v areálu Astronomického ústavu v Ondřejově","P31":"http://www.wikidata.org/entity/Q721747","P31^label:cs":"Pamětní deska","P131^label:cs":"Ondřejov","P6736":"31728"},"geometry":{"type":"Point","coordinates":[14.78099,49.90923]}},{"type":"Feature","properties":{"label:cs":"Pomník Marie Fričové v areálu Astronomického ústavu v Ondřejově","P31":"http://www.wikidata.org/entity/Q4989906","P31^label:cs":"Pomník","P131^label:cs":"Ondřejov","P6736":"31727"},"geometry":{"type":"Point","coordinates":[14.78064,49.90925]}},{"type":"Feature","properties":{"label:cs":"Plastika před budovou staré pracovny v areálu Astronomického ústavu v Ondřejově","P31":"http://www.wikidata.org/entity/Q12045520","P31^label:cs":"Plastika","P131^label:cs":"Ondřejov","P6736":"31726"},"geometry":{"type":"Point","coordinates":[14.78152,49.90943]}}]}