{"type":"FeatureCollection","features":[{"type":"Feature","properties":{"label:cs":"Zvonice ve Vyšehořovicích","P31":"http://www.wikidata.org/entity/Q200334","P31^label:cs":"Zvonice","P131^label:cs":"Vyšehořovice","P6736":"40768"},"geometry":{"type":"Point","coordinates":[14.77366,50.11737]}},{"type":"Feature","properties":{"label:cs":"Pomník padlým ve Vyšehořovicích","P31":"http://www.wikidata.org/entity/Q575759","P31^label:cs":"Pomník padlým","P131^label:cs":"Vyšehořovice","P6736":"40767"},"geometry":{"type":"Point","coordinates":[14.77299,50.1183]}},{"type":"Feature","properties":{"label:cs":"Pomník vzniku Československa ve Vyšehořovicích","P31":"http://www.wikidata.org/entity/Q4989906","P31^label:cs":"Pomník","P131^label:cs":"Vyšehořovice","P6736":"40766"},"geometry":{"type":"Point","coordinates":[14.77043,50.11924]}},{"type":"Feature","properties":{"label:cs":"Socha svatého Jana Nepomuckého u požární nádrže ve středu Vyšehořovic","P31":"http://www.wikidata.org/entity/Q179700","P31^label:cs":"Socha","P131^label:cs":"Vyšehořovice","P6736":"15537"},"geometry":{"type":"Point","coordinates":[14.77348,50.11818]}},{"type":"Feature","properties":{"label:cs":"Milník/směrník u silnice Vyšehořovice - Vykáň","P31":"http://www.wikidata.org/entity/Q5003624","P31^label:cs":"Dopravní památka","P131^label:cs":"Vyšehořovice","P6736":"14824"},"geometry":{"type":"Point","coordinates":[14.78622,50.11926]}},{"type":"Feature","properties":{"label:cs":"Kříž v parčíku před MŠ ve Vyšehořovicích","P31":"http://www.wikidata.org/entity/Q2309609","P31^label:cs":"Pamětní kříž","P131^label:cs":"Vyšehořovice","P6736":"14798"},"geometry":{"type":"Point","coordinates":[14.77005,50.1194]}}]}