{"type":"FeatureCollection","features":[{"type":"Feature","properties":{"label:cs":"Kříž u křižovatky v Bedřichovicích","P31":"http://www.wikidata.org/entity/Q2309609","P31^label:cs":"Pamětní kříž","P131^label:cs":"Jankov","P6736":"10565"},"geometry":{"type":"Point","coordinates":[14.77699,49.6751]}},{"type":"Feature","properties":{"label:cs":"Kaplička nad Bedřichovicemi","P31":"http://www.wikidata.org/entity/Q14552192","P31^label:cs":"Kaplička","P131^label:cs":"Jankov","P6736":"10566"},"geometry":{"type":"Point","coordinates":[14.77272,49.6752]}},{"type":"Feature","properties":{"label:cs":"Kříž na návsi v Bedřichovicích","P31":"http://www.wikidata.org/entity/Q2309609","P31^label:cs":"Pamětní kříž","P131^label:cs":"Jankov","P6736":"10567"},"geometry":{"type":"Point","coordinates":[14.77549,49.67648]}},{"type":"Feature","properties":{"label:cs":"Pomník padlým v Bedřichově","P31":"http://www.wikidata.org/entity/Q575759","P31^label:cs":"Pomník padlým","P131^label:cs":"Jankov","P6736":"10568"},"geometry":{"type":"Point","coordinates":[14.7754,49.677]}},{"type":"Feature","properties":{"label:cs":"Kříž severně od Bedřichovic","P31":"http://www.wikidata.org/entity/Q2309609","P31^label:cs":"Pamětní kříž","P131^label:cs":"Jankov","P6736":"10569"},"geometry":{"type":"Point","coordinates":[14.77549,49.67875]}},{"type":"Feature","properties":{"label:cs":"Památník padlým v bitvě u Jankova v Bedřichovicích","P31":"http://www.wikidata.org/entity/Q5003624","P31^label:cs":"Památník","P131^label:cs":"Jankov","P6736":"10570"},"geometry":{"type":"Point","coordinates":[14.77575,49.67635]}}]}