{"type":"FeatureCollection","features":[{"type":"Feature","properties":{"label:cs":"Kříž západně od Postupic","P31":"http://www.wikidata.org/entity/Q2309609","P31^label:cs":"Pamětní kříž","P131^label:cs":"Postupice","P6736":"10617"},"geometry":{"type":"Point","coordinates":[14.77013,49.72742]}},{"type":"Feature","properties":{"label:cs":"Kříž u kostela v Postupicích","P31":"http://www.wikidata.org/entity/Q2309609","P31^label:cs":"Pamětní kříž","P131^label:cs":"Postupice","P6736":"10611"},"geometry":{"type":"Point","coordinates":[14.77751,49.72696]}},{"type":"Feature","properties":{"label:cs":"Socha svatého Jana Nepomuckého v Postupicích","P31":"http://www.wikidata.org/entity/Q179700","P31^label:cs":"Socha","P131^label:cs":"Postupice","P6736":"10610"},"geometry":{"type":"Point","coordinates":[14.77769,49.72688]}},{"type":"Feature","properties":{"label:cs":"Pomník padlým v Milovanicích","P31":"http://www.wikidata.org/entity/Q575759","P31^label:cs":"Pomník padlým","P131^label:cs":"Postupice","P6736":"10609"},"geometry":{"type":"Point","coordinates":[14.77745,49.72728]}},{"type":"Feature","properties":{"label:cs":"Kříž severně od Postupic","P31":"http://www.wikidata.org/entity/Q2309609","P31^label:cs":"Pamětní kříž","P131^label:cs":"Postupice","P6736":"10606"},"geometry":{"type":"Point","coordinates":[14.77631,49.73158]}}]}