{"type":"FeatureCollection","features":[{"type":"Feature","properties":{"label:cs":"Boží muka v Sádecké ulici u rozcestí k Schwarzenberské hrobce v Třeboni","P31":"http://www.wikidata.org/entity/Q3395121","P31^label:cs":"Boží muka","P131^label:cs":"Domanín","P6736":"26349"},"geometry":{"type":"Point","coordinates":[14.76931,48.99481]}},{"type":"Feature","properties":{"label:cs":"Socha svatého Jana Nepomuckého na Trocnocvském náměstí v Třeboni","P31":"http://www.wikidata.org/entity/Q179700","P31^label:cs":"Socha","P131^label:cs":"Třeboň","P6736":"26345"},"geometry":{"type":"Point","coordinates":[14.77121,49.00167]}},{"type":"Feature","properties":{"label:cs":"Kříž na Trocnovském náměstí v Třeboni","P31":"http://www.wikidata.org/entity/Q2309609","P31^label:cs":"Pamětní kříž","P131^label:cs":"Třeboň","P6736":"26346"},"geometry":{"type":"Point","coordinates":[14.77105,49.00167]}},{"type":"Feature","properties":{"label:cs":"Socha svatého Jana Nepomuckého u Zlaté stoky v Dukelské ulici v Třeboni","P31":"http://www.wikidata.org/entity/Q179700","P31^label:cs":"Socha","P131^label:cs":"Třeboň","P6736":"26348"},"geometry":{"type":"Point","coordinates":[14.77264,49.00449]}},{"type":"Feature","properties":{"label:cs":"Socha rybáře u prodejny ryb v Sádecké ulici v Třeboni","P31":"http://www.wikidata.org/entity/Q179700","P31^label:cs":"Socha","P131^label:cs":"Třeboň","P6736":"26351"},"geometry":{"type":"Point","coordinates":[14.77343,48.99767]}},{"type":"Feature","properties":{"label:cs":"Kříž v Novohradské ulici v Třeboni","P31":"http://www.wikidata.org/entity/Q2309609","P31^label:cs":"Pamětní kříž","P131^label:cs":"Třeboň","P6736":"26352"},"geometry":{"type":"Point","coordinates":[14.77379,48.99835]}},{"type":"Feature","properties":{"label:cs":"Pomník Josefa Šusty pod hrází rybníka Svět v Třeboni","P31":"http://www.wikidata.org/entity/Q4989906","P31^label:cs":"Pomník","P131^label:cs":"Třeboň","P6736":"26353"},"geometry":{"type":"Point","coordinates":[14.77114,49.00126]}},{"type":"Feature","properties":{"label:cs":"Socha Jakuba Krčína z Jelčan na hrázi rybníka Svět v Třeboni","P31":"http://www.wikidata.org/entity/Q179700","P31^label:cs":"Socha","P131^label:cs":"Třeboň","P6736":"26354"},"geometry":{"type":"Point","coordinates":[14.7717,49.00107]}},{"type":"Feature","properties":{"label:cs":"Kašna v atriu za starou radnicí v Třeboni","P31":"http://www.wikidata.org/entity/Q12029081","P31^label:cs":"Kašna","P131^label:cs":"Třeboň","P6736":"26355"},"geometry":{"type":"Point","coordinates":[14.77159,49.00353]}},{"type":"Feature","properties":{"label:cs":"Kašna na nádvoří pivovaru v Třeboni","P31":"http://www.wikidata.org/entity/Q12029081","P31^label:cs":"Kašna","P131^label:cs":"Třeboň","P6736":"26356"},"geometry":{"type":"Point","coordinates":[14.77209,49.00232]}},{"type":"Feature","properties":{"label:cs":"Mariánský sloup na Masarykově náměstí v Třeboni","P31":"http://www.wikidata.org/entity/Q4817","P31^label:cs":"Sloup","P131^label:cs":"Třeboň","P6736":"26357"},"geometry":{"type":"Point","coordinates":[14.7709,49.00389]}},{"type":"Feature","properties":{"label:cs":"Sochy svatého Josefa a svaté Alžběty u Mariánského sloupu v Třeboni","P31":"http://www.wikidata.org/entity/Q179700","P31^label:cs":"Socha","P131^label:cs":"Třeboň","P6736":"26358"},"geometry":{"type":"Point","coordinates":[14.77086,49.00389]}},{"type":"Feature","properties":{"label:cs":"Socha svatého Vojtěcha u Mariánského sloupu v Třeboni","P31":"http://www.wikidata.org/entity/Q179700","P31^label:cs":"Socha","P131^label:cs":"Třeboň","P6736":"26359"},"geometry":{"type":"Point","coordinates":[14.77091,49.00389]}},{"type":"Feature","properties":{"label:cs":"Kašna na Masarykově náměstí v Třeboni","P31":"http://www.wikidata.org/entity/Q12029081","P31^label:cs":"Kašna","P131^label:cs":"Třeboň","P6736":"26360"},"geometry":{"type":"Point","coordinates":[14.77104,49.00393]}},{"type":"Feature","properties":{"label:cs":"Socha Živý pramen u vstupu do Komenského sadů z Tylovy ulice v Třeboni","P31":"http://www.wikidata.org/entity/Q179700","P31^label:cs":"Socha","P131^label:cs":"Třeboň","P6736":"26361"},"geometry":{"type":"Point","coordinates":[14.76949,49.0058]}},{"type":"Feature","properties":{"label:cs":"Kříž v Jiráskově ulici u Komenského sadů v Třeboni","P31":"http://www.wikidata.org/entity/Q2309609","P31^label:cs":"Pamětní kříž","P131^label:cs":"Třeboň","P6736":"26362"},"geometry":{"type":"Point","coordinates":[14.76884,49.00605]}},{"type":"Feature","properties":{"label:cs":"Kovová plastika v Komenského sadech v Třeboni","P31":"http://www.wikidata.org/entity/Q12045520","P31^label:cs":"Plastika","P131^label:cs":"Třeboň","P6736":"26363"},"geometry":{"type":"Point","coordinates":[14.76751,49.00604]}},{"type":"Feature","properties":{"label:cs":"Kašna na velkém nádvoří zámku Třeboň","P31":"http://www.wikidata.org/entity/Q12029081","P31^label:cs":"Kašna","P131^label:cs":"Třeboň","P6736":"26369"},"geometry":{"type":"Point","coordinates":[14.76973,49.00276]}},{"type":"Feature","properties":{"label:cs":"Sluneční hodiny u brány velkého nádvoří zámku Třeboň","P31":"http://www.wikidata.org/entity/Q376","P31^label:cs":"Hodiny","P131^label:cs":"Třeboň","P6736":"26370"},"geometry":{"type":"Point","coordinates":[14.76997,49.00351]}},{"type":"Feature","properties":{"label:cs":"Kašna u Rožmberské bibliotéky zámku Třeboň","P31":"http://www.wikidata.org/entity/Q12029081","P31^label:cs":"Kašna","P131^label:cs":"Třeboň","P6736":"26371"},"geometry":{"type":"Point","coordinates":[14.76976,49.00363]}},{"type":"Feature","properties":{"label:cs":"Socha Panny Marie ve výklenku Rožmberské bibliotéky zámku Třeboň","P31":"http://www.wikidata.org/entity/Q179700","P31^label:cs":"Socha","P131^label:cs":"Třeboň","P6736":"26372"},"geometry":{"type":"Point","coordinates":[14.76939,49.00359]}},{"type":"Feature","properties":{"label:cs":"Pamětní deska Václava Březana na zdi zámecké lékárny v Třeboni","P31":"http://www.wikidata.org/entity/Q721747","P31^label:cs":"Pamětní deska","P131^label:cs":"Třeboň","P6736":"26373"},"geometry":{"type":"Point","coordinates":[14.76957,49.00368]}},{"type":"Feature","properties":{"label:cs":"Reliéf na bývalé spořitelně v Třeboni","P31":"http://www.wikidata.org/entity/Q245117","P31^label:cs":"Reliéf","P131^label:cs":"Třeboň","P6736":"26374"},"geometry":{"type":"Point","coordinates":[14.77195,49.00405]}},{"type":"Feature","properties":{"label:cs":"Sochy na průčelí bývalé spořitelny v Třeboni","P31":"http://www.wikidata.org/entity/Q179700","P31^label:cs":"Socha","P131^label:cs":"Třeboň","P6736":"26375"},"geometry":{"type":"Point","coordinates":[14.77199,49.00407]}},{"type":"Feature","properties":{"label:cs":"Pomník-deska padlým legionářům na staré radnici v Třeboni","P31":"http://www.wikidata.org/entity/Q575759","P31^label:cs":"Pomník padlým","P131^label:cs":"Třeboň","P6736":"26376"},"geometry":{"type":"Point","coordinates":[14.77152,49.00389]}},{"type":"Feature","properties":{"label:cs":"Socha Panny Marie v nice domu Masarykovo náměstí 91 v Třeboni","P31":"http://www.wikidata.org/entity/Q179700","P31^label:cs":"Socha","P131^label:cs":"Třeboň","P6736":"26377"},"geometry":{"type":"Point","coordinates":[14.77081,49.00402]}},{"type":"Feature","properties":{"label:cs":"Socha ženy ve Zlaté stoce u Dukelské ulice v Třeboni","P31":"http://www.wikidata.org/entity/Q179700","P31^label:cs":"Socha","P131^label:cs":"Třeboň","P6736":"26378"},"geometry":{"type":"Point","coordinates":[14.77269,49.0043]}},{"type":"Feature","properties":{"label:cs":"Socha ženy v parku pod nádražím Třeboň lázně","P31":"http://www.wikidata.org/entity/Q179700","P31^label:cs":"Socha","P131^label:cs":"Třeboň","P6736":"26379"},"geometry":{"type":"Point","coordinates":[14.7773,49.007]}},{"type":"Feature","properties":{"label:cs":"Socha svatého Jana Nepomuckého na rohu Sokolské a Jiráskovy ulice v Třeboni","P31":"http://www.wikidata.org/entity/Q179700","P31^label:cs":"Socha","P131^label:cs":"Třeboň","P6736":"26381"},"geometry":{"type":"Point","coordinates":[14.76826,49.00467]}},{"type":"Feature","properties":{"label:cs":"Pomník padlým u školy v Sokolské ulici v Třeboni","P31":"http://www.wikidata.org/entity/Q575759","P31^label:cs":"Pomník padlým","P131^label:cs":"Třeboň","P6736":"26382"},"geometry":{"type":"Point","coordinates":[14.76773,49.00457]}},{"type":"Feature","properties":{"label:cs":"Obrázek Madony na domě Březanova 80 v Třeboni","P31":"http://www.wikidata.org/entity/Q478798","P31^label:cs":"Obrázek","P131^label:cs":"Třeboň","P6736":"26383"},"geometry":{"type":"Point","coordinates":[14.76969,49.00424]}},{"type":"Feature","properties":{"label:cs":"Pamětní deska Jakuba Krčína z Jelčan na domě Krčínova 114 v Třeboni","P31":"http://www.wikidata.org/entity/Q721747","P31^label:cs":"Pamětní deska","P131^label:cs":"Třeboň","P6736":"26384"},"geometry":{"type":"Point","coordinates":[14.77058,49.00275]}},{"type":"Feature","properties":{"label:cs":"Kašna v zámeckém parku v Třeboni","P31":"http://www.wikidata.org/entity/Q12029081","P31^label:cs":"Kašna","P131^label:cs":"Třeboň","P6736":"26393"},"geometry":{"type":"Point","coordinates":[14.76869,49.00336]}},{"type":"Feature","properties":{"label:cs":"Pamětní desky Josefa Šusty a Mikuláše Rutarda na domě Masarykovo náměstí 111 v Třeboni","P31":"http://www.wikidata.org/entity/Q721747","P31^label:cs":"Pamětní deska","P131^label:cs":"Třeboň","P6736":"26394"},"geometry":{"type":"Point","coordinates":[14.77022,49.0036]}},{"type":"Feature","properties":{"label:cs":"Historická kamenná měřidla korec a věrtel pod věží staré radnice v Třeboni","P31":"http://www.wikidata.org/entity/Q1516537","P31^label:cs":"Technická památka","P131^label:cs":"Třeboň","P6736":"26395"},"geometry":{"type":"Point","coordinates":[14.77162,49.00394]}},{"type":"Feature","properties":{"label:cs":"Kašna na nádvoří kláštera augustiniánů v Třeboni","P31":"http://www.wikidata.org/entity/Q12029081","P31^label:cs":"Kašna","P131^label:cs":"Třeboň","P6736":"26417"},"geometry":{"type":"Point","coordinates":[14.76916,49.00517]}},{"type":"Feature","properties":{"label:cs":"Socha svatého Augustina vlevo u portálu kostela svatého Jiljí v Třeboni","P31":"http://www.wikidata.org/entity/Q179700","P31^label:cs":"Socha","P131^label:cs":"Třeboň","P6736":"26418"},"geometry":{"type":"Point","coordinates":[14.76978,49.00476]}},{"type":"Feature","properties":{"label:cs":"Socha svatého Vojtěcha vpravo u portálu kostela svatého Jiljí v Třeboni","P31":"http://www.wikidata.org/entity/Q179700","P31^label:cs":"Socha","P131^label:cs":"Třeboň","P6736":"26419"},"geometry":{"type":"Point","coordinates":[14.76989,49.00478]}},{"type":"Feature","properties":{"label:cs":"Socha svatého Jana Nepomuckého vlevo za kostelem svatého Jiljí v Třeboni","P31":"http://www.wikidata.org/entity/Q179700","P31^label:cs":"Socha","P131^label:cs":"Třeboň","P6736":"26420"},"geometry":{"type":"Point","coordinates":[14.77025,49.00491]}},{"type":"Feature","properties":{"label:cs":"Socha svatého Václava vpravo za kostelem svatého Jiljí v Třeboni","P31":"http://www.wikidata.org/entity/Q179700","P31^label:cs":"Socha","P131^label:cs":"Třeboň","P6736":"26421"},"geometry":{"type":"Point","coordinates":[14.77022,49.00498]}},{"type":"Feature","properties":{"label:cs":"Kříž za kostelem svatého Jiljí v Třeboni","P31":"http://www.wikidata.org/entity/Q2309609","P31^label:cs":"Pamětní kříž","P131^label:cs":"Třeboň","P6736":"26422"},"geometry":{"type":"Point","coordinates":[14.77026,49.00495]}},{"type":"Feature","properties":{"label:cs":"Pamětní deska Jana Pernikáře na domě Husova 10 v Třeboni","P31":"http://www.wikidata.org/entity/Q721747","P31^label:cs":"Pamětní deska","P131^label:cs":"Třeboň","P6736":"26423"},"geometry":{"type":"Point","coordinates":[14.77075,49.00503]}},{"type":"Feature","properties":{"label:cs":"Sluneční hodiny na malém nádvoří zámku v Třeboni","P31":"http://www.wikidata.org/entity/Q376","P31^label:cs":"Hodiny","P131^label:cs":"Třeboň","P6736":"26424"},"geometry":{"type":"Point","coordinates":[14.76936,49.00333]}},{"type":"Feature","properties":{"label:cs":"Model Staré a Nové řeky u zámku v Třeboni","P31":"http://www.wikidata.org/entity/?","P31^label:cs":"Krajinné umění","P131^label:cs":"Třeboň","P6736":"26425"},"geometry":{"type":"Point","coordinates":[14.76912,49.00324]}},{"type":"Feature","properties":{"label:cs":"Pamětní deska Štěpánku Netolickému na domě Masarykovo náměstí 89 v Třeboni","P31":"http://www.wikidata.org/entity/Q721747","P31^label:cs":"Pamětní deska","P131^label:cs":"Třeboň","P6736":"26426"},"geometry":{"type":"Point","coordinates":[14.77067,49.00398]}},{"type":"Feature","properties":{"label:cs":"Pamětní deska Josefu Kajetánu Tylovi na domku v Tylově ulici v Třeboni","P31":"http://www.wikidata.org/entity/Q721747","P31^label:cs":"Pamětní deska","P131^label:cs":"Třeboň","P6736":"26427"},"geometry":{"type":"Point","coordinates":[14.77212,49.00519]}},{"type":"Feature","properties":{"label:cs":"Novodobý menhir u restaurace Šupina v Třeboni","P31":"http://www.wikidata.org/entity/Q193475","P31^label:cs":"Menhir","P131^label:cs":"Třeboň","P6736":"26432"},"geometry":{"type":"Point","coordinates":[14.7703,49.00221]}}]}