{"type":"FeatureCollection","features":[{"type":"Feature","properties":{"label:cs":"Kaple na hřbitově v Bezně","P31":"http://www.wikidata.org/entity/Q108325","P31^label:cs":"Kaple","P131^label:cs":"Bezno","P6736":"35946"},"geometry":{"type":"Point","coordinates":[14.7939,50.36295]}},{"type":"Feature","properties":{"label:cs":"Kaple na Mírovém náměstí v Bezně","P31":"http://www.wikidata.org/entity/Q108325","P31^label:cs":"Kaple","P131^label:cs":"Bezno","P6736":"35945"},"geometry":{"type":"Point","coordinates":[14.79529,50.36701]}},{"type":"Feature","properties":{"label:cs":"Socha Venuše v zámecké zahradě v Bezně","P31":"http://www.wikidata.org/entity/Q179700","P31^label:cs":"Socha","P131^label:cs":"Bezno","P6736":"35944"},"geometry":{"type":"Point","coordinates":[14.79155,50.36966]}},{"type":"Feature","properties":{"label:cs":"Socha svatého Judy Tadeáše v Nemyslovické ulici v Bezně","P31":"http://www.wikidata.org/entity/Q179700","P31^label:cs":"Socha","P131^label:cs":"Bezno","P6736":"35943"},"geometry":{"type":"Point","coordinates":[14.79413,50.36692]}},{"type":"Feature","properties":{"label:cs":"Sousoší svatých Šimona a Judy vpravo u fary v Bezně","P31":"http://www.wikidata.org/entity/Q179700","P31^label:cs":"Socha","P131^label:cs":"Bezno","P6736":"35942"},"geometry":{"type":"Point","coordinates":[14.79468,50.36798]}},{"type":"Feature","properties":{"label:cs":"Podstavec sochy svatého Františka Xaverského vlevo u fary v Bezně","P31":"http://www.wikidata.org/entity/Q179700","P31^label:cs":"Socha","P131^label:cs":"Bezno","P6736":"35941"},"geometry":{"type":"Point","coordinates":[14.79516,50.36819]}},{"type":"Feature","properties":{"label:cs":"Pamětní deska Václava Vaňka na domě Mírové náměstí 63 v Bezně","P31":"http://www.wikidata.org/entity/Q721747","P31^label:cs":"Pamětní deska","P131^label:cs":"Bezno","P6736":"35940"},"geometry":{"type":"Point","coordinates":[14.79557,50.36731]}},{"type":"Feature","properties":{"label:cs":"Pamětní deska Josefa Vlacha na domě Mírové náměstí 63 v bezně","P31":"http://www.wikidata.org/entity/Q721747","P31^label:cs":"Pamětní deska","P131^label:cs":"Bezno","P6736":"35939"},"geometry":{"type":"Point","coordinates":[14.79554,50.36745]}},{"type":"Feature","properties":{"label:cs":"Sousoší Kalvárie na Mírovém náměstí v Bezně","P31":"http://www.wikidata.org/entity/Q179700","P31^label:cs":"Socha","P131^label:cs":"Bezno","P6736":"35938"},"geometry":{"type":"Point","coordinates":[14.79604,50.36759]}},{"type":"Feature","properties":{"label:cs":"Kříž u kaple ve středu Bezna","P31":"http://www.wikidata.org/entity/Q3395121","P31^label:cs":"Boží muka","P131^label:cs":"Bezno","P6736":"23228"},"geometry":{"type":"Point","coordinates":[14.79601,50.3677]}},{"type":"Feature","properties":{"label:cs":"Barokní kaple se souborem soch a křížem ve středu Bezna","P31":"http://www.wikidata.org/entity/Q108325","P31^label:cs":"Kaple","P131^label:cs":"Bezno","P6736":"23227"},"geometry":{"type":"Point","coordinates":[14.7961,50.36759]}},{"type":"Feature","properties":{"label:cs":"Socha svaté Notburgy na severní straně rybníku Kal v Bezně","P31":"http://www.wikidata.org/entity/Q179700","P31^label:cs":"Socha","P131^label:cs":"Bezno","P6736":"23224"},"geometry":{"type":"Point","coordinates":[14.79328,50.36927]}},{"type":"Feature","properties":{"label:cs":"Socha svatého Jana Nepomuckého na křižovatce silnic v Bezně","P31":"http://www.wikidata.org/entity/Q179700","P31^label:cs":"Socha","P131^label:cs":"Bezno","P6736":"23221"},"geometry":{"type":"Point","coordinates":[14.79466,50.36908]}}]}