{"type":"FeatureCollection","features":[{"type":"Feature","properties":{"label:cs":"Kříž v Přerově nad Labem u Obecního úřadu","P31":"http://www.wikidata.org/entity/Q2309609","P31^label:cs":"Pamětní kříž","P131^label:cs":"Přerov nad Labem","P6736":"32616"},"geometry":{"type":"Point","coordinates":[14.82646,50.1597]}},{"type":"Feature","properties":{"label:cs":"Boží muka v Přerově nad Labem u zahradnictví Montano","P31":"http://www.wikidata.org/entity/Q3395121","P31^label:cs":"Boží muka","P131^label:cs":"Přerov nad Labem","P6736":"32617"},"geometry":{"type":"Point","coordinates":[14.83056,50.15925]}},{"type":"Feature","properties":{"label:cs":"Boží muka v lokalitě Na vrších JZ od Přerova nad Labem","P31":"http://www.wikidata.org/entity/Q3395121","P31^label:cs":"Boží muka","P131^label:cs":"Přerov nad Labem","P6736":"33178"},"geometry":{"type":"Point","coordinates":[14.81526,50.15319]}},{"type":"Feature","properties":{"label:cs":"Kaplička svatého Vojtěcha nad studánkou JZ od Přerova nad Labem","P31":"http://www.wikidata.org/entity/Q14552192","P31^label:cs":"Kaplička","P131^label:cs":"Přerov nad Labem","P6736":"33180"},"geometry":{"type":"Point","coordinates":[14.81153,50.1543]}},{"type":"Feature","properties":{"label:cs":"Boží muka na křižovatce v centru Přerova nad Labem","P31":"http://www.wikidata.org/entity/Q3395121","P31^label:cs":"Boží muka","P131^label:cs":"Přerov nad Labem","P6736":"33189"},"geometry":{"type":"Point","coordinates":[14.82318,50.15806]}},{"type":"Feature","properties":{"label:cs":"Kaple svaté Trojice u zámku v Přerově nad Labem","P31":"http://www.wikidata.org/entity/Q108325","P31^label:cs":"Kaple","P131^label:cs":"Přerov nad Labem","P6736":"33193"},"geometry":{"type":"Point","coordinates":[14.82385,50.15946]}}]}