{"type":"FeatureCollection","features":[{"type":"Feature","properties":{"label:cs":"Boží muka v Novosedlech u kravína","P31":"http://www.wikidata.org/entity/Q3395121","P31^label:cs":"Boží muka","P131^label:cs":"Novosedly nad Nežárkou","P6736":"11830"},"geometry":{"type":"Point","coordinates":[14.82312,49.08394]}},{"type":"Feature","properties":{"label:cs":"Kříž v Novosedlech na rozcestí u školy","P31":"http://www.wikidata.org/entity/Q2309609","P31^label:cs":"Pamětní kříž","P131^label:cs":"Novosedly nad Nežárkou","P6736":"11817"},"geometry":{"type":"Point","coordinates":[14.81852,49.08263]}},{"type":"Feature","properties":{"label:cs":"Pamětní deska na budově obecního úřadu v Novosedlech","P31":"http://www.wikidata.org/entity/Q721747","P31^label:cs":"Pamětní deska","P131^label:cs":"Novosedly nad Nežárkou","P6736":"11816"},"geometry":{"type":"Point","coordinates":[14.81791,49.08324]}},{"type":"Feature","properties":{"label:cs":"Kříž v Novosedlech na rozcestí","P31":"http://www.wikidata.org/entity/Q2309609","P31^label:cs":"Pamětní kříž","P131^label:cs":"Novosedly nad Nežárkou","P6736":"11815"},"geometry":{"type":"Point","coordinates":[14.81656,49.0839]}},{"type":"Feature","properties":{"label:cs":"Kříž v Novosedlech u kostela","P31":"http://www.wikidata.org/entity/Q2309609","P31^label:cs":"Pamětní kříž","P131^label:cs":"Novosedly nad Nežárkou","P6736":"11814"},"geometry":{"type":"Point","coordinates":[14.81246,49.0853]}},{"type":"Feature","properties":{"label:cs":"Kříž v Novosedlech na hřbitově","P31":"http://www.wikidata.org/entity/Q2309609","P31^label:cs":"Pamětní kříž","P131^label:cs":"Novosedly nad Nežárkou","P6736":"11813"},"geometry":{"type":"Point","coordinates":[14.8117,49.08574]}},{"type":"Feature","properties":{"label:cs":"Mozaika na zdi hřbitova v Novosedlech","P31":"http://www.wikidata.org/entity/Q12045520","P31^label:cs":"Plastika","P131^label:cs":"Novosedly nad Nežárkou","P6736":"11812"},"geometry":{"type":"Point","coordinates":[14.81163,49.08558]}}]}