{"type":"FeatureCollection","features":[{"type":"Feature","properties":{"label:cs":"Kašna v jižní části Husova náměstí v Benátkách nad Jizerou","P31":"http://www.wikidata.org/entity/Q12029081","P31^label:cs":"Kašna","P131^label:cs":"Benátky nad Jizerou","P6736":"30119"},"geometry":{"type":"Point","coordinates":[14.82558,50.29139]}},{"type":"Feature","properties":{"label:cs":"Socha svatého Jana Nepomuckého v západní části Husova náměstí v Benátkách nad Jizerou","P31":"http://www.wikidata.org/entity/Q179700","P31^label:cs":"Socha","P131^label:cs":"Benátky nad Jizerou","P6736":"30117"},"geometry":{"type":"Point","coordinates":[14.82515,50.29148]}},{"type":"Feature","properties":{"label:cs":"Kaple svaté Rodiny ve středu Husova náměstí v Benátkách nad Jizerou","P31":"http://www.wikidata.org/entity/Q108325","P31^label:cs":"Kaple","P131^label:cs":"Benátky nad Jizerou","P6736":"30116"},"geometry":{"type":"Point","coordinates":[14.82566,50.29177]}},{"type":"Feature","properties":{"label:cs":"Kašna v západní části zámeckého parku v Benátkách nad Jizerou","P31":"http://www.wikidata.org/entity/Q12029081","P31^label:cs":"Kašna","P131^label:cs":"Benátky nad Jizerou","P6736":"25316"},"geometry":{"type":"Point","coordinates":[14.82181,50.29098]}},{"type":"Feature","properties":{"label:cs":"Památník T. G. Masaryka v zámeckém parku v Benátkách nad Jizerou","P31":"http://www.wikidata.org/entity/Q5003624","P31^label:cs":"Památník","P131^label:cs":"Benátky nad Jizerou","P6736":"25315"},"geometry":{"type":"Point","coordinates":[14.82193,50.29063]}},{"type":"Feature","properties":{"label:cs":"Památník Bedřicha Smetany v zámeckém parku v Benátkách nad Jizerou","P31":"http://www.wikidata.org/entity/Q5003624","P31^label:cs":"Památník","P131^label:cs":"Benátky nad Jizerou","P6736":"25314"},"geometry":{"type":"Point","coordinates":[14.82258,50.29044]}},{"type":"Feature","properties":{"label:cs":"Pomník padlým v první světové válce v zámeckém parku v Benátkách nad Jizerou","P31":"http://www.wikidata.org/entity/Q575759","P31^label:cs":"Pomník padlým","P131^label:cs":"Benátky nad Jizerou","P6736":"25313"},"geometry":{"type":"Point","coordinates":[14.82272,50.29031]}},{"type":"Feature","properties":{"label:cs":"Kaplička s kašnou u zdi zámeckého parku v Benátkách nad Jizerou","P31":"http://www.wikidata.org/entity/Q14552192","P31^label:cs":"Kaplička","P131^label:cs":"Benátky nad Jizerou","P6736":"25312"},"geometry":{"type":"Point","coordinates":[14.82374,50.29094]}},{"type":"Feature","properties":{"label:cs":"Socha kojící Panny Marie v zámeckém parku v Benátkách nad Jizerou","P31":"http://www.wikidata.org/entity/Q179700","P31^label:cs":"Socha","P131^label:cs":"Benátky nad Jizerou","P6736":"25311"},"geometry":{"type":"Point","coordinates":[14.82361,50.29103]}},{"type":"Feature","properties":{"label:cs":"Socha Panny Marie v Benátkách nad Jizerou","P31":"http://www.wikidata.org/entity/Q4817","P31^label:cs":"Sloup","P131^label:cs":"Benátky nad Jizerou","P6736":"9653"},"geometry":{"type":"Point","coordinates":[14.82328,50.29083]}}]}