{"type":"FeatureCollection","features":[{"type":"Feature","properties":{"label:cs":"Sochy po stranách dnes zazděné brány do severní části zámeckého parku v Benátkách nad Jizerou","P31":"Socha","P31^label:cs":"Socha","P131^label:cs":"Benátky nad Jizerou","P6736":"25318"},"geometry":{"type":"Point","coordinates":[14.82231,50.29129]}},{"type":"Feature","properties":{"label:cs":"Sochy po stranách brány do západní části zámeckého parku v Benátkách nad Jizerou","P31":"Socha","P31^label:cs":"Socha","P131^label:cs":"Benátky nad Jizerou","P6736":"25317"},"geometry":{"type":"Point","coordinates":[14.82196,50.29133]}},{"type":"Feature","properties":{"label:cs":"Kašna v západní části zámeckého parku v Benátkách nad Jizerou","P31":"Kašna","P31^label:cs":"Kašna","P131^label:cs":"Benátky nad Jizerou","P6736":"25316"},"geometry":{"type":"Point","coordinates":[14.82181,50.29098]}},{"type":"Feature","properties":{"label:cs":"Památník T. G. Masaryka v zámeckém parku v Benátkách nad Jizerou","P31":"Památník","P31^label:cs":"Památník","P131^label:cs":"Benátky nad Jizerou","P6736":"25315"},"geometry":{"type":"Point","coordinates":[14.82193,50.29063]}},{"type":"Feature","properties":{"label:cs":"Památník Bedřicha Smetany v zámeckém parku v Benátkách nad Jizerou","P31":"Památník","P31^label:cs":"Památník","P131^label:cs":"Benátky nad Jizerou","P6736":"25314"},"geometry":{"type":"Point","coordinates":[14.82258,50.29044]}},{"type":"Feature","properties":{"label:cs":"Pomník padlým v první světové válce v zámeckém parku v Benátkách nad Jizerou","P31":"Pomník padlým","P31^label:cs":"Pomník padlým","P131^label:cs":"Benátky nad Jizerou","P6736":"25313"},"geometry":{"type":"Point","coordinates":[14.82272,50.29031]}},{"type":"Feature","properties":{"label:cs":"Kaplička s kašnou u zdi zámeckého parku v Benátkách nad Jizerou","P31":"Kaplička","P31^label:cs":"Kaplička","P131^label:cs":"Benátky nad Jizerou","P6736":"25312"},"geometry":{"type":"Point","coordinates":[14.82374,50.29094]}},{"type":"Feature","properties":{"label:cs":"Socha kojící Panny Marie v zámeckém parku v Benátkách nad Jizerou","P31":"Socha","P31^label:cs":"Socha","P131^label:cs":"Benátky nad Jizerou","P6736":"25311"},"geometry":{"type":"Point","coordinates":[14.82361,50.29103]}},{"type":"Feature","properties":{"label:cs":"Socha Panny Marie v Benátkách nad Jizerou","P31":"Sloup","P31^label:cs":"Sloup","P131^label:cs":"Benátky nad Jizerou","P6736":"9653"},"geometry":{"type":"Point","coordinates":[14.82328,50.29083]}}]}