{"type":"FeatureCollection","features":[{"type":"Feature","properties":{"label:cs":"Kaplička u silnice severovýchodně Nítovic","P31":"http://www.wikidata.org/entity/Q14552192","P31^label:cs":"Kaplička","P131^label:cs":"Kardašova Řečice","P6736":"40128"},"geometry":{"type":"Point","coordinates":[14.82463,49.1753]}},{"type":"Feature","properties":{"label:cs":"Poškozený křížek u cesty severně od Nítovic","P31":"http://www.wikidata.org/entity/Q2309609","P31^label:cs":"Pamětní kříž","P131^label:cs":"Kardašova Řečice","P6736":"40127"},"geometry":{"type":"Point","coordinates":[14.82496,49.17783]}},{"type":"Feature","properties":{"label:cs":"Kříž u silnice východně od Nítovic","P31":"http://www.wikidata.org/entity/Q2309609","P31^label:cs":"Pamětní kříž","P131^label:cs":"Kardašova Řečice","P6736":"40126"},"geometry":{"type":"Point","coordinates":[14.8217,49.1743]}},{"type":"Feature","properties":{"label:cs":"Křížek u silnice západně od Nítovic","P31":"http://www.wikidata.org/entity/Q2309609","P31^label:cs":"Pamětní kříž","P131^label:cs":"Kardašova Řečice","P6736":"40125"},"geometry":{"type":"Point","coordinates":[14.81383,49.17474]}},{"type":"Feature","properties":{"label:cs":"Dřevěný kříž jižně v Nítovicích","P31":"http://www.wikidata.org/entity/Q2309609","P31^label:cs":"Pamětní kříž","P131^label:cs":"Kardašova Řečice","P6736":"40124"},"geometry":{"type":"Point","coordinates":[14.82153,49.17016]}}]}