{"type":"FeatureCollection","features":[{"type":"Feature","properties":{"label:cs":"Kříž v Pleších u křižovatky","P31":"http://www.wikidata.org/entity/Q2309609","P31^label:cs":"Pamětní kříž","P131^label:cs":"Pleše","P6736":"38084"},"geometry":{"type":"Point","coordinates":[14.82141,49.19795]}},{"type":"Feature","properties":{"label:cs":"Kříž v Pleších u silnice","P31":"http://www.wikidata.org/entity/Q2309609","P31^label:cs":"Pamětní kříž","P131^label:cs":"Pleše","P6736":"38083"},"geometry":{"type":"Point","coordinates":[14.82415,49.19675]}},{"type":"Feature","properties":{"label:cs":"Kaplička v Pleších","P31":"http://www.wikidata.org/entity/Q14552192","P31^label:cs":"Kaplička","P131^label:cs":"Pleše","P6736":"38082"},"geometry":{"type":"Point","coordinates":[14.82009,49.19677]}},{"type":"Feature","properties":{"label:cs":"Kaple v Pleších","P31":"http://www.wikidata.org/entity/Q108325","P31^label:cs":"Kaple","P131^label:cs":"Pleše","P6736":"38081"},"geometry":{"type":"Point","coordinates":[14.82298,49.19625]}},{"type":"Feature","properties":{"label:cs":"Kříž u kaple v Pleších","P31":"http://www.wikidata.org/entity/Q2309609","P31^label:cs":"Pamětní kříž","P131^label:cs":"Pleše","P6736":"38080"},"geometry":{"type":"Point","coordinates":[14.82312,49.19629]}},{"type":"Feature","properties":{"label:cs":"Křížek u cesty severně od Pleší","P31":"http://www.wikidata.org/entity/Q2309609","P31^label:cs":"Pamětní kříž","P131^label:cs":"Pleše","P6736":"31793"},"geometry":{"type":"Point","coordinates":[14.83008,49.20549]}}]}