{"type":"FeatureCollection","features":[{"type":"Feature","properties":{"label:cs":"Zvonička v Zahradách","P31":"http://www.wikidata.org/entity/Q10861631","P31^label:cs":"Zvonička","P131^label:cs":"Český Brod","P6736":"39049"},"geometry":{"type":"Point","coordinates":[14.84241,50.04988]}},{"type":"Feature","properties":{"label:cs":"Kaplička svatého Jana Nepomuckého v Tuchorazi","P31":"http://www.wikidata.org/entity/Q14552192","P31^label:cs":"Kaplička","P131^label:cs":"Tuchoraz","P6736":"39062"},"geometry":{"type":"Point","coordinates":[14.84493,50.04773]}},{"type":"Feature","properties":{"label:cs":"Pamětní deska nad bránou tvrze v Tuchorazi","P31":"http://www.wikidata.org/entity/Q721747","P31^label:cs":"Pamětní deska","P131^label:cs":"Tuchoraz","P6736":"39059"},"geometry":{"type":"Point","coordinates":[14.8463,50.04617]}},{"type":"Feature","properties":{"label:cs":"Putto v zahradě tvrze v Tuchorazi","P31":"http://www.wikidata.org/entity/Q179700","P31^label:cs":"Socha","P131^label:cs":"Tuchoraz","P6736":"39058"},"geometry":{"type":"Point","coordinates":[14.84659,50.04578]}},{"type":"Feature","properties":{"label:cs":"Busta dívky v zahradě tvrze v Tuchorazi","P31":"http://www.wikidata.org/entity/Q179700","P31^label:cs":"Socha","P131^label:cs":"Tuchoraz","P6736":"39057"},"geometry":{"type":"Point","coordinates":[14.84697,50.04565]}},{"type":"Feature","properties":{"label:cs":"Socha dívky v zahradě tvrze v Tuchorazi","P31":"http://www.wikidata.org/entity/Q179700","P31^label:cs":"Socha","P131^label:cs":"Tuchoraz","P6736":"39056"},"geometry":{"type":"Point","coordinates":[14.84656,50.04578]}},{"type":"Feature","properties":{"label:cs":"Socha Panny Marie v zahradě tvrze v Tuchorazi","P31":"http://www.wikidata.org/entity/Q179700","P31^label:cs":"Socha","P131^label:cs":"Tuchoraz","P6736":"39055"},"geometry":{"type":"Point","coordinates":[14.84664,50.04584]}},{"type":"Feature","properties":{"label:cs":"Pomník T. G. Masaryka v Tuchorazi","P31":"http://www.wikidata.org/entity/Q4989906","P31^label:cs":"Pomník","P131^label:cs":"Tuchoraz","P6736":"39054"},"geometry":{"type":"Point","coordinates":[14.84883,50.04666]}},{"type":"Feature","properties":{"label:cs":"Pomník padlým v Tuchorazi","P31":"http://www.wikidata.org/entity/Q575759","P31^label:cs":"Pomník padlým","P131^label:cs":"Tuchoraz","P6736":"39053"},"geometry":{"type":"Point","coordinates":[14.84872,50.04669]}},{"type":"Feature","properties":{"label:cs":"Pomník svatého Huberta v Tuchorazi","P31":"http://www.wikidata.org/entity/Q4989906","P31^label:cs":"Pomník","P131^label:cs":"Tuchoraz","P6736":"39052"},"geometry":{"type":"Point","coordinates":[14.84941,50.04676]}},{"type":"Feature","properties":{"label:cs":"Výklenková kaplička Neposkvrněného Početí Panny Marie v Tuchorazi","P31":"http://www.wikidata.org/entity/Q14552192","P31^label:cs":"Kaplička","P131^label:cs":"Tuchoraz","P6736":"39051"},"geometry":{"type":"Point","coordinates":[14.84876,50.04831]}},{"type":"Feature","properties":{"label:cs":"Pomník starostů a předsedů MNV v Tuchorazi","P31":"http://www.wikidata.org/entity/Q4989906","P31^label:cs":"Pomník","P131^label:cs":"Tuchoraz","P6736":"39050"},"geometry":{"type":"Point","coordinates":[14.8479,50.04696]}},{"type":"Feature","properties":{"label:cs":"Zvonička v Tuchorazi","P31":"http://www.wikidata.org/entity/Q10861631","P31^label:cs":"Zvonička","P131^label:cs":"Tuchoraz","P6736":"13924"},"geometry":{"type":"Point","coordinates":[14.84881,50.04826]}},{"type":"Feature","properties":{"label:cs":"Pomník padlým v první světové válce ve středu Vrátkova","P31":"http://www.wikidata.org/entity/Q575759","P31^label:cs":"Pomník padlým","P131^label:cs":"Vrátkov","P6736":"40871"},"geometry":{"type":"Point","coordinates":[14.83684,50.04829]}},{"type":"Feature","properties":{"label:cs":"Pískovcová zvonička ve Vrátkově","P31":"http://www.wikidata.org/entity/Q10861631","P31^label:cs":"Zvonička","P131^label:cs":"Vrátkov","P6736":"13161"},"geometry":{"type":"Point","coordinates":[14.83438,50.04731]}}]}