{"type":"FeatureCollection","features":[{"type":"Feature","properties":{"label:cs":"Pomník Martina Luthera u Chrámu pokoje v Hrádku nad Nisou","P31":"http://www.wikidata.org/entity/Q4989906","P31^label:cs":"Pomník","P131^label:cs":"Hrádek nad Nisou","P6736":"38977"},"geometry":{"type":"Point","coordinates":[14.84444,50.85484]}},{"type":"Feature","properties":{"label:cs":"Kapličky Křížové cesty po obvodu areálu kostela svatého Bartoloměje v Hrádku nad Nisou","P31":"http://www.wikidata.org/entity/Q14552192","P31^label:cs":"Kaplička","P131^label:cs":"Hrádek nad Nisou","P6736":"38709"},"geometry":{"type":"Point","coordinates":[14.8444,50.85438]}},{"type":"Feature","properties":{"label:cs":"Datová osa na Horním náměstí v Hrádku nad Nisou","P31":"http://www.wikidata.org/entity/Q376","P31^label:cs":"Hodiny","P131^label:cs":"Hrádek nad Nisou","P6736":"38708"},"geometry":{"type":"Point","coordinates":[14.84352,50.85418]}},{"type":"Feature","properties":{"label:cs":"Kašna na Horním náměstí v Hrádku nad Nisou","P31":"http://www.wikidata.org/entity/Q12029081","P31^label:cs":"Kašna","P131^label:cs":"Hrádek nad Nisou","P6736":"38707"},"geometry":{"type":"Point","coordinates":[14.84348,50.85412]}},{"type":"Feature","properties":{"label:cs":"Pamětní desky lidem z Hrádecka na domě Smetanova 324 v Hrádku nad Nisou","P31":"http://www.wikidata.org/entity/Q721747","P31^label:cs":"Pamětní deska","P131^label:cs":"Hrádek nad Nisou","P6736":"38703"},"geometry":{"type":"Point","coordinates":[14.84668,50.85424]}},{"type":"Feature","properties":{"label:cs":"Pomník obětem válek v parku v Smetanově ulici v Hrádku nad Nisou","P31":"http://www.wikidata.org/entity/Q575759","P31^label:cs":"Pomník padlým","P131^label:cs":"Hrádek nad Nisou","P6736":"38700"},"geometry":{"type":"Point","coordinates":[14.84599,50.855]}},{"type":"Feature","properties":{"label:cs":"Kříž u domu Liberecká 308 v Hrádku nad Nisou","P31":"http://www.wikidata.org/entity/Q2309609","P31^label:cs":"Pamětní kříž","P131^label:cs":"Hrádek nad Nisou","P6736":"38696"},"geometry":{"type":"Point","coordinates":[14.85004,50.85347]}},{"type":"Feature","properties":{"label:cs":"Socha ženy před domem Pod Tratí 665 v Hrádku nad Nisou","P31":"http://www.wikidata.org/entity/Q179700","P31^label:cs":"Socha","P131^label:cs":"Hrádek nad Nisou","P6736":"38695"},"geometry":{"type":"Point","coordinates":[14.84884,50.85178]}},{"type":"Feature","properties":{"label:cs":"Pomník nejasného účelu v městském parku v Hrádku nad Nisou","P31":"http://www.wikidata.org/entity/Q4989906","P31^label:cs":"Pomník","P131^label:cs":"Hrádek nad Nisou","P6736":"38692"},"geometry":{"type":"Point","coordinates":[14.84633,50.85225]}},{"type":"Feature","properties":{"label:cs":"Pomník Františka Josefa I. v městském parku v Hrádku nad Nisou","P31":"http://www.wikidata.org/entity/Q4989906","P31^label:cs":"Pomník","P131^label:cs":"Hrádek nad Nisou","P6736":"38690"},"geometry":{"type":"Point","coordinates":[14.84618,50.85211]}},{"type":"Feature","properties":{"label:cs":"Rybářský kámen v zahradě domu Tovární 628 v Hrádku nad Nisou","P31":"http://www.wikidata.org/entity/Q921099","P31^label:cs":"Hraniční kámen","P131^label:cs":"Hrádek nad Nisou","P6736":"38687"},"geometry":{"type":"Point","coordinates":[14.85105,50.84932]}},{"type":"Feature","properties":{"label:cs":"Kříž u domu Francouzská 170 v Hrádku nad Nisou","P31":"http://www.wikidata.org/entity/Q2309609","P31^label:cs":"Pamětní kříž","P131^label:cs":"Hrádek nad Nisou","P6736":"38685"},"geometry":{"type":"Point","coordinates":[14.84523,50.84908]}},{"type":"Feature","properties":{"label:cs":"Sloup svaté Anny Samotřetí na Horním náměstí v Hrádku nad Nisou","P31":"http://www.wikidata.org/entity/Q4817","P31^label:cs":"Sloup","P131^label:cs":"Hrádek nad Nisou","P6736":"38676"},"geometry":{"type":"Point","coordinates":[14.84337,50.8541]}},{"type":"Feature","properties":{"label:cs":"Socha Archanděla Michaela u brány k areálu kostela svatého Bartoloměje v Hrádku nad Nisou","P31":"http://www.wikidata.org/entity/Q179700","P31^label:cs":"Socha","P131^label:cs":"Hrádek nad Nisou","P6736":"38675"},"geometry":{"type":"Point","coordinates":[14.8442,50.85417]}},{"type":"Feature","properties":{"label:cs":"Socha svatého Josefa u brány k areálu kostela svatého Bartoloměje v Hrádku nad Nisou","P31":"http://www.wikidata.org/entity/Q179700","P31^label:cs":"Socha","P131^label:cs":"Hrádek nad Nisou","P6736":"38674"},"geometry":{"type":"Point","coordinates":[14.8442,50.85421]}},{"type":"Feature","properties":{"label:cs":"Socha svatého Jana Křtitele s Ježíšem u cesty ke kostelu svatého Bartoloměje v Hrádku nad Nisou","P31":"http://www.wikidata.org/entity/Q179700","P31^label:cs":"Socha","P131^label:cs":"Hrádek nad Nisou","P6736":"38673"},"geometry":{"type":"Point","coordinates":[14.8444,50.85416]}},{"type":"Feature","properties":{"label:cs":"Socha svatého Jana Nepomuckého u cesty ke kostelu svatého Bartoloměje v Hrádku nad Nisou","P31":"http://www.wikidata.org/entity/Q179700","P31^label:cs":"Socha","P131^label:cs":"Hrádek nad Nisou","P6736":"38672"},"geometry":{"type":"Point","coordinates":[14.84439,50.85423]}},{"type":"Feature","properties":{"label:cs":"Kříž u domu Václavská 231 v Hrádku nad Nisou","P31":"http://www.wikidata.org/entity/Q2309609","P31^label:cs":"Pamětní kříž","P131^label:cs":"Hrádek nad Nisou","P6736":"38669"},"geometry":{"type":"Point","coordinates":[14.84179,50.85208]}},{"type":"Feature","properties":{"label:cs":"Kříž u cesty mezi ulicemi Okružní a U Lávky v Hrádku nad Nisou","P31":"http://www.wikidata.org/entity/Q2309609","P31^label:cs":"Pamětní kříž","P131^label:cs":"Hrádek nad Nisou","P6736":"38668"},"geometry":{"type":"Point","coordinates":[14.83684,50.85218]}},{"type":"Feature","properties":{"label:cs":"Plastika svaté Zdislavy u domu Žitavská 670 v Hrádku nad Nisou","P31":"http://www.wikidata.org/entity/Q12045520","P31^label:cs":"Plastika","P131^label:cs":"Hrádek nad Nisou","P6736":"38667"},"geometry":{"type":"Point","coordinates":[14.84116,50.85593]}},{"type":"Feature","properties":{"label:cs":"Kaplička zvaná Grösselova v Žitavské ulici v Hrádku nad Nisou","P31":"http://www.wikidata.org/entity/Q14552192","P31^label:cs":"Kaplička","P131^label:cs":"Hrádek nad Nisou","P6736":"38666"},"geometry":{"type":"Point","coordinates":[14.84169,50.85576]}},{"type":"Feature","properties":{"label:cs":"Pomník padlému Rudolfu Zárybnickému ve Větrné ulici v Hrádku nad Nisou","P31":"http://www.wikidata.org/entity/Q575759","P31^label:cs":"Pomník padlým","P131^label:cs":"Hrádek nad Nisou","P6736":"38665"},"geometry":{"type":"Point","coordinates":[14.8432,50.86092]}},{"type":"Feature","properties":{"label:cs":"Socha svatého Josefa v Žitavské ulici v Hrádku nad Nisou","P31":"http://www.wikidata.org/entity/Q179700","P31^label:cs":"Socha","P131^label:cs":"Hrádek nad Nisou","P6736":"38664"},"geometry":{"type":"Point","coordinates":[14.8391,50.8588]}},{"type":"Feature","properties":{"label:cs":"Socha svatého Vavřince v Oldřichovské ulici v Hrádku nad Nisou","P31":"http://www.wikidata.org/entity/Q179700","P31^label:cs":"Socha","P131^label:cs":"Hrádek nad Nisou","P6736":"38663"},"geometry":{"type":"Point","coordinates":[14.84587,50.85764]}}]}