{"type":"FeatureCollection","features":[{"type":"Feature","properties":{"label:cs":"Kříž severně od Radenína","P31":"http://www.wikidata.org/entity/Q2309609","P31^label:cs":"Pamětní kříž","P131^label:cs":"Radenín","P6736":"26167"},"geometry":{"type":"Point","coordinates":[14.84272,49.37574]}},{"type":"Feature","properties":{"label:cs":"Socha Jana Nepomuckého v Radeníně","P31":"http://www.wikidata.org/entity/Q179700","P31^label:cs":"Socha","P131^label:cs":"Radenín","P6736":"26166"},"geometry":{"type":"Point","coordinates":[14.84108,49.36926]}},{"type":"Feature","properties":{"label:cs":"Socha svatého Františka z Pauly v Radeníně","P31":"http://www.wikidata.org/entity/Q179700","P31^label:cs":"Socha","P131^label:cs":"Radenín","P6736":"26165"},"geometry":{"type":"Point","coordinates":[14.84121,49.36922]}},{"type":"Feature","properties":{"label:cs":"Pomník padlým v Radeníně","P31":"http://www.wikidata.org/entity/Q575759","P31^label:cs":"Pomník padlým","P131^label:cs":"Radenín","P6736":"26164"},"geometry":{"type":"Point","coordinates":[14.84106,49.36939]}},{"type":"Feature","properties":{"label:cs":"Kříž v Radeníně východně od kostela","P31":"http://www.wikidata.org/entity/Q2309609","P31^label:cs":"Pamětní kříž","P131^label:cs":"Radenín","P6736":"26163"},"geometry":{"type":"Point","coordinates":[14.84098,49.36941]}},{"type":"Feature","properties":{"label:cs":"Kříž v Radeníně západně od kostela","P31":"http://www.wikidata.org/entity/Q2309609","P31^label:cs":"Pamětní kříž","P131^label:cs":"Radenín","P6736":"26162"},"geometry":{"type":"Point","coordinates":[14.84019,49.36943]}},{"type":"Feature","properties":{"label:cs":"Kříž v Radeníně u křižovatky","P31":"http://www.wikidata.org/entity/Q2309609","P31^label:cs":"Pamětní kříž","P131^label:cs":"Radenín","P6736":"26161"},"geometry":{"type":"Point","coordinates":[14.83426,49.3693]}},{"type":"Feature","properties":{"label:cs":"Kříž severně od Radenína","P31":"http://www.wikidata.org/entity/Q2309609","P31^label:cs":"Pamětní kříž","P131^label:cs":"Radenín","P6736":"26111"},"geometry":{"type":"Point","coordinates":[14.84045,49.37207]}},{"type":"Feature","properties":{"label:cs":"Boží muka v Radeníně","P31":"http://www.wikidata.org/entity/Q3395121","P31^label:cs":"Boží muka","P131^label:cs":"Radenín","P6736":"7921"},"geometry":{"type":"Point","coordinates":[14.84139,49.36974]}},{"type":"Feature","properties":{"label:cs":"Kaple v Radeníně","P31":"http://www.wikidata.org/entity/Q108325","P31^label:cs":"Kaple","P131^label:cs":"Radenín","P6736":"7920"},"geometry":{"type":"Point","coordinates":[14.84114,49.36919]}},{"type":"Feature","properties":{"label:cs":"Kaple východně od Radenína","P31":"http://www.wikidata.org/entity/Q108325","P31^label:cs":"Kaple","P131^label:cs":"Radenín","P6736":"2424"},"geometry":{"type":"Point","coordinates":[14.84725,49.36866]}}]}