{"type":"FeatureCollection","features":[{"type":"Feature","properties":{"label:cs":"Socha svatého Václava v Kounicích","P31":"http://www.wikidata.org/entity/Q179700","P31^label:cs":"Socha","P131^label:cs":"Kounice","P6736":"40801"},"geometry":{"type":"Point","coordinates":[14.85459,50.10838]}},{"type":"Feature","properties":{"label:cs":"Socha mouřenína po levé straně mostku k zámku v Kounicích","P31":"http://www.wikidata.org/entity/Q179700","P31^label:cs":"Socha","P131^label:cs":"Kounice","P6736":"40800"},"geometry":{"type":"Point","coordinates":[14.85543,50.10849]}},{"type":"Feature","properties":{"label:cs":"Socha svatého Jana Nepomuckého v Kounicích","P31":"http://www.wikidata.org/entity/Q179700","P31^label:cs":"Socha","P131^label:cs":"Kounice","P6736":"40785"},"geometry":{"type":"Point","coordinates":[14.85535,50.10814]}},{"type":"Feature","properties":{"label:cs":"Pomník sjezdu rodáků v roce 1933 v Kounicích","P31":"http://www.wikidata.org/entity/Q4989906","P31^label:cs":"Pomník","P131^label:cs":"Kounice","P6736":"40784"},"geometry":{"type":"Point","coordinates":[14.85763,50.1082]}},{"type":"Feature","properties":{"label:cs":"Deska na paměť založení špitálu v Kounicích","P31":"http://www.wikidata.org/entity/Q721747","P31^label:cs":"Pamětní deska","P131^label:cs":"Kounice","P6736":"40783"},"geometry":{"type":"Point","coordinates":[14.85988,50.10907]}},{"type":"Feature","properties":{"label:cs":"Sloup se sochou Panny Marie v Kounicích","P31":"http://www.wikidata.org/entity/Q4817","P31^label:cs":"Sloup","P131^label:cs":"Kounice","P6736":"40782"},"geometry":{"type":"Point","coordinates":[14.85694,50.10846]}},{"type":"Feature","properties":{"label:cs":"Kříž u kostela svatého Jakuba Většího v Kounicích","P31":"http://www.wikidata.org/entity/Q2309609","P31^label:cs":"Pamětní kříž","P131^label:cs":"Kounice","P6736":"40781"},"geometry":{"type":"Point","coordinates":[14.85587,50.10796]}},{"type":"Feature","properties":{"label:cs":"Pomník padlým v 1. světové válce před pivovarem ve středu Kounic","P31":"http://www.wikidata.org/entity/Q575759","P31^label:cs":"Pomník padlým","P131^label:cs":"Kounice","P6736":"22755"},"geometry":{"type":"Point","coordinates":[14.85453,50.10867]}},{"type":"Feature","properties":{"label:cs":"Socha mouřenína po pravé straně mostku k zámku v Kounicích","P31":"http://www.wikidata.org/entity/Q179700","P31^label:cs":"Socha","P131^label:cs":"Kounice","P6736":"13156"},"geometry":{"type":"Point","coordinates":[14.85552,50.10846]}}]}