{"type":"FeatureCollection","features":[{"type":"Feature","properties":{"label:cs":"Pamětní deska obětem holocaustu na bývalé synagoze v Přistoupimi","P31":"http://www.wikidata.org/entity/Q721747","P31^label:cs":"Pamětní deska","P131^label:cs":"Přistoupim","P6736":"40844"},"geometry":{"type":"Point","coordinates":[14.87636,50.05645]}},{"type":"Feature","properties":{"label:cs":"Pomník padlým v Přistoupimi","P31":"http://www.wikidata.org/entity/Q575759","P31^label:cs":"Pomník padlým","P131^label:cs":"Přistoupim","P6736":"40843"},"geometry":{"type":"Point","coordinates":[14.87744,50.05444]}},{"type":"Feature","properties":{"label:cs":"Socha Krista u kostela svatého Václava v Přistoupimi","P31":"http://www.wikidata.org/entity/Q179700","P31^label:cs":"Socha","P131^label:cs":"Přistoupim","P6736":"40842"},"geometry":{"type":"Point","coordinates":[14.87774,50.05405]}},{"type":"Feature","properties":{"label:cs":"Pamětní deska na zvonici u kostela svatého Václava v Přistoupimi","P31":"http://www.wikidata.org/entity/Q721747","P31^label:cs":"Pamětní deska","P131^label:cs":"Přistoupim","P6736":"40841"},"geometry":{"type":"Point","coordinates":[14.87758,50.05397]}},{"type":"Feature","properties":{"label:cs":"Zvonice u kostela svatého Václava v Přistoupimi","P31":"http://www.wikidata.org/entity/Q200334","P31^label:cs":"Zvonice","P131^label:cs":"Přistoupim","P6736":"40840"},"geometry":{"type":"Point","coordinates":[14.87758,50.05397]}},{"type":"Feature","properties":{"label:cs":"Pomník Antonína Švehly u Švehlovy lípy v Přistoupimi","P31":"http://www.wikidata.org/entity/Q4989906","P31^label:cs":"Pomník","P131^label:cs":"Přistoupim","P6736":"40839"},"geometry":{"type":"Point","coordinates":[14.87728,50.05448]}},{"type":"Feature","properties":{"label:cs":"Sloup se sochou Panny Marie Tismické v Přistoupimi","P31":"http://www.wikidata.org/entity/Q4817","P31^label:cs":"Sloup","P131^label:cs":"Přistoupim","P6736":"40838"},"geometry":{"type":"Point","coordinates":[14.87716,50.05461]}}]}