{"type":"FeatureCollection","features":[{"type":"Feature","properties":{"label:cs":"Kříž jihozápadně od Mlýnů","P31":"Q2309609","P31^label:cs":"Pamětní kříž","P131^label:cs":"Mlýny","P6736":"7643"},"geometry":{"type":"Point","coordinates":[14.8764,49.33234]}},{"type":"Feature","properties":{"label:cs":"Kříž ve Mlýnech nad křižovatkou","P31":"Q2309609","P31^label:cs":"Pamětní kříž","P131^label:cs":"Mlýny","P6736":"7564"},"geometry":{"type":"Point","coordinates":[14.87767,49.33627]}},{"type":"Feature","properties":{"label:cs":"Pomník padlým v Mlýnech","P31":"Q575759","P31^label:cs":"Pomník padlým","P131^label:cs":"Mlýny","P6736":"6868"},"geometry":{"type":"Point","coordinates":[14.87778,49.33617]}},{"type":"Feature","properties":{"label:cs":"Kříž v Mlýnech u zatáčky","P31":"Q2309609","P31^label:cs":"Pamětní kříž","P131^label:cs":"Mlýny","P6736":"6867"},"geometry":{"type":"Point","coordinates":[14.87972,49.3371]}},{"type":"Feature","properties":{"label:cs":"Kříž u Mlýnů u polní cesty","P31":"Q2309609","P31^label:cs":"Pamětní kříž","P131^label:cs":"Mlýny","P6736":"2065"},"geometry":{"type":"Point","coordinates":[14.88325,49.33517]}},{"type":"Feature","properties":{"label:cs":"Kříž nad Mlýny","P31":"Q2309609","P31^label:cs":"Pamětní kříž","P131^label:cs":"Mlýny","P6736":"2066"},"geometry":{"type":"Point","coordinates":[14.88261,49.33825]}}]}