{"type":"FeatureCollection","features":[{"type":"Feature","properties":{"label:cs":"Pomník padlým v Bezděčíně","P31":"http://www.wikidata.org/entity/Q575759","P31^label:cs":"Pomník padlým","P131^label:cs":"Mladá Boleslav","P6736":"35442"},"geometry":{"type":"Point","coordinates":[14.89875,50.38704]}},{"type":"Feature","properties":{"label:cs":"Kaple v Bezděčíně","P31":"http://www.wikidata.org/entity/Q108325","P31^label:cs":"Kaple","P131^label:cs":"Mladá Boleslav","P6736":"35440"},"geometry":{"type":"Point","coordinates":[14.89845,50.38641]}},{"type":"Feature","properties":{"label:cs":"Kaple na návsi v Nepřevázce","P31":"http://www.wikidata.org/entity/Q108325","P31^label:cs":"Kaple","P131^label:cs":"Nepřevázka","P6736":"31685"},"geometry":{"type":"Point","coordinates":[14.91715,50.37965]}},{"type":"Feature","properties":{"label:cs":"Kříž v severní části Nepřevázky","P31":"http://www.wikidata.org/entity/Q2309609","P31^label:cs":"Pamětní kříž","P131^label:cs":"Nepřevázka","P6736":"31684"},"geometry":{"type":"Point","coordinates":[14.91555,50.38177]}},{"type":"Feature","properties":{"label:cs":"Pomník padlým v Nepřevázce","P31":"http://www.wikidata.org/entity/Q575759","P31^label:cs":"Pomník padlým","P131^label:cs":"Nepřevázka","P6736":"31683"},"geometry":{"type":"Point","coordinates":[14.91578,50.37812]}}]}