{"type":"FeatureCollection","features":[{"type":"Feature","properties":{"label:cs":"Kaplička v Malešíně","P31":"http://www.wikidata.org/entity/Q14552192","P31^label:cs":"Kaplička","P131^label:cs":"Vodice","P6736":"7142"},"geometry":{"type":"Point","coordinates":[14.9095,49.45539]}},{"type":"Feature","properties":{"label:cs":"Kaple v Malešíně","P31":"http://www.wikidata.org/entity/Q108325","P31^label:cs":"Kaple","P131^label:cs":"Vodice","P6736":"7141"},"geometry":{"type":"Point","coordinates":[14.90692,49.45527]}},{"type":"Feature","properties":{"label:cs":"Kříž západně od Malešína na křižovatce","P31":"http://www.wikidata.org/entity/Q2309609","P31^label:cs":"Pamětní kříž","P131^label:cs":"Vodice","P6736":"7140"},"geometry":{"type":"Point","coordinates":[14.90281,49.45558]}},{"type":"Feature","properties":{"label:cs":"Kříž východně od Vodice","P31":"http://www.wikidata.org/entity/Q2309609","P31^label:cs":"Pamětní kříž","P131^label:cs":"Vodice","P6736":"27322"},"geometry":{"type":"Point","coordinates":[14.91287,49.46272]}},{"type":"Feature","properties":{"label:cs":"Socha svatého Jana Nepomuckého ve Vodici","P31":"http://www.wikidata.org/entity/Q179700","P31^label:cs":"Socha","P131^label:cs":"Vodice","P6736":"27321"},"geometry":{"type":"Point","coordinates":[14.90913,49.4646]}},{"type":"Feature","properties":{"label:cs":"Kříž na návsi ve Vodice","P31":"http://www.wikidata.org/entity/Q721747","P31^label:cs":"Pamětní deska","P131^label:cs":"Vodice","P6736":"27320"},"geometry":{"type":"Point","coordinates":[14.90889,49.46333]}},{"type":"Feature","properties":{"label:cs":"Socha svatého Tadeáše ve Vodici","P31":"http://www.wikidata.org/entity/Q179700","P31^label:cs":"Socha","P131^label:cs":"Vodice","P6736":"7139"},"geometry":{"type":"Point","coordinates":[14.90938,49.46436]}}]}