{
    "type": "FeatureCollection",
    "features": [
        {
            "type": "Feature",
            "properties": {
                "label:cs": "Kříž v Deštné v Adamské ulici",
                "P31": "Pamětní kříž",
                "P31^label:cs": "Pamětní kříž",
                "P131^label:cs": "Deštná",
                "P6736": "6323"
            },
            "geometry": {
                "type": "Point",
                "coordinates": [
                    14.91348,
                    49.26294
                ]
            }
        },
        {
            "type": "Feature",
            "properties": {
                "label:cs": "Kaplička u Vícemilu",
                "P31": "Kaplička",
                "P31^label:cs": "Kaplička",
                "P131^label:cs": "Vícemil",
                "P6736": "2750"
            },
            "geometry": {
                "type": "Point",
                "coordinates": [
                    14.89825,
                    49.26285
                ]
            }
        },
        {
            "type": "Feature",
            "properties": {
                "label:cs": "Kříž u Vícemilu",
                "P31": "Pamětní kříž",
                "P31^label:cs": "Pamětní kříž",
                "P131^label:cs": "Vícemil",
                "P6736": "2749"
            },
            "geometry": {
                "type": "Point",
                "coordinates": [
                    14.90554,
                    49.26263
                ]
            }
        },
        {
            "type": "Feature",
            "properties": {
                "label:cs": "Boží muka u Deštné",
                "P31": "Boží muka",
                "P31^label:cs": "Boží muka",
                "P131^label:cs": "Deštná",
                "P6736": "1373"
            },
            "geometry": {
                "type": "Point",
                "coordinates": [
                    14.91696,
                    49.26347
                ]
            }
        },
        {
            "type": "Feature",
            "properties": {
                "label:cs": "Kaple u Deštné",
                "P31": "Kaple",
                "P31^label:cs": "Kaple",
                "P131^label:cs": "Deštná",
                "P6736": "1374"
            },
            "geometry": {
                "type": "Point",
                "coordinates": [
                    14.91745,
                    49.26298
                ]
            }
        },
        {
            "type": "Feature",
            "properties": {
                "label:cs": "Kříž u Deštné",
                "P31": "Pamětní kříž",
                "P31^label:cs": "Pamětní kříž",
                "P131^label:cs": "Deštná",
                "P6736": "1375"
            },
            "geometry": {
                "type": "Point",
                "coordinates": [
                    14.91697,
                    49.26205
                ]
            }
        }
    ]
}