{"type":"FeatureCollection","features":[{"type":"Feature","properties":{"label:cs":"Kříž jižně od Březiny","P31":"http://www.wikidata.org/entity/Q2309609","P31^label:cs":"Pamětní kříž","P131^label:cs":"Březina","P6736":"11992"},"geometry":{"type":"Point","coordinates":[14.9145,49.28415]}},{"type":"Feature","properties":{"label:cs":"Kříž jihozápadně od Březiny","P31":"http://www.wikidata.org/entity/Q2309609","P31^label:cs":"Pamětní kříž","P131^label:cs":"Březina","P6736":"8248"},"geometry":{"type":"Point","coordinates":[14.90642,49.28814]}},{"type":"Feature","properties":{"label:cs":"Kříž východně od Březiny u polní cesty","P31":"http://www.wikidata.org/entity/Q2309609","P31^label:cs":"Pamětní kříž","P131^label:cs":"Březina","P6736":"8244"},"geometry":{"type":"Point","coordinates":[14.90874,49.28969]}},{"type":"Feature","properties":{"label:cs":"Kříž dřevěný severně od Březiny","P31":"http://www.wikidata.org/entity/Q2309609","P31^label:cs":"Pamětní kříž","P131^label:cs":"Březina","P6736":"8243"},"geometry":{"type":"Point","coordinates":[14.90647,49.29595]}},{"type":"Feature","properties":{"label:cs":"Kříž severně od Březiny","P31":"http://www.wikidata.org/entity/Q2309609","P31^label:cs":"Pamětní kříž","P131^label:cs":"Březina","P6736":"8242"},"geometry":{"type":"Point","coordinates":[14.90654,49.29605]}},{"type":"Feature","properties":{"label:cs":"Kříž jižně od Březiny","P31":"http://www.wikidata.org/entity/Q2309609","P31^label:cs":"Pamětní kříž","P131^label:cs":"Březina","P6736":"7004"},"geometry":{"type":"Point","coordinates":[14.9137,49.2864]}},{"type":"Feature","properties":{"label:cs":"Kaplička v Březině u zemědělského areálu","P31":"http://www.wikidata.org/entity/Q14552192","P31^label:cs":"Kaplička","P131^label:cs":"Březina","P6736":"7003"},"geometry":{"type":"Point","coordinates":[14.91388,49.28942]}},{"type":"Feature","properties":{"label:cs":"Kříž jihozápadně od Březiny u rozcestí","P31":"http://www.wikidata.org/entity/Q2309609","P31^label:cs":"Pamětní kříž","P131^label:cs":"Březina","P6736":"7002"},"geometry":{"type":"Point","coordinates":[14.90844,49.28989]}},{"type":"Feature","properties":{"label:cs":"Kaple v Březině","P31":"http://www.wikidata.org/entity/Q108325","P31^label:cs":"Kaple","P131^label:cs":"Březina","P6736":"7001"},"geometry":{"type":"Point","coordinates":[14.90969,49.29073]}},{"type":"Feature","properties":{"label:cs":"Kříž u kaple v Březině","P31":"http://www.wikidata.org/entity/Q2309609","P31^label:cs":"Pamětní kříž","P131^label:cs":"Březina","P6736":"7000"},"geometry":{"type":"Point","coordinates":[14.90961,49.29065]}},{"type":"Feature","properties":{"label:cs":"Kaplička v Březině","P31":"http://www.wikidata.org/entity/Q14552192","P31^label:cs":"Kaplička","P131^label:cs":"Březina","P6736":"6998"},"geometry":{"type":"Point","coordinates":[14.91185,49.29138]}},{"type":"Feature","properties":{"label:cs":"Kříž v Březině","P31":"http://www.wikidata.org/entity/Q2309609","P31^label:cs":"Pamětní kříž","P131^label:cs":"Březina","P6736":"6999"},"geometry":{"type":"Point","coordinates":[14.90982,49.29201]}},{"type":"Feature","properties":{"label:cs":"Pomník padlým v Březině","P31":"http://www.wikidata.org/entity/Q575759","P31^label:cs":"Pomník padlým","P131^label:cs":"Březina","P6736":"6997"},"geometry":{"type":"Point","coordinates":[14.91237,49.2909]}},{"type":"Feature","properties":{"label:cs":"Kaplička u Březiny","P31":"http://www.wikidata.org/entity/Q14552192","P31^label:cs":"Kaplička","P131^label:cs":"Březina","P6736":"1283"},"geometry":{"type":"Point","coordinates":[14.91763,49.29077]}}]}