{"type":"FeatureCollection","features":[{"type":"Feature","properties":{"label:cs":"Kaplička u dvora Josafat","P31":"http://www.wikidata.org/entity/Q14552192","P31^label:cs":"Kaplička","P131^label:cs":"Dolní Hořice","P6736":"2194"},"geometry":{"type":"Point","coordinates":[14.90047,49.40445]}},{"type":"Feature","properties":{"label:cs":"Kříž u dvora Josafat","P31":"http://www.wikidata.org/entity/Q2309609","P31^label:cs":"Pamětní kříž","P131^label:cs":"Dolní Hořice","P6736":"2195"},"geometry":{"type":"Point","coordinates":[14.89841,49.40286]}},{"type":"Feature","properties":{"label:cs":"Kaplička u Bezděčína","P31":"http://www.wikidata.org/entity/Q14552192","P31^label:cs":"Kaplička","P131^label:cs":"Obrataň","P6736":"1226"},"geometry":{"type":"Point","coordinates":[14.91178,49.407]}},{"type":"Feature","properties":{"label:cs":"Kaple v Bezděčíně","P31":"http://www.wikidata.org/entity/Q108325","P31^label:cs":"Kaple","P131^label:cs":"Obrataň","P6736":"6449"},"geometry":{"type":"Point","coordinates":[14.91445,49.40771]}},{"type":"Feature","properties":{"label:cs":"Kříž v Údolí","P31":"http://www.wikidata.org/entity/Q2309609","P31^label:cs":"Pamětní kříž","P131^label:cs":"Obrataň","P6736":"8102"},"geometry":{"type":"Point","coordinates":[14.90827,49.40389]}}]}