{"type":"FeatureCollection","features":[{"type":"Feature","properties":{"label:cs":"Lípa republiky v Mladé Boleslavi","P31":"http://www.wikidata.org/entity/Q4989906","P31^label:cs":"Pomník","P131^label:cs":"Mladá Boleslav","P6736":"39548"},"geometry":{"type":"Point","coordinates":[14.91385,50.41897]}},{"type":"Feature","properties":{"label:cs":"Památník Závodu míru v Mladé Boleslavi","P31":"http://www.wikidata.org/entity/Q5003624","P31^label:cs":"Památník","P131^label:cs":"Mladá Boleslav","P6736":"39546"},"geometry":{"type":"Point","coordinates":[14.91444,50.42603]}},{"type":"Feature","properties":{"label:cs":"Zvonička na hřbitově v Mladé Boleslavi","P31":"http://www.wikidata.org/entity/Q10861631","P31^label:cs":"Zvonička","P131^label:cs":"Mladá Boleslav","P6736":"38150"},"geometry":{"type":"Point","coordinates":[14.91466,50.41567]}},{"type":"Feature","properties":{"label:cs":"Centrální kříž na hřbitově v Mladé Boleslavi","P31":"http://www.wikidata.org/entity/Q2309609","P31^label:cs":"Pamětní kříž","P131^label:cs":"Mladá Boleslav","P6736":"38149"},"geometry":{"type":"Point","coordinates":[14.91549,50.41657]}},{"type":"Feature","properties":{"label:cs":"Kaple na hřbitově v Mladé Boleslavi","P31":"http://www.wikidata.org/entity/Q108325","P31^label:cs":"Kaple","P131^label:cs":"Mladá Boleslav","P6736":"38148"},"geometry":{"type":"Point","coordinates":[14.91463,50.41573]}},{"type":"Feature","properties":{"label:cs":"Lípa republiky - památník 100. výročí založení Československa v Mladé Boleslavi","P31":"http://www.wikidata.org/entity/Q5003624","P31^label:cs":"Památník","P131^label:cs":"Mladá Boleslav","P6736":"37785"},"geometry":{"type":"Point","coordinates":[14.9078,50.41568]}},{"type":"Feature","properties":{"label:cs":"Betonová plastika Vítězné mládí v ulici Václava Klementa v Mladé Boleslavi","P31":"http://www.wikidata.org/entity/Q12045520","P31^label:cs":"Plastika","P131^label:cs":"Mladá Boleslav","P6736":"26548"},"geometry":{"type":"Point","coordinates":[14.91747,50.42491]}},{"type":"Feature","properties":{"label:cs":"Památník aviatika Metoděje Vlacha v Havlíčkově ulici v Mladé Boleslavi","P31":"http://www.wikidata.org/entity/Q5003624","P31^label:cs":"Památník","P131^label:cs":"Mladá Boleslav","P6736":"25286"},"geometry":{"type":"Point","coordinates":[14.90768,50.42175]}},{"type":"Feature","properties":{"label:cs":"Socha u Centra pro zdravotně postižené v Mladé Boleslavi","P31":"http://www.wikidata.org/entity/Q179700","P31^label:cs":"Socha","P131^label:cs":"Mladá Boleslav","P6736":"25285"},"geometry":{"type":"Point","coordinates":[14.9064,50.41866]}},{"type":"Feature","properties":{"label:cs":"Kříž na rohu ulic Gellnerova a Havlíčkova v Mladé Boleslavi","P31":"http://www.wikidata.org/entity/Q2309609","P31^label:cs":"Pamětní kříž","P131^label:cs":"Mladá Boleslav","P6736":"25284"},"geometry":{"type":"Point","coordinates":[14.90626,50.41843]}},{"type":"Feature","properties":{"label:cs":"Pamětní deska profesorů gymnázia v Mladé Boleslavi","P31":"http://www.wikidata.org/entity/Q721747","P31^label:cs":"Pamětní deska","P131^label:cs":"Mladá Boleslav","P6736":"25283"},"geometry":{"type":"Point","coordinates":[14.90665,50.417]}},{"type":"Feature","properties":{"label:cs":"Sousoší tančících žen vlevo u schodů do parku Výstaviště v Mladé Boleslavi","P31":"http://www.wikidata.org/entity/Q179700","P31^label:cs":"Socha","P131^label:cs":"Mladá Boleslav","P6736":"25280"},"geometry":{"type":"Point","coordinates":[14.90814,50.41575]}},{"type":"Feature","properties":{"label:cs":"Pomník Jana Amose Komenského v parku u Městského divadla v Mladé Boleslavi","P31":"http://www.wikidata.org/entity/Q4989906","P31^label:cs":"Pomník","P131^label:cs":"Mladá Boleslav","P6736":"25279"},"geometry":{"type":"Point","coordinates":[14.90737,50.41582]}},{"type":"Feature","properties":{"label:cs":"Socha u průmyslové školy v Havlíčkově ulici v Mladé Boleslavi","P31":"http://www.wikidata.org/entity/Q179700","P31^label:cs":"Socha","P131^label:cs":"Mladá Boleslav","P6736":"25275"},"geometry":{"type":"Point","coordinates":[14.90422,50.41594]}},{"type":"Feature","properties":{"label:cs":"Kamenná plastika v ulici Václava Klementa v Mladé Boleslavi","P31":"http://www.wikidata.org/entity/Q12045520","P31^label:cs":"Plastika","P131^label:cs":"Mladá Boleslav","P6736":"25246"},"geometry":{"type":"Point","coordinates":[14.91285,50.4185]}},{"type":"Feature","properties":{"label:cs":"Kovová plastika v ulici Sirotkova v Mladé Boleslavi","P31":"http://www.wikidata.org/entity/Q12045520","P31^label:cs":"Plastika","P131^label:cs":"Mladá Boleslav","P6736":"25245"},"geometry":{"type":"Point","coordinates":[14.91053,50.41957]}},{"type":"Feature","properties":{"label:cs":"Sousoší Laurin a Klement u Škoda Auto muzea v Mladé Boleslavi","P31":"http://www.wikidata.org/entity/Q179700","P31^label:cs":"Socha","P131^label:cs":"Mladá Boleslav","P6736":"25244"},"geometry":{"type":"Point","coordinates":[14.91389,50.41906]}}]}