{"type":"FeatureCollection","features":[{"type":"Feature","properties":{"label:cs":"Kříž v Boleslavské ulici v Bakově nad Jizerou","P31":"http://www.wikidata.org/entity/Q2309609","P31^label:cs":"Pamětní kříž","P131^label:cs":"Bakov nad Jizerou","P6736":"26528"},"geometry":{"type":"Point","coordinates":[14.93767,50.48004]}},{"type":"Feature","properties":{"label:cs":"Husův pomník u cesty za stadionem v Bakově nad Jizerou","P31":"http://www.wikidata.org/entity/Q4989906","P31^label:cs":"Pomník","P131^label:cs":"Bakov nad Jizerou","P6736":"26527"},"geometry":{"type":"Point","coordinates":[14.93562,50.47667]}},{"type":"Feature","properties":{"label:cs":"Kaple svaté Barbory v Bakově nad Jizerou","P31":"http://www.wikidata.org/entity/Q108325","P31^label:cs":"Kaple","P131^label:cs":"Bakov nad Jizerou","P6736":"26526"},"geometry":{"type":"Point","coordinates":[14.93816,50.48013]}},{"type":"Feature","properties":{"label:cs":"Socha Jizera na Mírovém náměstí v Bakově nad Jizerou","P31":"http://www.wikidata.org/entity/Q179700","P31^label:cs":"Socha","P131^label:cs":"Bakov nad Jizerou","P6736":"26525"},"geometry":{"type":"Point","coordinates":[14.93693,50.48095]}},{"type":"Feature","properties":{"label:cs":"Pomník Jiřího Ignáce Linky na Mírovém náměstí v Bakově nad Jizerou","P31":"http://www.wikidata.org/entity/Q4989906","P31^label:cs":"Pomník","P131^label:cs":"Bakov nad Jizerou","P6736":"26524"},"geometry":{"type":"Point","coordinates":[14.93649,50.48175]}},{"type":"Feature","properties":{"label:cs":"Podstavec sochy svatého Antonína u kostela svatého Bartoloměje v Bakově nad Jizerou","P31":"http://www.wikidata.org/entity/Q179700","P31^label:cs":"Socha","P131^label:cs":"Bakov nad Jizerou","P6736":"26523"},"geometry":{"type":"Point","coordinates":[14.93574,50.4821]}},{"type":"Feature","properties":{"label:cs":"Kříž u západní zdi kostela svatého Bartoloměje v Bakově nad Jizerou","P31":"http://www.wikidata.org/entity/Q2309609","P31^label:cs":"Pamětní kříž","P131^label:cs":"Bakov nad Jizerou","P6736":"26522"},"geometry":{"type":"Point","coordinates":[14.93583,50.48216]}},{"type":"Feature","properties":{"label:cs":"Socha svatého Jana Nepomuckého u Muzea Bakovska v Bakově nad Jizerou","P31":"http://www.wikidata.org/entity/Q179700","P31^label:cs":"Socha","P131^label:cs":"Bakov nad Jizerou","P6736":"26521"},"geometry":{"type":"Point","coordinates":[14.93607,50.48223]}},{"type":"Feature","properties":{"label:cs":"Kříž u kostela svatého Bartoloměje v Bakově nad Jizerou","P31":"http://www.wikidata.org/entity/Q2309609","P31^label:cs":"Pamětní kříž","P131^label:cs":"Bakov nad Jizerou","P6736":"26520"},"geometry":{"type":"Point","coordinates":[14.93617,50.48191]}},{"type":"Feature","properties":{"label:cs":"Sloup Nejsvětější Trojice na Mírovém náměstí v Bakově nad Jizerou","P31":"http://www.wikidata.org/entity/Q4817","P31^label:cs":"Sloup","P131^label:cs":"Bakov nad Jizerou","P6736":"26516"},"geometry":{"type":"Point","coordinates":[14.93656,50.48124]}},{"type":"Feature","properties":{"label:cs":"Pamětní deska padlému Vilému Ortlíkovi na nádraží v Bakově nad Jizerou","P31":"http://www.wikidata.org/entity/Q721747","P31^label:cs":"Pamětní deska","P131^label:cs":"Bakov nad Jizerou","P6736":"32447"},"geometry":{"type":"Point","coordinates":[14.92311,50.4721]}}]}