{"type":"FeatureCollection","features":[{"type":"Feature","properties":{"label:cs":"Kříž u Sudkova Dolu u potoka Bělá","P31":"Pamětní kříž","P31^label:cs":"Pamětní kříž","P131^label:cs":"Obrataň","P6736":"6448"},"geometry":{"type":"Point","coordinates":[14.9238,49.40504]}},{"type":"Feature","properties":{"label:cs":"Kříž v Sudkově Dolu u zdi","P31":"Pamětní kříž","P31^label:cs":"Pamětní kříž","P131^label:cs":"Obrataň","P6736":"6447"},"geometry":{"type":"Point","coordinates":[14.92719,49.4057]}},{"type":"Feature","properties":{"label:cs":"Kříž u kaple v Sudkově Dole","P31":"Pamětní kříž","P31^label:cs":"Pamětní kříž","P131^label:cs":"Obrataň","P6736":"6445"},"geometry":{"type":"Point","coordinates":[14.92561,49.40589]}},{"type":"Feature","properties":{"label:cs":"Kaple v Sudkově Dole","P31":"Kaple","P31^label:cs":"Kaple","P131^label:cs":"Obrataň","P6736":"6446"},"geometry":{"type":"Point","coordinates":[14.92554,49.40591]}},{"type":"Feature","properties":{"label:cs":"Kříž jižně od Sudkova Dolu","P31":"Pamětní kříž","P31^label:cs":"Pamětní kříž","P131^label:cs":"Obrataň","P6736":"6444"},"geometry":{"type":"Point","coordinates":[14.92621,49.40437]}}]}