{"type":"FeatureCollection","features":[{"type":"Feature","properties":{"label:cs":"Kaplička XIV. zastavení křížové cesty v Bílém Kostele nad Nisou","P31":"http://www.wikidata.org/entity/Q14552192","P31^label:cs":"Kaplička","P131^label:cs":"Bílý Kostel nad Nisou","P6736":"42403"},"geometry":{"type":"Point","coordinates":[14.92468,50.82361]}},{"type":"Feature","properties":{"label:cs":"Kaplička XIII. zastavení křížové cesty v Bílém Kostele nad Nisou","P31":"http://www.wikidata.org/entity/Q14552192","P31^label:cs":"Kaplička","P131^label:cs":"Bílý Kostel nad Nisou","P6736":"42402"},"geometry":{"type":"Point","coordinates":[14.9248,50.82368]}},{"type":"Feature","properties":{"label:cs":"Kaplička XII. zastavení křížové cesty v Bílém Kostele nad Nisou","P31":"http://www.wikidata.org/entity/Q14552192","P31^label:cs":"Kaplička","P131^label:cs":"Bílý Kostel nad Nisou","P6736":"42401"},"geometry":{"type":"Point","coordinates":[14.92488,50.82375]}},{"type":"Feature","properties":{"label:cs":"Kaplička XI. zastavení křížové cesty v Bílém Kostele nad Nisou","P31":"http://www.wikidata.org/entity/Q14552192","P31^label:cs":"Kaplička","P131^label:cs":"Bílý Kostel nad Nisou","P6736":"42400"},"geometry":{"type":"Point","coordinates":[14.92489,50.82386]}},{"type":"Feature","properties":{"label:cs":"Kaplička X. zastavení křížové cesty v Bílém Kostele nad Nisou","P31":"http://www.wikidata.org/entity/Q14552192","P31^label:cs":"Kaplička","P131^label:cs":"Bílý Kostel nad Nisou","P6736":"42399"},"geometry":{"type":"Point","coordinates":[14.92472,50.82395]}},{"type":"Feature","properties":{"label:cs":"Kaplička IX. zastavení křížové cesty v Bílém Kostele nad Nisou","P31":"http://www.wikidata.org/entity/Q14552192","P31^label:cs":"Kaplička","P131^label:cs":"Bílý Kostel nad Nisou","P6736":"42398"},"geometry":{"type":"Point","coordinates":[14.92474,50.82394]}},{"type":"Feature","properties":{"label:cs":"Kaplička VIII. zastavení křížové cesty v Bílém Kostele nad Nisou","P31":"http://www.wikidata.org/entity/Q14552192","P31^label:cs":"Kaplička","P131^label:cs":"Bílý Kostel nad Nisou","P6736":"42397"},"geometry":{"type":"Point","coordinates":[14.92424,50.82401]}},{"type":"Feature","properties":{"label:cs":"Kaplička VII. zastavení křížové cesty v Bílém Kostele nad Nisou","P31":"http://www.wikidata.org/entity/Q14552192","P31^label:cs":"Kaplička","P131^label:cs":"Bílý Kostel nad Nisou","P6736":"42396"},"geometry":{"type":"Point","coordinates":[14.92416,50.82396]}},{"type":"Feature","properties":{"label:cs":"Kaplička VI. zastavení křížové cesty v Bílém Kostele nad Nisou","P31":"http://www.wikidata.org/entity/Q14552192","P31^label:cs":"Kaplička","P131^label:cs":"Bílý Kostel nad Nisou","P6736":"42395"},"geometry":{"type":"Point","coordinates":[14.92409,50.82391]}},{"type":"Feature","properties":{"label:cs":"Kaplička V. zastavení křížové cesty v Bílém Kostele nad Nisou","P31":"http://www.wikidata.org/entity/Q14552192","P31^label:cs":"Kaplička","P131^label:cs":"Bílý Kostel nad Nisou","P6736":"42394"},"geometry":{"type":"Point","coordinates":[14.92404,50.82384]}},{"type":"Feature","properties":{"label:cs":"Kaplička IV. zastavení křížové cesty v Bílém Kostele nad Nisou","P31":"http://www.wikidata.org/entity/Q14552192","P31^label:cs":"Kaplička","P131^label:cs":"Bílý Kostel nad Nisou","P6736":"42393"},"geometry":{"type":"Point","coordinates":[14.92406,50.8237]}},{"type":"Feature","properties":{"label:cs":"Kaplička III. zastavení křížové cesty v Bílém Kostele nad Nisou","P31":"http://www.wikidata.org/entity/Q14552192","P31^label:cs":"Kaplička","P131^label:cs":"Bílý Kostel nad Nisou","P6736":"42392"},"geometry":{"type":"Point","coordinates":[14.92417,50.82361]}},{"type":"Feature","properties":{"label:cs":"Kaplička II. zastavení křížové cesty v Bílém Kostele nad Nisou","P31":"http://www.wikidata.org/entity/Q14552192","P31^label:cs":"Kaplička","P131^label:cs":"Bílý Kostel nad Nisou","P6736":"42391"},"geometry":{"type":"Point","coordinates":[14.9243,50.82358]}},{"type":"Feature","properties":{"label:cs":"Kaplička I. zastavení křížové cesty v Bílém Kostele nad Nisou","P31":"http://www.wikidata.org/entity/Q14552192","P31^label:cs":"Kaplička","P131^label:cs":"Bílý Kostel nad Nisou","P6736":"42390"},"geometry":{"type":"Point","coordinates":[14.92441,50.82357]}},{"type":"Feature","properties":{"label:cs":"Kříž naproti domu 249 v Bílém Kostele nad Nisou","P31":"http://www.wikidata.org/entity/Q2309609","P31^label:cs":"Pamětní kříž","P131^label:cs":"Bílý Kostel nad Nisou","P6736":"42384"},"geometry":{"type":"Point","coordinates":[14.92093,50.82535]}},{"type":"Feature","properties":{"label:cs":"Kříž naproti domu 298 v Bílém Kostele nad Nisou","P31":"http://www.wikidata.org/entity/Q2309609","P31^label:cs":"Pamětní kříž","P131^label:cs":"Bílý Kostel nad Nisou","P6736":"42382"},"geometry":{"type":"Point","coordinates":[14.92007,50.82338]}},{"type":"Feature","properties":{"label:cs":"Pomník Miroslava Vavřiníka u obecního úřadu v Bílém Kostele nad Nisou","P31":"http://www.wikidata.org/entity/Q4989906","P31^label:cs":"Pomník","P131^label:cs":"Bílý Kostel nad Nisou","P6736":"42380"},"geometry":{"type":"Point","coordinates":[14.92417,50.82314]}},{"type":"Feature","properties":{"label:cs":"Kříž u kostela v Bílém Kostele nad Nisou","P31":"http://www.wikidata.org/entity/Q2309609","P31^label:cs":"Pamětní kříž","P131^label:cs":"Bílý Kostel nad Nisou","P6736":"42378"},"geometry":{"type":"Point","coordinates":[14.92449,50.82366]}},{"type":"Feature","properties":{"label:cs":"Pomník padlým v 1. světové válce v Bílém Kostele nad Nisou","P31":"http://www.wikidata.org/entity/Q575759","P31^label:cs":"Pomník padlým","P131^label:cs":"Bílý Kostel nad Nisou","P6736":"42377"},"geometry":{"type":"Point","coordinates":[14.92445,50.82351]}},{"type":"Feature","properties":{"label:cs":"Kříž u Křížového potoka v Bílém Kostele nad Nisou","P31":"http://www.wikidata.org/entity/Q2309609","P31^label:cs":"Pamětní kříž","P131^label:cs":"Bílý Kostel nad Nisou","P6736":"42376"},"geometry":{"type":"Point","coordinates":[14.92416,50.82092]}},{"type":"Feature","properties":{"label:cs":"Socha svatého Jana Nepomuckého v Bílém Kostele nad Nisou","P31":"http://www.wikidata.org/entity/Q179700","P31^label:cs":"Socha","P131^label:cs":"Bílý Kostel nad Nisou","P6736":"9354"},"geometry":{"type":"Point","coordinates":[14.92544,50.82425]}}]}