{"type":"FeatureCollection","features":[{"type":"Feature","properties":{"label:cs":"Pamětní deska padlým v 1. světové válce v Bořetíně","P31":"http://www.wikidata.org/entity/Q721747","P31^label:cs":"Pamětní deska","P131^label:cs":"Bořetín","P6736":"26156"},"geometry":{"type":"Point","coordinates":[14.94764,49.31015]}},{"type":"Feature","properties":{"label:cs":"Kříž v jižní části Bořetína","P31":"http://www.wikidata.org/entity/Q2309609","P31^label:cs":"Pamětní kříž","P131^label:cs":"Bořetín","P6736":"21602"},"geometry":{"type":"Point","coordinates":[14.94956,49.30793]}},{"type":"Feature","properties":{"label:cs":"Pomník padlým v Bořetíně","P31":"http://www.wikidata.org/entity/Q575759","P31^label:cs":"Pomník padlým","P131^label:cs":"Bořetín","P6736":"6796"},"geometry":{"type":"Point","coordinates":[14.94942,49.30857]}},{"type":"Feature","properties":{"label:cs":"Pomník letce RAF v Bořetíně","P31":"http://www.wikidata.org/entity/Q4989906","P31^label:cs":"Pomník","P131^label:cs":"Bořetín","P6736":"6118"},"geometry":{"type":"Point","coordinates":[14.94802,49.30866]}},{"type":"Feature","properties":{"label:cs":"Kříž jižně od Bořetína","P31":"http://www.wikidata.org/entity/Q2309609","P31^label:cs":"Pamětní kříž","P131^label:cs":"Bořetín","P6736":"6117"},"geometry":{"type":"Point","coordinates":[14.94492,49.3083]}},{"type":"Feature","properties":{"label:cs":"Kříž u kaple v Bořetíně","P31":"http://www.wikidata.org/entity/Q2309609","P31^label:cs":"Pamětní kříž","P131^label:cs":"Bořetín","P6736":"6116"},"geometry":{"type":"Point","coordinates":[14.94731,49.31034]}},{"type":"Feature","properties":{"label:cs":"Kaple v Bořetíně","P31":"http://www.wikidata.org/entity/Q108325","P31^label:cs":"Kaple","P131^label:cs":"Bořetín","P6736":"6115"},"geometry":{"type":"Point","coordinates":[14.94738,49.3103]}},{"type":"Feature","properties":{"label:cs":"Kříž jihovýchodně od Bořetína","P31":"http://www.wikidata.org/entity/Q2309609","P31^label:cs":"Pamětní kříž","P131^label:cs":"Bořetín","P6736":"1257"},"geometry":{"type":"Point","coordinates":[14.95201,49.30687]}},{"type":"Feature","properties":{"label:cs":"Kříž východně od Drunčí v lese","P31":"http://www.wikidata.org/entity/Q2309609","P31^label:cs":"Pamětní kříž","P131^label:cs":"Drunče","P6736":"6991"},"geometry":{"type":"Point","coordinates":[14.94871,49.29691]}},{"type":"Feature","properties":{"label:cs":"Kříž severně od Mnichu","P31":"http://www.wikidata.org/entity/Q2309609","P31^label:cs":"Pamětní kříž","P131^label:cs":"Mnich","P6736":"27096"},"geometry":{"type":"Point","coordinates":[14.96139,49.30661]}},{"type":"Feature","properties":{"label:cs":"Kříž západně od Mnichu","P31":"http://www.wikidata.org/entity/Q2309609","P31^label:cs":"Pamětní kříž","P131^label:cs":"Mnich","P6736":"6990"},"geometry":{"type":"Point","coordinates":[14.95775,49.29726]}},{"type":"Feature","properties":{"label:cs":"Památník slovanského bratrství u Mnichu","P31":"http://www.wikidata.org/entity/Q5003624","P31^label:cs":"Památník","P131^label:cs":"Mnich","P6736":"6986"},"geometry":{"type":"Point","coordinates":[14.96063,49.30281]}},{"type":"Feature","properties":{"label:cs":"Památník na osvobození 1945 u Mnichu","P31":"http://www.wikidata.org/entity/Q5003624","P31^label:cs":"Památník","P131^label:cs":"Mnich","P6736":"6119"},"geometry":{"type":"Point","coordinates":[14.96122,49.30212]}},{"type":"Feature","properties":{"label:cs":"Kříž u Mnichu u silnice na Chválkov","P31":"http://www.wikidata.org/entity/Q2309609","P31^label:cs":"Pamětní kříž","P131^label:cs":"Mnich","P6736":"2072"},"geometry":{"type":"Point","coordinates":[14.96234,49.30872]}}]}