{"type":"FeatureCollection","features":[{"type":"Feature","properties":{"label:cs":"Kaplička u křižovatky silnic v Bukové","P31":"http://www.wikidata.org/entity/Q14552192","P31^label:cs":"Kaplička","P131^label:cs":"Pravonín","P6736":"39950"},"geometry":{"type":"Point","coordinates":[14.94825,49.61609]}},{"type":"Feature","properties":{"label:cs":"Kaple svatého Václava na návsi v Bukové","P31":"http://www.wikidata.org/entity/Q108325","P31^label:cs":"Kaple","P131^label:cs":"Pravonín","P6736":"39949"},"geometry":{"type":"Point","coordinates":[14.95053,49.61508]}},{"type":"Feature","properties":{"label:cs":"Boží muka u silnice na severním okraji Bukové","P31":"http://www.wikidata.org/entity/Q3395121","P31^label:cs":"Boží muka","P131^label:cs":"Pravonín","P6736":"39948"},"geometry":{"type":"Point","coordinates":[14.94963,49.61354]}},{"type":"Feature","properties":{"label:cs":"Kříž u zastávky autobusu v Tisku","P31":"http://www.wikidata.org/entity/Q2309609","P31^label:cs":"Pamětní kříž","P131^label:cs":"Pravonín","P6736":"39947"},"geometry":{"type":"Point","coordinates":[14.9542,49.62202]}},{"type":"Feature","properties":{"label:cs":"Kaple ve středu Tisku","P31":"http://www.wikidata.org/entity/Q108325","P31^label:cs":"Kaple","P131^label:cs":"Pravonín","P6736":"39946"},"geometry":{"type":"Point","coordinates":[14.95559,49.62152]}},{"type":"Feature","properties":{"label:cs":"Kříž u polní cesty severně od Tisku","P31":"http://www.wikidata.org/entity/Q2309609","P31^label:cs":"Pamětní kříž","P131^label:cs":"Pravonín","P6736":"39944"},"geometry":{"type":"Point","coordinates":[14.95676,49.6242]}}]}