{"type":"FeatureCollection","features":[{"type":"Feature","properties":{"label:cs":"Pomník padlým ve válce 1866 v Klášterské ulici v Klášteru Hradiště nad Jizerou","P31":"http://www.wikidata.org/entity/Q575759","P31^label:cs":"Pomník padlým","P131^label:cs":"Klášter Hradiště nad Jizerou","P6736":"28832"},"geometry":{"type":"Point","coordinates":[14.94271,50.52119]}},{"type":"Feature","properties":{"label:cs":"Pomník padlému ve válce 1866 v ulici Dürichova v Klášteru Hradiště nad Jizerou","P31":"http://www.wikidata.org/entity/Q575759","P31^label:cs":"Pomník padlým","P131^label:cs":"Klášter Hradiště nad Jizerou","P6736":"28831"},"geometry":{"type":"Point","coordinates":[14.94474,50.52331]}},{"type":"Feature","properties":{"label:cs":"Pomník padlému ve válce 1866 v ulici K Bukovině v Klášteru Hradiště nad Jizerou","P31":"http://www.wikidata.org/entity/Q575759","P31^label:cs":"Pomník padlým","P131^label:cs":"Klášter Hradiště nad Jizerou","P6736":"28830"},"geometry":{"type":"Point","coordinates":[14.94555,50.5239]}},{"type":"Feature","properties":{"label:cs":"Kamenná plastika v parku u obecního úřadu v Klášteru Hradiště nad Jizerou","P31":"http://www.wikidata.org/entity/Q12045520","P31^label:cs":"Plastika","P131^label:cs":"Klášter Hradiště nad Jizerou","P6736":"28824"},"geometry":{"type":"Point","coordinates":[14.94777,50.52542]}},{"type":"Feature","properties":{"label:cs":"Pamětní deska Josefa Jáchyma na budově obecního úřadu v Klášteru Hradiště nad Jizerou","P31":"http://www.wikidata.org/entity/Q721747","P31^label:cs":"Pamětní deska","P131^label:cs":"Klášter Hradiště nad Jizerou","P6736":"28823"},"geometry":{"type":"Point","coordinates":[14.94813,50.52533]}},{"type":"Feature","properties":{"label:cs":"Pomník padlým ve světových válkách v Klášteru Hradiště nad Jizerou","P31":"http://www.wikidata.org/entity/Q575759","P31^label:cs":"Pomník padlým","P131^label:cs":"Klášter Hradiště nad Jizerou","P6736":"28822"},"geometry":{"type":"Point","coordinates":[14.94793,50.52533]}},{"type":"Feature","properties":{"label:cs":"Kamenná plastika v klášterní zahradě v Klášteru Hradiště nad Jizerou","P31":"http://www.wikidata.org/entity/Q12045520","P31^label:cs":"Plastika","P131^label:cs":"Klášter Hradiště nad Jizerou","P6736":"28821"},"geometry":{"type":"Point","coordinates":[14.94872,50.52489]}},{"type":"Feature","properties":{"label:cs":"Pomník Františka Zvěřiny v klášterní zahradě v Klášteru Hradiště nad Jizerou","P31":"http://www.wikidata.org/entity/Q4989906","P31^label:cs":"Pomník","P131^label:cs":"Klášter Hradiště nad Jizerou","P6736":"28820"},"geometry":{"type":"Point","coordinates":[14.94821,50.52507]}},{"type":"Feature","properties":{"label:cs":"Pomník padlým ve válce 1866 u kostela v Klášteru Hradiště nad Jizerou","P31":"http://www.wikidata.org/entity/Q575759","P31^label:cs":"Pomník padlým","P131^label:cs":"Klášter Hradiště nad Jizerou","P6736":"28819"},"geometry":{"type":"Point","coordinates":[14.94886,50.525]}},{"type":"Feature","properties":{"label:cs":"Kříž u kostela v Klášteru Hradiště nad Jizerou","P31":"http://www.wikidata.org/entity/Q2309609","P31^label:cs":"Pamětní kříž","P131^label:cs":"Klášter Hradiště nad Jizerou","P6736":"28818"},"geometry":{"type":"Point","coordinates":[14.94905,50.52517]}},{"type":"Feature","properties":{"label:cs":"Socha svatého Jana Nepomuckého v Jivinské ulici v Klášteru Hradiště nad Jizerou","P31":"http://www.wikidata.org/entity/Q179700","P31^label:cs":"Socha","P131^label:cs":"Klášter Hradiště nad Jizerou","P6736":"28817"},"geometry":{"type":"Point","coordinates":[14.94921,50.52525]}},{"type":"Feature","properties":{"label:cs":"Pomník padlému ve válce 1866 u silnice východně od Kláštera Hradiště nad Jizerou","P31":"http://www.wikidata.org/entity/Q575759","P31^label:cs":"Pomník padlým","P131^label:cs":"Klášter Hradiště nad Jizerou","P6736":"28816"},"geometry":{"type":"Point","coordinates":[14.95726,50.52717]}}]}