{"type":"FeatureCollection","features":[{"type":"Feature","properties":{"label:cs":"Pamětní deska v Černovicích na rohu Svatavské ulice a náměstí","P31":"http://www.wikidata.org/entity/Q721747","P31^label:cs":"Pamětní deska","P131^label:cs":"Černovice","P6736":"33109"},"geometry":{"type":"Point","coordinates":[14.96197,49.37268]}},{"type":"Feature","properties":{"label:cs":"Pamětní deska Vojtěcha Bělohrobského-Vejskraba v Černovicích","P31":"http://www.wikidata.org/entity/Q721747","P31^label:cs":"Pamětní deska","P131^label:cs":"Černovice","P6736":"26747"},"geometry":{"type":"Point","coordinates":[14.96195,49.37302]}},{"type":"Feature","properties":{"label:cs":"Socha svatého Floriána v Černovicích","P31":"http://www.wikidata.org/entity/Q179700","P31^label:cs":"Socha","P131^label:cs":"Černovice","P6736":"18253"},"geometry":{"type":"Point","coordinates":[14.96171,49.37279]}},{"type":"Feature","properties":{"label:cs":"Socha svatého Jana Nepomuckého v Černovicích","P31":"http://www.wikidata.org/entity/Q179700","P31^label:cs":"Socha","P131^label:cs":"Černovice","P6736":"18252"},"geometry":{"type":"Point","coordinates":[14.9617,49.37285]}},{"type":"Feature","properties":{"label:cs":"Kříž v Černovicích u Pacovské ulice","P31":"http://www.wikidata.org/entity/Q2309609","P31^label:cs":"Pamětní kříž","P131^label:cs":"Černovice","P6736":"6739"},"geometry":{"type":"Point","coordinates":[14.96216,49.37491]}},{"type":"Feature","properties":{"label:cs":"Pomník obětí druhé světové války v Černovicích","P31":"http://www.wikidata.org/entity/Q575759","P31^label:cs":"Pomník padlým","P131^label:cs":"Černovice","P6736":"6738"},"geometry":{"type":"Point","coordinates":[14.96013,49.37421]}},{"type":"Feature","properties":{"label:cs":"Památník severně od Černovic","P31":"http://www.wikidata.org/entity/Q5003624","P31^label:cs":"Památník","P131^label:cs":"Černovice","P6736":"6737"},"geometry":{"type":"Point","coordinates":[14.96042,49.38069]}},{"type":"Feature","properties":{"label:cs":"Kříž v Černovicích u věže","P31":"http://www.wikidata.org/entity/Q2309609","P31^label:cs":"Pamětní kříž","P131^label:cs":"Černovice","P6736":"6619"},"geometry":{"type":"Point","coordinates":[14.96087,49.3729]}},{"type":"Feature","properties":{"label:cs":"Kaplička v Černovicích v Soběslavské ulici","P31":"http://www.wikidata.org/entity/Q14552192","P31^label:cs":"Kaplička","P131^label:cs":"Černovice","P6736":"6618"},"geometry":{"type":"Point","coordinates":[14.95483,49.37275]}},{"type":"Feature","properties":{"label:cs":"Kříž v Černovicích v Soběslavské ulici","P31":"http://www.wikidata.org/entity/Q2309609","P31^label:cs":"Pamětní kříž","P131^label:cs":"Černovice","P6736":"6617"},"geometry":{"type":"Point","coordinates":[14.95407,49.37154]}},{"type":"Feature","properties":{"label:cs":"Pomník padlým v Černovicích na náměstí","P31":"http://www.wikidata.org/entity/Q575759","P31^label:cs":"Pomník padlým","P131^label:cs":"Černovice","P6736":"6615"},"geometry":{"type":"Point","coordinates":[14.96055,49.37271]}},{"type":"Feature","properties":{"label:cs":"Kašna s mariánským sloupem v Černovicích","P31":"http://www.wikidata.org/entity/Q12029081","P31^label:cs":"Kašna","P131^label:cs":"Černovice","P6736":"6613"},"geometry":{"type":"Point","coordinates":[14.96015,49.37263]}},{"type":"Feature","properties":{"label:cs":"Kříž západně od Černovic","P31":"http://www.wikidata.org/entity/Q2309609","P31^label:cs":"Pamětní kříž","P131^label:cs":"Černovice","P6736":"3158"},"geometry":{"type":"Point","coordinates":[14.94867,49.36868]}},{"type":"Feature","properties":{"label:cs":"Boží muka nad Černovicemi","P31":"http://www.wikidata.org/entity/Q3395121","P31^label:cs":"Boží muka","P131^label:cs":"Černovice","P6736":"1335"},"geometry":{"type":"Point","coordinates":[14.9557,49.37566]}}]}