{"type":"FeatureCollection","features":[{"type":"Feature","properties":{"label:cs":"Kaplička v Lodhéřově","P31":"Q14552192","P31^label:cs":"Kaplička","P131^label:cs":"Lodhéřov","P6736":"22627"},"geometry":{"type":"Point","coordinates":[14.96337,49.2126]}},{"type":"Feature","properties":{"label:cs":"Socha svatého Judy Tadeáše v Lodhéřově","P31":"Q179700","P31^label:cs":"Socha","P131^label:cs":"Lodhéřov","P6736":"8274"},"geometry":{"type":"Point","coordinates":[14.9628,49.2129]}},{"type":"Feature","properties":{"label:cs":"Socha svatého Jana Nepomuckého v Lodhéřově","P31":"Q179700","P31^label:cs":"Socha","P131^label:cs":"Lodhéřov","P6736":"8273"},"geometry":{"type":"Point","coordinates":[14.96292,49.21282]}},{"type":"Feature","properties":{"label:cs":"Památník založení obce v Lodhéřově","P31":"Q5003624","P31^label:cs":"Památník","P131^label:cs":"Lodhéřov","P6736":"8272"},"geometry":{"type":"Point","coordinates":[14.96285,49.21268]}},{"type":"Feature","properties":{"label:cs":"Křížový kámen v Lodhéřově","P31":"Q38411643","P31^label:cs":"Křížový kámen","P131^label:cs":"Lodhéřov","P6736":"6425"},"geometry":{"type":"Point","coordinates":[14.95909,49.22464]}},{"type":"Feature","properties":{"label:cs":"Kříž v Lodhéřově u silnice","P31":"Q2309609","P31^label:cs":"Pamětní kříž","P131^label:cs":"Lodhéřov","P6736":"6424"},"geometry":{"type":"Point","coordinates":[14.96047,49.2226]}},{"type":"Feature","properties":{"label:cs":"Kříž v Lodhéřově pod kostelem","P31":"Q2309609","P31^label:cs":"Pamětní kříž","P131^label:cs":"Lodhéřov","P6736":"6423"},"geometry":{"type":"Point","coordinates":[14.96259,49.21286]}}]}