{"type":"FeatureCollection","features":[{"type":"Feature","properties":{"label:cs":"Kaplička na východním okraji Pravonína","P31":"http://www.wikidata.org/entity/Q14552192","P31^label:cs":"Kaplička","P131^label:cs":"Pravonín","P6736":"39943"},"geometry":{"type":"Point","coordinates":[14.94945,49.63805]}},{"type":"Feature","properties":{"label:cs":"Pomník padlému v druhé světové válce u kostela Jana Křtitele v Pravoníně","P31":"http://www.wikidata.org/entity/Q575759","P31^label:cs":"Pomník padlým","P131^label:cs":"Pravonín","P6736":"39942"},"geometry":{"type":"Point","coordinates":[14.94178,49.63573]}},{"type":"Feature","properties":{"label:cs":"Pamětní kříž u hospody Na rozcestí na návsi v Pravoníně","P31":"http://www.wikidata.org/entity/Q2309609","P31^label:cs":"Pamětní kříž","P131^label:cs":"Pravonín","P6736":"39941"},"geometry":{"type":"Point","coordinates":[14.94459,49.63625]}},{"type":"Feature","properties":{"label:cs":"Kašna na návsi v Pravoníně","P31":"http://www.wikidata.org/entity/Q12029081","P31^label:cs":"Kašna","P131^label:cs":"Pravonín","P6736":"39940"},"geometry":{"type":"Point","coordinates":[14.94238,49.63565]}},{"type":"Feature","properties":{"label:cs":"Pomník padlým v první světové válce před kostelem na návsi v Pravoníně","P31":"http://www.wikidata.org/entity/Q575759","P31^label:cs":"Pomník padlým","P131^label:cs":"Pravonín","P6736":"39939"},"geometry":{"type":"Point","coordinates":[14.94202,49.63554]}},{"type":"Feature","properties":{"label:cs":"Kříž před kostelem Jana Křtitele na návsi v Pravoníně","P31":"http://www.wikidata.org/entity/Q2309609","P31^label:cs":"Pamětní kříž","P131^label:cs":"Pravonín","P6736":"39938"},"geometry":{"type":"Point","coordinates":[14.94204,49.63567]}},{"type":"Feature","properties":{"label:cs":"Kříž na křižovatce polních cest na jižním okraji Pravonína","P31":"http://www.wikidata.org/entity/Q2309609","P31^label:cs":"Pamětní kříž","P131^label:cs":"Pravonín","P6736":"39937"},"geometry":{"type":"Point","coordinates":[14.9449,49.63233]}},{"type":"Feature","properties":{"label:cs":"Kaplička u silnice severně od Tisku","P31":"http://www.wikidata.org/entity/Q14552192","P31^label:cs":"Kaplička","P131^label:cs":"Pravonín","P6736":"39945"},"geometry":{"type":"Point","coordinates":[14.95424,49.62562]}}]}