{"type":"FeatureCollection","features":[{"type":"Feature","properties":{"label:cs":"Kříž u silnice ze Strak do Všejan","P31":"http://www.wikidata.org/entity/Q2309609","P31^label:cs":"Pamětní kříž","P131^label:cs":"Straky","P6736":"41961"},"geometry":{"type":"Point","coordinates":[14.95631,50.24866]}},{"type":"Feature","properties":{"label:cs":"Pamětní kříž v parku Františka Josefa I ve Vanovicích","P31":"http://www.wikidata.org/entity/Q2309609","P31^label:cs":"Pamětní kříž","P131^label:cs":"Všejany","P6736":"42777"},"geometry":{"type":"Point","coordinates":[14.94733,50.25647]}},{"type":"Feature","properties":{"label:cs":"Památný kámen u železničního přejezdu ve Všejanech","P31":"http://www.wikidata.org/entity/Q11734477","P31^label:cs":"Památný kámen","P131^label:cs":"Všejany","P6736":"42775"},"geometry":{"type":"Point","coordinates":[14.95714,50.25661]}},{"type":"Feature","properties":{"label:cs":"Pomník obětem zvůle a násilí poblíž nádraží ve Všejanech","P31":"http://www.wikidata.org/entity/Q4989906","P31^label:cs":"Pomník","P131^label:cs":"Všejany","P6736":"41965"},"geometry":{"type":"Point","coordinates":[14.9567,50.25668]}},{"type":"Feature","properties":{"label:cs":"Socha svatého Jana Nepomuckého v parku v Nádražní ulici ve Všejanech","P31":"http://www.wikidata.org/entity/Q179700","P31^label:cs":"Socha","P131^label:cs":"Všejany","P6736":"41964"},"geometry":{"type":"Point","coordinates":[14.95599,50.25621]}},{"type":"Feature","properties":{"label:cs":"Zvonice na návsi ve Všejanech","P31":"http://www.wikidata.org/entity/Q200334","P31^label:cs":"Zvonice","P131^label:cs":"Všejany","P6736":"41963"},"geometry":{"type":"Point","coordinates":[14.95493,50.25574]}},{"type":"Feature","properties":{"label:cs":"Kříž u zvonice ve Všejanech","P31":"http://www.wikidata.org/entity/Q2309609","P31^label:cs":"Pamětní kříž","P131^label:cs":"Všejany","P6736":"41962"},"geometry":{"type":"Point","coordinates":[14.95472,50.25555]}}]}