{"type":"FeatureCollection","features":[{"type":"Feature","properties":{"label:cs":"Kříž na rozcestí u domu 1 v Hroněticích","P31":"http://www.wikidata.org/entity/Q2309609","P31^label:cs":"Pamětní kříž","P131^label:cs":"Kostomlaty nad Labem","P6736":"41953"},"geometry":{"type":"Point","coordinates":[14.95022,50.2024]}},{"type":"Feature","properties":{"label:cs":"Kaple u hlavní silnice v Hroněticích","P31":"http://www.wikidata.org/entity/Q108325","P31^label:cs":"Kaple","P131^label:cs":"Kostomlaty nad Labem","P6736":"34919"},"geometry":{"type":"Point","coordinates":[14.94943,50.20397]}},{"type":"Feature","properties":{"label:cs":"Pomník padlým v Lánech","P31":"http://www.wikidata.org/entity/Q575759","P31^label:cs":"Pomník padlým","P131^label:cs":"Kostomlaty nad Labem","P6736":"41908"},"geometry":{"type":"Point","coordinates":[14.95565,50.19259]}},{"type":"Feature","properties":{"label:cs":"Kříž naproti domu 27 v Lánech","P31":"http://www.wikidata.org/entity/Q2309609","P31^label:cs":"Pamětní kříž","P131^label:cs":"Kostomlaty nad Labem","P6736":"41907"},"geometry":{"type":"Point","coordinates":[14.95569,50.19281]}},{"type":"Feature","properties":{"label:cs":"Kaplička u hlavní silnice v Lánech u Kostomlat nad Labem","P31":"http://www.wikidata.org/entity/Q108325","P31^label:cs":"Kaple","P131^label:cs":"Kostomlaty nad Labem","P6736":"34918"},"geometry":{"type":"Point","coordinates":[14.95568,50.19443]}}]}