{"type":"FeatureCollection","features":[{"type":"Feature","properties":{"label:cs":"Kaple na návsi v Doubravě","P31":"http://www.wikidata.org/entity/Q108325","P31^label:cs":"Kaple","P131^label:cs":"Kostomlátky","P6736":"41937"},"geometry":{"type":"Point","coordinates":[14.96496,50.16818]}},{"type":"Feature","properties":{"label:cs":"Kříž u domu 7 v Doubravě","P31":"http://www.wikidata.org/entity/Q2309609","P31^label:cs":"Pamětní kříž","P131^label:cs":"Kostomlátky","P6736":"41936"},"geometry":{"type":"Point","coordinates":[14.96557,50.16896]}},{"type":"Feature","properties":{"label:cs":"Kaple na návsi v Kostomlátkách","P31":"http://www.wikidata.org/entity/Q108325","P31^label:cs":"Kaple","P131^label:cs":"Kostomlátky","P6736":"41940"},"geometry":{"type":"Point","coordinates":[14.98524,50.17086]}},{"type":"Feature","properties":{"label:cs":"Pamětní deska padlým v 1. světové válce na kapli v Kostomlátkách","P31":"http://www.wikidata.org/entity/Q721747","P31^label:cs":"Pamětní deska","P131^label:cs":"Kostomlátky","P6736":"41939"},"geometry":{"type":"Point","coordinates":[14.98519,50.17087]}},{"type":"Feature","properties":{"label:cs":"Pomník padlému rudoarmějci u kaple v Kostomlátkách","P31":"http://www.wikidata.org/entity/Q575759","P31^label:cs":"Pomník padlým","P131^label:cs":"Kostomlátky","P6736":"41938"},"geometry":{"type":"Point","coordinates":[14.98517,50.17086]}}]}