{"type":"FeatureCollection","features":[{"type":"Feature","properties":{"label:cs":"Kaple svatého Jana Nepomuckého u kostela svatého Václava v Lukavci","P31":"http://www.wikidata.org/entity/Q14552192","P31^label:cs":"Kaplička","P131^label:cs":"Lukavec","P6736":"33558"},"geometry":{"type":"Point","coordinates":[14.99084,49.56607]}},{"type":"Feature","properties":{"label:cs":"Kříž za kostelem svatého Václava v Lukavci","P31":"http://www.wikidata.org/entity/Q2309609","P31^label:cs":"Pamětní kříž","P131^label:cs":"Lukavec","P6736":"33542"},"geometry":{"type":"Point","coordinates":[14.99105,49.56622]}},{"type":"Feature","properties":{"label:cs":"Památník Antonína Sovy v Lukavci","P31":"http://www.wikidata.org/entity/Q961082","P31^label:cs":"Altán","P131^label:cs":"Lukavec","P6736":"33526"},"geometry":{"type":"Point","coordinates":[14.98553,49.56399]}},{"type":"Feature","properties":{"label:cs":"Kříž v Lukavci v ulici Ke Křížku","P31":"http://www.wikidata.org/entity/Q2309609","P31^label:cs":"Pamětní kříž","P131^label:cs":"Lukavec","P6736":"33525"},"geometry":{"type":"Point","coordinates":[14.99311,49.56198]}},{"type":"Feature","properties":{"label:cs":"Kříž východně od Lukavce u rybníka Pavlovec","P31":"http://www.wikidata.org/entity/Q2309609","P31^label:cs":"Pamětní kříž","P131^label:cs":"Lukavec","P6736":"20374"},"geometry":{"type":"Point","coordinates":[15.00063,49.56306]}},{"type":"Feature","properties":{"label:cs":"Kříž v severní části Lukavce u zemědělského družstva","P31":"http://www.wikidata.org/entity/Q2309609","P31^label:cs":"Pamětní kříž","P131^label:cs":"Lukavec","P6736":"20373"},"geometry":{"type":"Point","coordinates":[14.99236,49.56789]}},{"type":"Feature","properties":{"label:cs":"Kašna za kostelem svatého Václava v Lukavci","P31":"http://www.wikidata.org/entity/Q12029081","P31^label:cs":"Kašna","P131^label:cs":"Lukavec","P6736":"20372"},"geometry":{"type":"Point","coordinates":[14.99058,49.56647]}},{"type":"Feature","properties":{"label:cs":"Kříž před kostelem svatého Václava v Lukavci","P31":"http://www.wikidata.org/entity/Q2309609","P31^label:cs":"Pamětní kříž","P131^label:cs":"Lukavec","P6736":"20371"},"geometry":{"type":"Point","coordinates":[14.99068,49.56597]}},{"type":"Feature","properties":{"label:cs":"Pomník padlým na náměstí v Lukavci","P31":"http://www.wikidata.org/entity/Q575759","P31^label:cs":"Pomník padlým","P131^label:cs":"Lukavec","P6736":"20370"},"geometry":{"type":"Point","coordinates":[14.99119,49.5654]}},{"type":"Feature","properties":{"label:cs":"Kašna na náměstí Svatého Václava v Lukavci","P31":"http://www.wikidata.org/entity/Q12029081","P31^label:cs":"Kašna","P131^label:cs":"Lukavec","P6736":"20369"},"geometry":{"type":"Point","coordinates":[14.99114,49.56551]}}]}