{"type":"FeatureCollection","features":[{"type":"Feature","properties":{"label:cs":"Kříž u silnice v Kuňovicích jihovýchodně od obecního úřadu","P31":"http://www.wikidata.org/entity/Q2309609","P31^label:cs":"Pamětní kříž","P131^label:cs":"Kuňovice","P6736":"28697"},"geometry":{"type":"Point","coordinates":[15.00137,49.65854]}},{"type":"Feature","properties":{"label:cs":"Kříž u silnice proti domu čp. 35 v Kuňovicích","P31":"http://www.wikidata.org/entity/Q2309609","P31^label:cs":"Pamětní kříž","P131^label:cs":"Kuňovice","P6736":"28696"},"geometry":{"type":"Point","coordinates":[15.00168,49.65837]}},{"type":"Feature","properties":{"label:cs":"Kříž na rozcestí na jihovýchodním okraji Kuňovic","P31":"http://www.wikidata.org/entity/Q2309609","P31^label:cs":"Pamětní kříž","P131^label:cs":"Kuňovice","P6736":"28695"},"geometry":{"type":"Point","coordinates":[15.00364,49.65654]}},{"type":"Feature","properties":{"label:cs":"Kříž na rozcestí na jižním okraji Kuňovic","P31":"http://www.wikidata.org/entity/Q2309609","P31^label:cs":"Pamětní kříž","P131^label:cs":"Kuňovice","P6736":"28694"},"geometry":{"type":"Point","coordinates":[15.00158,49.65653]}},{"type":"Feature","properties":{"label:cs":"Kříž u domu čp. 1 v Kuňovicích","P31":"http://www.wikidata.org/entity/Q2309609","P31^label:cs":"Pamětní kříž","P131^label:cs":"Kuňovice","P6736":"28693"},"geometry":{"type":"Point","coordinates":[14.99955,49.65945]}},{"type":"Feature","properties":{"label:cs":"Pomník padlým v Kuňovicích","P31":"http://www.wikidata.org/entity/Q575759","P31^label:cs":"Pomník padlým","P131^label:cs":"Kuňovice","P6736":"28692"},"geometry":{"type":"Point","coordinates":[14.99916,49.65835]}},{"type":"Feature","properties":{"label:cs":"Kaple v Kuňovicích","P31":"http://www.wikidata.org/entity/Q108325","P31^label:cs":"Kaple","P131^label:cs":"Kuňovice","P6736":"28691"},"geometry":{"type":"Point","coordinates":[14.99925,49.65825]}}]}