{"type":"FeatureCollection","features":[{"type":"Feature","properties":{"label:cs":"Zvonice u kostela v Březně","P31":"http://www.wikidata.org/entity/Q200334","P31^label:cs":"Zvonice","P131^label:cs":"Březno","P6736":"42560"},"geometry":{"type":"Point","coordinates":[15.0061,50.40638]}},{"type":"Feature","properties":{"label:cs":"Sluneční hodiny na zámku v Březně","P31":"http://www.wikidata.org/entity/Q376","P31^label:cs":"Hodiny","P131^label:cs":"Březno","P6736":"42559"},"geometry":{"type":"Point","coordinates":[15.00512,50.4071]}},{"type":"Feature","properties":{"label:cs":"Socha svatého Prokopa u kostela v Březně","P31":"http://www.wikidata.org/entity/Q179700","P31^label:cs":"Socha","P131^label:cs":"Březno","P6736":"42558"},"geometry":{"type":"Point","coordinates":[15.00554,50.40669]}},{"type":"Feature","properties":{"label:cs":"Kříž na jihovýchodním okraji Března","P31":"http://www.wikidata.org/entity/Q2309609","P31^label:cs":"Pamětní kříž","P131^label:cs":"Březno","P6736":"42557"},"geometry":{"type":"Point","coordinates":[15.00199,50.40467]}},{"type":"Feature","properties":{"label:cs":"Kříž u domu 127 v Březně","P31":"http://www.wikidata.org/entity/Q2309609","P31^label:cs":"Pamětní kříž","P131^label:cs":"Březno","P6736":"42550"},"geometry":{"type":"Point","coordinates":[15.00377,50.4145]}},{"type":"Feature","properties":{"label:cs":"Pomník vojáků Fišery a Pešaty u přejezdu v Židněvsi","P31":"http://www.wikidata.org/entity/Q4989906","P31^label:cs":"Pomník","P131^label:cs":"Židněves","P6736":"42556"},"geometry":{"type":"Point","coordinates":[14.99907,50.41087]}},{"type":"Feature","properties":{"label:cs":"Kříž naproti domu 56 v Židněvsi","P31":"http://www.wikidata.org/entity/Q2309609","P31^label:cs":"Pamětní kříž","P131^label:cs":"Židněves","P6736":"42555"},"geometry":{"type":"Point","coordinates":[14.99827,50.41085]}},{"type":"Feature","properties":{"label:cs":"Socha svatého Jana Nepomuckého u silnice západně od Židněvsi","P31":"http://www.wikidata.org/entity/Q179700","P31^label:cs":"Socha","P131^label:cs":"Židněves","P6736":"42554"},"geometry":{"type":"Point","coordinates":[14.98671,50.41022]}},{"type":"Feature","properties":{"label:cs":"Socha svatého Vojtěcha u kaple v Židněvsi","P31":"http://www.wikidata.org/entity/Q179700","P31^label:cs":"Socha","P131^label:cs":"Židněves","P6736":"42553"},"geometry":{"type":"Point","coordinates":[14.99448,50.41153]}},{"type":"Feature","properties":{"label:cs":"Kaple na návsi v Židněvsi","P31":"http://www.wikidata.org/entity/Q108325","P31^label:cs":"Kaple","P131^label:cs":"Židněves","P6736":"42552"},"geometry":{"type":"Point","coordinates":[14.99461,50.41153]}},{"type":"Feature","properties":{"label:cs":"Pomník padlým na návsi v Židněvsi","P31":"http://www.wikidata.org/entity/Q575759","P31^label:cs":"Pomník padlým","P131^label:cs":"Židněves","P6736":"42551"},"geometry":{"type":"Point","coordinates":[14.99517,50.41145]}}]}