{"type":"FeatureCollection","features":[{"type":"Feature","properties":{"label:cs":"Zvonička v Ježovicích","P31":"http://www.wikidata.org/entity/Q10861631","P31^label:cs":"Zvonička","P131^label:cs":"Podveky","P6736":"41916"},"geometry":{"type":"Point","coordinates":[14.98806,49.82975]}},{"type":"Feature","properties":{"label:cs":"Kříž u silnice mezi Podveky a Ježovicemi","P31":"http://www.wikidata.org/entity/Q2309609","P31^label:cs":"Pamětní kříž","P131^label:cs":"Podveky","P6736":"41915"},"geometry":{"type":"Point","coordinates":[14.98908,49.82738]}},{"type":"Feature","properties":{"label:cs":"Kříž v centru Podvek","P31":"http://www.wikidata.org/entity/Q2309609","P31^label:cs":"Pamětní kříž","P131^label:cs":"Podveky","P6736":"41914"},"geometry":{"type":"Point","coordinates":[14.99392,49.82499]}},{"type":"Feature","properties":{"label:cs":"Zvonička v Podvecích","P31":"http://www.wikidata.org/entity/Q10861631","P31^label:cs":"Zvonička","P131^label:cs":"Podveky","P6736":"41913"},"geometry":{"type":"Point","coordinates":[14.99429,49.8248]}},{"type":"Feature","properties":{"label:cs":"Kříž u domu č. 60 v Podvecích","P31":"http://www.wikidata.org/entity/Q2309609","P31^label:cs":"Pamětní kříž","P131^label:cs":"Podveky","P6736":"41903"},"geometry":{"type":"Point","coordinates":[14.99803,49.82587]}},{"type":"Feature","properties":{"label:cs":"Pomník padlým v Podvecích","P31":"http://www.wikidata.org/entity/Q575759","P31^label:cs":"Pomník padlým","P131^label:cs":"Podveky","P6736":"41901"},"geometry":{"type":"Point","coordinates":[14.99676,49.82443]}}]}