{"type":"FeatureCollection","features":[{"type":"Feature","properties":{"label:cs":"Kříž severně od Starého Bozděchova","P31":"http://www.wikidata.org/entity/Q2309609","P31^label:cs":"Pamětní kříž","P131^label:cs":"Horní Radouň","P6736":"7026"},"geometry":{"type":"Point","coordinates":[15.0152,49.27323]}},{"type":"Feature","properties":{"label:cs":"Kříž ve Starém Bozděchově u křižovatky","P31":"http://www.wikidata.org/entity/Q2309609","P31^label:cs":"Pamětní kříž","P131^label:cs":"Horní Radouň","P6736":"7027"},"geometry":{"type":"Point","coordinates":[15.01478,49.2721]}},{"type":"Feature","properties":{"label:cs":"Zvonička ve Starém Bozděchově","P31":"http://www.wikidata.org/entity/Q10861631","P31^label:cs":"Zvonička","P131^label:cs":"Horní Radouň","P6736":"7028"},"geometry":{"type":"Point","coordinates":[15.01452,49.27219]}},{"type":"Feature","properties":{"label:cs":"Kaplička u Starého Bozděchova","P31":"http://www.wikidata.org/entity/Q14552192","P31^label:cs":"Kaplička","P131^label:cs":"Horní Radouň","P6736":"7029"},"geometry":{"type":"Point","coordinates":[15.01608,49.27155]}},{"type":"Feature","properties":{"label:cs":"Kříž v poli u Starého Bozděchova","P31":"http://www.wikidata.org/entity/Q2309609","P31^label:cs":"Pamětní kříž","P131^label:cs":"Horní Radouň","P6736":"2534"},"geometry":{"type":"Point","coordinates":[15.01544,49.26946]}},{"type":"Feature","properties":{"label:cs":"Kříž ve Starém Bozděchově u rozcestí","P31":"http://www.wikidata.org/entity/Q2309609","P31^label:cs":"Pamětní kříž","P131^label:cs":"Horní Radouň","P6736":"13447"},"geometry":{"type":"Point","coordinates":[15.00915,49.27344]}},{"type":"Feature","properties":{"label:cs":"Památník stromu svobody ve starém Bozděchově","P31":"http://www.wikidata.org/entity/Q5003624","P31^label:cs":"Památník","P131^label:cs":"Horní Radouň","P6736":"13448"},"geometry":{"type":"Point","coordinates":[15.01115,49.27431]}}]}