{"type":"FeatureCollection","features":[{"type":"Feature","properties":{"label:cs":"Kříž u hřbitova v Trhovém Štěpánově","P31":"http://www.wikidata.org/entity/Q2309609","P31^label:cs":"Pamětní kříž","P131^label:cs":"Trhový Štěpánov","P6736":"28289"},"geometry":{"type":"Point","coordinates":[15.018,49.71358]}},{"type":"Feature","properties":{"label:cs":"Kříž nad kostelem v Trhovém Štěpánově","P31":"http://www.wikidata.org/entity/Q2309609","P31^label:cs":"Pamětní kříž","P131^label:cs":"Trhový Štěpánov","P6736":"28290"},"geometry":{"type":"Point","coordinates":[15.0115,49.7127]}},{"type":"Feature","properties":{"label:cs":"Pomník padlým v Trhovém Štěpánově","P31":"http://www.wikidata.org/entity/Q575759","P31^label:cs":"Pomník padlým","P131^label:cs":"Trhový Štěpánov","P6736":"28291"},"geometry":{"type":"Point","coordinates":[15.01295,49.71184]}},{"type":"Feature","properties":{"label:cs":"Kříž na náměstí v Trhovém Štěpánově","P31":"http://www.wikidata.org/entity/Q2309609","P31^label:cs":"Pamětní kříž","P131^label:cs":"Trhový Štěpánov","P6736":"28292"},"geometry":{"type":"Point","coordinates":[15.01311,49.71178]}},{"type":"Feature","properties":{"label:cs":"Socha svatého Jana Nepomuckého na náměstí v Trhovém Štěpánově","P31":"http://www.wikidata.org/entity/Q179700","P31^label:cs":"Socha","P131^label:cs":"Trhový Štěpánov","P6736":"28293"},"geometry":{"type":"Point","coordinates":[15.01271,49.71156]}},{"type":"Feature","properties":{"label:cs":"Výklenková kaple v ohradní zdi kostela v Trhovém Štěpánově","P31":"http://www.wikidata.org/entity/Q14552192","P31^label:cs":"Kaplička","P131^label:cs":"Trhový Štěpánov","P6736":"28294"},"geometry":{"type":"Point","coordinates":[15.01161,49.71252]}},{"type":"Feature","properties":{"label:cs":"Kříž pod kostelem v Trhovém Štěpánově","P31":"http://www.wikidata.org/entity/Q2309609","P31^label:cs":"Pamětní kříž","P131^label:cs":"Trhový Štěpánov","P6736":"28295"},"geometry":{"type":"Point","coordinates":[15.01164,49.71236]}},{"type":"Feature","properties":{"label:cs":"Kříž na křižovatce silnice s Okružní ulicí v Trhovém Štěpánově","P31":"http://www.wikidata.org/entity/Q2309609","P31^label:cs":"Pamětní kříž","P131^label:cs":"Trhový Štěpánov","P6736":"28296"},"geometry":{"type":"Point","coordinates":[15.01292,49.71628]}},{"type":"Feature","properties":{"label:cs":"Kříž na křižovatce ulic Pod Křížkem a Dalkovická v Trhovém Štěpánově","P31":"http://www.wikidata.org/entity/Q2309609","P31^label:cs":"Pamětní kříž","P131^label:cs":"Trhový Štěpánov","P6736":"28297"},"geometry":{"type":"Point","coordinates":[15.01006,49.71605]}},{"type":"Feature","properties":{"label:cs":"Kříž u silnice severně od Trhového Štěpánova","P31":"http://www.wikidata.org/entity/Q2309609","P31^label:cs":"Pamětní kříž","P131^label:cs":"Trhový Štěpánov","P6736":"28298"},"geometry":{"type":"Point","coordinates":[15.00844,49.7217]}},{"type":"Feature","properties":{"label:cs":"Obrázek při cestě severně od Trhového Štěpánova","P31":"http://www.wikidata.org/entity/Q478798","P31^label:cs":"Obrázek","P131^label:cs":"Trhový Štěpánov","P6736":"28311"},"geometry":{"type":"Point","coordinates":[15.00825,49.72178]}}]}