{"type":"FeatureCollection","features":[{"type":"Feature","properties":{"label:cs":"Kříž v Loučeni v ulici Strupkova","P31":"http://www.wikidata.org/entity/Q2309609","P31^label:cs":"Pamětní kříž","P131^label:cs":"Loučeň","P6736":"32600"},"geometry":{"type":"Point","coordinates":[15.02607,50.28547]}},{"type":"Feature","properties":{"label:cs":"Socha svatého Jana Nepomuckého v Loučeni V Serpentinách","P31":"http://www.wikidata.org/entity/Q179700","P31^label:cs":"Socha","P131^label:cs":"Loučeň","P6736":"32599"},"geometry":{"type":"Point","coordinates":[15.02503,50.28463]}},{"type":"Feature","properties":{"label:cs":"Pomník padlým v Loučeni ulice Nymburská","P31":"http://www.wikidata.org/entity/Q575759","P31^label:cs":"Pomník padlým","P131^label:cs":"Loučeň","P6736":"32598"},"geometry":{"type":"Point","coordinates":[15.02086,50.28458]}},{"type":"Feature","properties":{"label:cs":"Kříž v Loučeni u kostela v zámeckém parku","P31":"http://www.wikidata.org/entity/Q2309609","P31^label:cs":"Pamětní kříž","P131^label:cs":"Loučeň","P6736":"32597"},"geometry":{"type":"Point","coordinates":[15.02428,50.28735]}},{"type":"Feature","properties":{"label:cs":"Sousoší v Loučeni v zámeckém parku","P31":"http://www.wikidata.org/entity/Q179700","P31^label:cs":"Socha","P131^label:cs":"Loučeň","P6736":"32596"},"geometry":{"type":"Point","coordinates":[15.02512,50.28756]}},{"type":"Feature","properties":{"label:cs":"Sousoší v Loučeni v zámeckém parku","P31":"http://www.wikidata.org/entity/Q179700","P31^label:cs":"Socha","P131^label:cs":"Loučeň","P6736":"32595"},"geometry":{"type":"Point","coordinates":[15.025,50.28762]}},{"type":"Feature","properties":{"label:cs":"Socha svatého Prokopa u zámku v Loučeni","P31":"http://www.wikidata.org/entity/Q179700","P31^label:cs":"Socha","P131^label:cs":"Loučeň","P6736":"17407"},"geometry":{"type":"Point","coordinates":[15.02225,50.28767]}},{"type":"Feature","properties":{"label:cs":"Socha svatého Jana Nepomuckého ve středu Loučeně na křižovatce silnic","P31":"http://www.wikidata.org/entity/Q179700","P31^label:cs":"Socha","P131^label:cs":"Loučeň","P6736":"17395"},"geometry":{"type":"Point","coordinates":[15.0203,50.28605]}}]}