{"type":"FeatureCollection","features":[{"type":"Feature","properties":{"label:cs":"Kříž severně od Dolu","P31":"Q2309609","P31^label:cs":"Pamětní kříž","P131^label:cs":"Důl","P6736":"6156"},"geometry":{"type":"Point","coordinates":[15.0303,49.45469]}},{"type":"Feature","properties":{"label:cs":"Kaple v Nové Vsi","P31":"Q108325","P31^label:cs":"Kaple","P131^label:cs":"Důl","P6736":"6151"},"geometry":{"type":"Point","coordinates":[15.03267,49.46305]}},{"type":"Feature","properties":{"label:cs":"Kříž západně od Pošné","P31":"Q2309609","P31^label:cs":"Pamětní kříž","P131^label:cs":"Důl","P6736":"6150"},"geometry":{"type":"Point","coordinates":[15.03152,49.45826]}},{"type":"Feature","properties":{"label:cs":"Kaplička západně od Pošné","P31":"Q14552192","P31^label:cs":"Kaplička","P131^label:cs":"Důl","P6736":"6149"},"geometry":{"type":"Point","coordinates":[15.03257,49.45711]}},{"type":"Feature","properties":{"label:cs":"Kříž u kostela v Pošné","P31":"Q2309609","P31^label:cs":"Pamětní kříž","P131^label:cs":"Pošná","P6736":"6148"},"geometry":{"type":"Point","coordinates":[15.03978,49.45877]}},{"type":"Feature","properties":{"label:cs":"Kaplička východně od Pošné","P31":"Q14552192","P31^label:cs":"Kaplička","P131^label:cs":"Pošná","P6736":"6147"},"geometry":{"type":"Point","coordinates":[15.05018,49.45973]}},{"type":"Feature","properties":{"label:cs":"Boží muka východně od Pošné","P31":"Q3395121","P31^label:cs":"Boží muka","P131^label:cs":"Pošná","P6736":"6146"},"geometry":{"type":"Point","coordinates":[15.04565,49.45942]}},{"type":"Feature","properties":{"label:cs":"Kaple v Pošné","P31":"Q108325","P31^label:cs":"Kaple","P131^label:cs":"Pošná","P6736":"6145"},"geometry":{"type":"Point","coordinates":[15.04482,49.458]}}]}