{"type":"FeatureCollection","features":[{"type":"Feature","properties":{"label:cs":"Kříž nad Panským mlýnem v Křešíně","P31":"http://www.wikidata.org/entity/Q2309609","P31^label:cs":"Pamětní kříž","P131^label:cs":"Křešín","P6736":"33585"},"geometry":{"type":"Point","coordinates":[15.0373,49.58067]}},{"type":"Feature","properties":{"label:cs":"Pomník padlým v Křešíně","P31":"http://www.wikidata.org/entity/Q575759","P31^label:cs":"Pomník padlým","P131^label:cs":"Křešín","P6736":"33586"},"geometry":{"type":"Point","coordinates":[15.04243,49.58121]}},{"type":"Feature","properties":{"label:cs":"Kříž u kostela v Křešíně","P31":"http://www.wikidata.org/entity/Q2309609","P31^label:cs":"Pamětní kříž","P131^label:cs":"Křešín","P6736":"33587"},"geometry":{"type":"Point","coordinates":[15.04261,49.58132]}},{"type":"Feature","properties":{"label:cs":"Reliéf nad vchodem kostela v Křešíně","P31":"http://www.wikidata.org/entity/Q245117","P31^label:cs":"Reliéf","P131^label:cs":"Křešín","P6736":"33588"},"geometry":{"type":"Point","coordinates":[15.04279,49.58139]}},{"type":"Feature","properties":{"label:cs":"1. zastavení křížové cesty v Křešíně","P31":"http://www.wikidata.org/entity/Q14552192","P31^label:cs":"Kaplička","P131^label:cs":"Křešín","P6736":"33589"},"geometry":{"type":"Point","coordinates":[15.04335,49.58165]}},{"type":"Feature","properties":{"label:cs":"2. zastavení křížové cesty v Křešíně","P31":"http://www.wikidata.org/entity/Q14552192","P31^label:cs":"Kaplička","P131^label:cs":"Křešín","P6736":"33590"},"geometry":{"type":"Point","coordinates":[15.04391,49.58168]}},{"type":"Feature","properties":{"label:cs":"3. zastavení křížové cesty v Křešíně","P31":"http://www.wikidata.org/entity/Q14552192","P31^label:cs":"Kaplička","P131^label:cs":"Křešín","P6736":"33591"},"geometry":{"type":"Point","coordinates":[15.04478,49.58155]}},{"type":"Feature","properties":{"label:cs":"4. zastavení křížové cesty v Křešíně","P31":"http://www.wikidata.org/entity/Q14552192","P31^label:cs":"Kaplička","P131^label:cs":"Křešín","P6736":"33592"},"geometry":{"type":"Point","coordinates":[15.04573,49.58121]}},{"type":"Feature","properties":{"label:cs":"5. zastavení křížové cesty v Křešíně","P31":"http://www.wikidata.org/entity/Q14552192","P31^label:cs":"Kaplička","P131^label:cs":"Křešín","P6736":"33593"},"geometry":{"type":"Point","coordinates":[15.04675,49.58109]}},{"type":"Feature","properties":{"label:cs":"6. zastavení křížové cesty v Křešíně","P31":"http://www.wikidata.org/entity/Q14552192","P31^label:cs":"Kaplička","P131^label:cs":"Křešín","P6736":"33594"},"geometry":{"type":"Point","coordinates":[15.04635,49.58154]}},{"type":"Feature","properties":{"label:cs":"7. zastavení křížové cesty v Křešíně","P31":"http://www.wikidata.org/entity/Q14552192","P31^label:cs":"Kaplička","P131^label:cs":"Křešín","P6736":"33595"},"geometry":{"type":"Point","coordinates":[15.04621,49.58177]}},{"type":"Feature","properties":{"label:cs":"8. zastavení křížové cesty v Křešíně","P31":"http://www.wikidata.org/entity/Q14552192","P31^label:cs":"Kaplička","P131^label:cs":"Křešín","P6736":"33596"},"geometry":{"type":"Point","coordinates":[15.04582,49.58199]}},{"type":"Feature","properties":{"label:cs":"Geologická expozice v Křešíně","P31":"http://www.wikidata.org/entity/?","P31^label:cs":"Něco jiného","P131^label:cs":"Křešín","P6736":"33603"},"geometry":{"type":"Point","coordinates":[15.0451,49.58146]}},{"type":"Feature","properties":{"label:cs":"Pamětní deska Vladimíra Chalupy v Křešíně","P31":"http://www.wikidata.org/entity/Q721747","P31^label:cs":"Pamětní deska","P131^label:cs":"Křešín","P6736":"33604"},"geometry":{"type":"Point","coordinates":[15.04405,49.58178]}}]}