{"type":"FeatureCollection","features":[{"type":"Feature","properties":{"label:cs":"Boží muka před hřbitovem v Čechticíh","P31":"http://www.wikidata.org/entity/Q3395121","P31^label:cs":"Boží muka","P131^label:cs":"Čechtice","P6736":"28349"},"geometry":{"type":"Point","coordinates":[15.04931,49.62098]}},{"type":"Feature","properties":{"label:cs":"Centrální kříž na hřbitově v Čechticích","P31":"http://www.wikidata.org/entity/Q2309609","P31^label:cs":"Pamětní kříž","P131^label:cs":"Čechtice","P6736":"28348"},"geometry":{"type":"Point","coordinates":[15.04929,49.62]}},{"type":"Feature","properties":{"label:cs":"Kříž před kostelem v Čechticích","P31":"http://www.wikidata.org/entity/Q2309609","P31^label:cs":"Pamětní kříž","P131^label:cs":"Čechtice","P6736":"28347"},"geometry":{"type":"Point","coordinates":[15.0484,49.6224]}},{"type":"Feature","properties":{"label:cs":"Kříž za kostelem v Čechticích","P31":"http://www.wikidata.org/entity/Q2309609","P31^label:cs":"Pamětní kříž","P131^label:cs":"Čechtice","P6736":"28346"},"geometry":{"type":"Point","coordinates":[15.04888,49.62249]}},{"type":"Feature","properties":{"label:cs":"Pomník dětským obětem holocaustu v Čechticích","P31":"http://www.wikidata.org/entity/Q4989906","P31^label:cs":"Pomník","P131^label:cs":"Čechtice","P6736":"28345"},"geometry":{"type":"Point","coordinates":[15.04552,49.62485]}},{"type":"Feature","properties":{"label:cs":"Socha svatého Jana Nepomuckého v Čechticích","P31":"http://www.wikidata.org/entity/Q179700","P31^label:cs":"Socha","P131^label:cs":"Čechtice","P6736":"28342"},"geometry":{"type":"Point","coordinates":[15.04811,49.62468]}},{"type":"Feature","properties":{"label:cs":"Pamětní deska obětem 2. světové války na zdi zvonice v Čechticích","P31":"http://www.wikidata.org/entity/Q721747","P31^label:cs":"Pamětní deska","P131^label:cs":"Čechtice","P6736":"28340"},"geometry":{"type":"Point","coordinates":[15.04865,49.62283]}},{"type":"Feature","properties":{"label:cs":"Barokní kašna na náměstí v Čechticích","P31":"http://www.wikidata.org/entity/Q12029081","P31^label:cs":"Kašna","P131^label:cs":"Čechtice","P6736":"23210"},"geometry":{"type":"Point","coordinates":[15.04882,49.6233]}},{"type":"Feature","properties":{"label:cs":"Socha svatého Václava na náměstí v Čechticích","P31":"http://www.wikidata.org/entity/Q179700","P31^label:cs":"Socha","P131^label:cs":"Čechtice","P6736":"23140"},"geometry":{"type":"Point","coordinates":[15.04892,49.62312]}},{"type":"Feature","properties":{"label:cs":"Pomník padlým v 1. světové válce před zvonicí v Čechticích","P31":"http://www.wikidata.org/entity/Q575759","P31^label:cs":"Pomník padlým","P131^label:cs":"Čechtice","P6736":"23139"},"geometry":{"type":"Point","coordinates":[15.04873,49.62279]}},{"type":"Feature","properties":{"label:cs":"Kříž při silnici Čechtice - Nové Práchňany","P31":"http://www.wikidata.org/entity/Q2309609","P31^label:cs":"Pamětní kříž","P131^label:cs":"Čechtice","P6736":"23138"},"geometry":{"type":"Point","coordinates":[15.02933,49.61778]}},{"type":"Feature","properties":{"label:cs":"Socha Panny Marie na náměstí v Čechticích","P31":"http://www.wikidata.org/entity/Q179700","P31^label:cs":"Socha","P131^label:cs":"Čechtice","P6736":"19479"},"geometry":{"type":"Point","coordinates":[15.04872,49.62346]}}]}