{"type":"FeatureCollection","features":[{"type":"Feature","properties":{"label:cs":"Pamětní kříž u silnice Útěchovice - Velká Chyška a odbočky na Bratřice","P31":"http://www.wikidata.org/entity/Q2309609","P31^label:cs":"Pamětní kříž","P131^label:cs":"Velká Chyška","P6736":"39929"},"geometry":{"type":"Point","coordinates":[15.03227,49.51838]}},{"type":"Feature","properties":{"label:cs":"Socha svatého Jana Nepomuckého ve Velké Chyšce","P31":"http://www.wikidata.org/entity/Q179700","P31^label:cs":"Socha","P131^label:cs":"Velká Chyška","P6736":"19403"},"geometry":{"type":"Point","coordinates":[15.03866,49.51168]}},{"type":"Feature","properties":{"label:cs":"Kaplička ve východní části Velké Chyšky","P31":"http://www.wikidata.org/entity/Q14552192","P31^label:cs":"Kaplička","P131^label:cs":"Velká Chyška","P6736":"19402"},"geometry":{"type":"Point","coordinates":[15.04158,49.51183]}},{"type":"Feature","properties":{"label:cs":"Kříž západně od Velké Chyšky směrem k fotbalovému hřišti","P31":"http://www.wikidata.org/entity/Q2309609","P31^label:cs":"Pamětní kříž","P131^label:cs":"Velká Chyška","P6736":"19401"},"geometry":{"type":"Point","coordinates":[15.03375,49.512]}},{"type":"Feature","properties":{"label:cs":"Kříž východně od Velké Chyšky u silnice do Lesné","P31":"http://www.wikidata.org/entity/Q2309609","P31^label:cs":"Pamětní kříž","P131^label:cs":"Velká Chyška","P6736":"19354"},"geometry":{"type":"Point","coordinates":[15.04457,49.5141]}}]}