{"type":"FeatureCollection","features":[{"type":"Feature","properties":{"label:cs":"Pomník padlým u mostu přes Výrovku v Dobřichově","P31":"http://www.wikidata.org/entity/Q575759","P31^label:cs":"Pomník padlým","P131^label:cs":"Dobřichov","P6736":"24670"},"geometry":{"type":"Point","coordinates":[15.03221,50.07909]}},{"type":"Feature","properties":{"label:cs":"Kašna na Masarykově náměstí v Pečkách","P31":"http://www.wikidata.org/entity/Q12029081","P31^label:cs":"Kašna","P131^label:cs":"Pečky","P6736":"13927"},"geometry":{"type":"Point","coordinates":[15.03164,50.09082]}},{"type":"Feature","properties":{"label:cs":"Kříž v Dobřichovské ulici v Pečkách","P31":"http://www.wikidata.org/entity/Q2309609","P31^label:cs":"Pamětní kříž","P131^label:cs":"Pečky","P6736":"24672"},"geometry":{"type":"Point","coordinates":[15.03092,50.08514]}},{"type":"Feature","properties":{"label:cs":"Památník T. G. Masaryka na náměstí v Pečkách","P31":"http://www.wikidata.org/entity/Q5003624","P31^label:cs":"Památník","P131^label:cs":"Pečky","P6736":"24673"},"geometry":{"type":"Point","coordinates":[15.03151,50.09065]}},{"type":"Feature","properties":{"label:cs":"Kříž u kostela svatého Václava v Pečkách","P31":"http://www.wikidata.org/entity/Q2309609","P31^label:cs":"Pamětní kříž","P131^label:cs":"Pečky","P6736":"29686"},"geometry":{"type":"Point","coordinates":[15.03238,50.09172]}}]}