{"type":"FeatureCollection","features":[{"type":"Feature","properties":{"label:cs":"Kříž u rozcestí v Roučkovicích","P31":"http://www.wikidata.org/entity/Q2309609","P31^label:cs":"Pamětní kříž","P131^label:cs":"Pacov","P6736":"16426"},"geometry":{"type":"Point","coordinates":[15.03585,49.47768]}},{"type":"Feature","properties":{"label:cs":"Kříž u kaple v Roučkovicích","P31":"http://www.wikidata.org/entity/Q2309609","P31^label:cs":"Pamětní kříž","P131^label:cs":"Pacov","P6736":"16427"},"geometry":{"type":"Point","coordinates":[15.03989,49.47736]}},{"type":"Feature","properties":{"label:cs":"Kaple v Roučkovicích","P31":"http://www.wikidata.org/entity/Q108325","P31^label:cs":"Kaple","P131^label:cs":"Pacov","P6736":"16428"},"geometry":{"type":"Point","coordinates":[15.03988,49.4774]}},{"type":"Feature","properties":{"label:cs":"Pomník padlým v Roučkovicích","P31":"http://www.wikidata.org/entity/Q575759","P31^label:cs":"Pomník padlým","P131^label:cs":"Pacov","P6736":"16429"},"geometry":{"type":"Point","coordinates":[15.04014,49.47774]}},{"type":"Feature","properties":{"label:cs":"Kříž v poli u Roučkovic","P31":"http://www.wikidata.org/entity/Q2309609","P31^label:cs":"Pamětní kříž","P131^label:cs":"Pacov","P6736":"16430"},"geometry":{"type":"Point","coordinates":[15.04418,49.4761]}},{"type":"Feature","properties":{"label:cs":"Kříž severně od Roučkovic u silnice","P31":"http://www.wikidata.org/entity/Q2309609","P31^label:cs":"Pamětní kříž","P131^label:cs":"Pacov","P6736":"16431"},"geometry":{"type":"Point","coordinates":[15.03707,49.48037]}}]}