{"type":"FeatureCollection","features":[{"type":"Feature","properties":{"label:cs":"Kaple v Dolu","P31":"http://www.wikidata.org/entity/Q108325","P31^label:cs":"Kaple","P131^label:cs":"Důl","P6736":"6158"},"geometry":{"type":"Point","coordinates":[15.03008,49.45151]}},{"type":"Feature","properties":{"label:cs":"Kříž severně od Dolu u rozcestí","P31":"http://www.wikidata.org/entity/Q2309609","P31^label:cs":"Pamětní kříž","P131^label:cs":"Důl","P6736":"6157"},"geometry":{"type":"Point","coordinates":[15.02933,49.45351]}},{"type":"Feature","properties":{"label:cs":"Kříž jižně od Pošné","P31":"http://www.wikidata.org/entity/Q2309609","P31^label:cs":"Pamětní kříž","P131^label:cs":"Pošná","P6736":"6144"},"geometry":{"type":"Point","coordinates":[15.04714,49.45265]}},{"type":"Feature","properties":{"label:cs":"Kříž u Dolského mlýna","P31":"http://www.wikidata.org/entity/Q2309609","P31^label:cs":"Pamětní kříž","P131^label:cs":"Pošná","P6736":"38011"},"geometry":{"type":"Point","coordinates":[15.03367,49.45042]}},{"type":"Feature","properties":{"label:cs":"Památník jihovýchodně od Dolu","P31":"http://www.wikidata.org/entity/Q5003624","P31^label:cs":"Památník","P131^label:cs":"Pošná","P6736":"38010"},"geometry":{"type":"Point","coordinates":[15.03631,49.4473]}},{"type":"Feature","properties":{"label:cs":"Památník západně od Proseče","P31":"http://www.wikidata.org/entity/Q5003624","P31^label:cs":"Památník","P131^label:cs":"Pošná","P6736":"38009"},"geometry":{"type":"Point","coordinates":[15.03724,49.44097]}},{"type":"Feature","properties":{"label:cs":"Kříž severně od Proseče","P31":"http://www.wikidata.org/entity/Q2309609","P31^label:cs":"Pamětní kříž","P131^label:cs":"Pošná","P6736":"6143"},"geometry":{"type":"Point","coordinates":[15.04674,49.4488]}},{"type":"Feature","properties":{"label:cs":"Kaple severně od Proseče","P31":"http://www.wikidata.org/entity/Q108325","P31^label:cs":"Kaple","P131^label:cs":"Pošná","P6736":"6142"},"geometry":{"type":"Point","coordinates":[15.04604,49.44587]}},{"type":"Feature","properties":{"label:cs":"Kaple v Proseči","P31":"http://www.wikidata.org/entity/Q108325","P31^label:cs":"Kaple","P131^label:cs":"Pošná","P6736":"6141"},"geometry":{"type":"Point","coordinates":[15.04663,49.44352]}},{"type":"Feature","properties":{"label:cs":"Kříž jižně od Proseče","P31":"http://www.wikidata.org/entity/Q2309609","P31^label:cs":"Pamětní kříž","P131^label:cs":"Pošná","P6736":"6140"},"geometry":{"type":"Point","coordinates":[15.04638,49.44147]}}]}