{"type":"FeatureCollection","features":[{"type":"Feature","properties":{"label:cs":"Kříž v západní části Vlčetínce","P31":"http://www.wikidata.org/entity/Q2309609","P31^label:cs":"Pamětní kříž","P131^label:cs":"Vlčetínec","P6736":"11141"},"geometry":{"type":"Point","coordinates":[15.0515,49.26351]}},{"type":"Feature","properties":{"label:cs":"Kříž západně od Vlčetínce u rozcestí","P31":"http://www.wikidata.org/entity/Q2309609","P31^label:cs":"Pamětní kříž","P131^label:cs":"Vlčetínec","P6736":"11140"},"geometry":{"type":"Point","coordinates":[15.05144,49.26328]}},{"type":"Feature","properties":{"label:cs":"Kříž ve Vlčetínci na křižovatce","P31":"http://www.wikidata.org/entity/Q2309609","P31^label:cs":"Pamětní kříž","P131^label:cs":"Vlčetínec","P6736":"11139"},"geometry":{"type":"Point","coordinates":[15.05488,49.26444]}},{"type":"Feature","properties":{"label:cs":"Kaple ve Vlčetínci","P31":"http://www.wikidata.org/entity/Q108325","P31^label:cs":"Kaple","P131^label:cs":"Vlčetínec","P6736":"11138"},"geometry":{"type":"Point","coordinates":[15.05369,49.26386]}},{"type":"Feature","properties":{"label:cs":"Kříž mezi Březím a Vlčetíncem","P31":"http://www.wikidata.org/entity/Q2309609","P31^label:cs":"Pamětní kříž","P131^label:cs":"Vlčetínec","P6736":"2767"},"geometry":{"type":"Point","coordinates":[15.06377,49.26714]}}]}