{"type":"FeatureCollection","features":[{"type":"Feature","properties":{"label:cs":"Kříž u hlavní silnice na severním okraji Soutic","P31":"http://www.wikidata.org/entity/Q2309609","P31^label:cs":"Pamětní kříž","P131^label:cs":"Soutice","P6736":"23149"},"geometry":{"type":"Point","coordinates":[15.0594,49.73157]}},{"type":"Feature","properties":{"label:cs":"Socha svatého Jana Nepomuckého na původním mostě přes Želivku v Souticích","P31":"http://www.wikidata.org/entity/Q179700","P31^label:cs":"Socha","P131^label:cs":"Soutice","P6736":"23150"},"geometry":{"type":"Point","coordinates":[15.05771,49.72925]}},{"type":"Feature","properties":{"label:cs":"Centrální kříž na hřbitově v Souticích","P31":"http://www.wikidata.org/entity/Q2309609","P31^label:cs":"Pamětní kříž","P131^label:cs":"Soutice","P6736":"28505"},"geometry":{"type":"Point","coordinates":[15.0551,49.72547]}},{"type":"Feature","properties":{"label:cs":"Kříž před kostelem v Souticích","P31":"http://www.wikidata.org/entity/Q2309609","P31^label:cs":"Pamětní kříž","P131^label:cs":"Soutice","P6736":"28506"},"geometry":{"type":"Point","coordinates":[15.05291,49.7261]}},{"type":"Feature","properties":{"label:cs":"Kříž v parčíku před kostelem v Souticích","P31":"http://www.wikidata.org/entity/Q2309609","P31^label:cs":"Pamětní kříž","P131^label:cs":"Soutice","P6736":"28507"},"geometry":{"type":"Point","coordinates":[15.05249,49.72613]}},{"type":"Feature","properties":{"label:cs":"Výklenková kaple u čp. 5 v Souticích","P31":"http://www.wikidata.org/entity/Q14552192","P31^label:cs":"Kaplička","P131^label:cs":"Soutice","P6736":"28508"},"geometry":{"type":"Point","coordinates":[15.05273,49.72667]}},{"type":"Feature","properties":{"label:cs":"Pomník padlým v Souticích","P31":"http://www.wikidata.org/entity/Q575759","P31^label:cs":"Pomník padlým","P131^label:cs":"Soutice","P6736":"28509"},"geometry":{"type":"Point","coordinates":[15.05286,49.72672]}}]}