{"type":"FeatureCollection","features":[{"type":"Feature","properties":{"label:cs":"Socha svatého Petra v nice nad portálem kostela Nalezení svatého Kříže ve Frýdlantě","P31":"http://www.wikidata.org/entity/Q179700","P31^label:cs":"Socha","P131^label:cs":"Frýdlant","P6736":"27024"},"geometry":{"type":"Point","coordinates":[15.07812,50.92056]}},{"type":"Feature","properties":{"label:cs":"Mariánský sloup v Děkanské ulici ve Frýdlantu","P31":"http://www.wikidata.org/entity/Q4817","P31^label:cs":"Sloup","P131^label:cs":"Frýdlant","P6736":"27025"},"geometry":{"type":"Point","coordinates":[15.07842,50.92079]}},{"type":"Feature","properties":{"label:cs":"Kříž u severní zdi kostela Nalezení svatého Kříže ve Frýdlantu","P31":"http://www.wikidata.org/entity/Q2309609","P31^label:cs":"Pamětní kříž","P131^label:cs":"Frýdlant","P6736":"27028"},"geometry":{"type":"Point","coordinates":[15.07839,50.92068]}},{"type":"Feature","properties":{"label:cs":"Kapličky křížové cesty na ohradní zdi kostela Nalezení svatého Kříže ve Frýdlantu","P31":"http://www.wikidata.org/entity/Q14552192","P31^label:cs":"Kaplička","P131^label:cs":"Frýdlant","P6736":"27029"},"geometry":{"type":"Point","coordinates":[15.07881,50.92082]}},{"type":"Feature","properties":{"label:cs":"Kříž u východní zdi kostela Nalezení svatého kříže ve Frýdlantu","P31":"http://www.wikidata.org/entity/Q2309609","P31^label:cs":"Pamětní kříž","P131^label:cs":"Frýdlant","P6736":"27030"},"geometry":{"type":"Point","coordinates":[15.07877,50.92067]}},{"type":"Feature","properties":{"label:cs":"Kaple Krista v žaláři u kostela Nalezení svatého Kříže ve Frýdlantu","P31":"http://www.wikidata.org/entity/Q108325","P31^label:cs":"Kaple","P131^label:cs":"Frýdlant","P6736":"27031"},"geometry":{"type":"Point","coordinates":[15.07844,50.92035]}},{"type":"Feature","properties":{"label:cs":"Kamenná nádrž na vodu u domu Děkanská 84 ve Frýdlantu","P31":"http://www.wikidata.org/entity/Q12029081","P31^label:cs":"Kašna","P131^label:cs":"Frýdlant","P6736":"27032"},"geometry":{"type":"Point","coordinates":[15.07909,50.92072]}},{"type":"Feature","properties":{"label:cs":"Socha Albrechta z Valdštejna na náměstí T. G. Masaryka ve Frýdlantu","P31":"http://www.wikidata.org/entity/Q179700","P31^label:cs":"Socha","P131^label:cs":"Frýdlant","P6736":"27033"},"geometry":{"type":"Point","coordinates":[15.07932,50.92177]}},{"type":"Feature","properties":{"label:cs":"Kašna na náměstí T. G. Masaryka ve Frýdlantu","P31":"http://www.wikidata.org/entity/Q12029081","P31^label:cs":"Kašna","P131^label:cs":"Frýdlant","P6736":"27034"},"geometry":{"type":"Point","coordinates":[15.0793,50.92176]}},{"type":"Feature","properties":{"label:cs":"Sochy na průčelí radnice ve Frýdlantu","P31":"http://www.wikidata.org/entity/Q179700","P31^label:cs":"Socha","P131^label:cs":"Frýdlant","P6736":"27035"},"geometry":{"type":"Point","coordinates":[15.07872,50.92199]}},{"type":"Feature","properties":{"label:cs":"Sochy štítonošů se znakem města na průčelí radnice ve Frýdlantu","P31":"http://www.wikidata.org/entity/Q179700","P31^label:cs":"Socha","P131^label:cs":"Frýdlant","P6736":"27036"},"geometry":{"type":"Point","coordinates":[15.07869,50.92198]}},{"type":"Feature","properties":{"label:cs":"Socha Piety v Okružní ulici ve Frýdlantu","P31":"http://www.wikidata.org/entity/Q179700","P31^label:cs":"Socha","P131^label:cs":"Frýdlant","P6736":"27037"},"geometry":{"type":"Point","coordinates":[15.07796,50.92264]}},{"type":"Feature","properties":{"label:cs":"Pomník obětem bombardování 8. 5. 1945 v ulici U Plovárny ve Frýdlantu","P31":"http://www.wikidata.org/entity/Q4989906","P31^label:cs":"Pomník","P131^label:cs":"Frýdlant","P6736":"27038"},"geometry":{"type":"Point","coordinates":[15.07715,50.92355]}}]}