{"type":"FeatureCollection","features":[{"type":"Feature","properties":{"label:cs":"Kříž u čp. 20 v Markvarci","P31":"http://www.wikidata.org/entity/Q2309609","P31^label:cs":"Pamětní kříž","P131^label:cs":"Nová Cerekev","P6736":"23971"},"geometry":{"type":"Point","coordinates":[15.0892,49.37828]}},{"type":"Feature","properties":{"label:cs":"Pomník padlým v Markvarci","P31":"http://www.wikidata.org/entity/Q575759","P31^label:cs":"Pomník padlým","P131^label:cs":"Nová Cerekev","P6736":"7093"},"geometry":{"type":"Point","coordinates":[15.09012,49.377]}},{"type":"Feature","properties":{"label:cs":"Kaple v Markvarci","P31":"http://www.wikidata.org/entity/Q108325","P31^label:cs":"Kaple","P131^label:cs":"Nová Cerekev","P6736":"7092"},"geometry":{"type":"Point","coordinates":[15.08945,49.37794]}},{"type":"Feature","properties":{"label:cs":"Kříž u Markvarce u silnice do Drahoňova","P31":"http://www.wikidata.org/entity/Q2309609","P31^label:cs":"Pamětní kříž","P131^label:cs":"Nová Cerekev","P6736":"2020"},"geometry":{"type":"Point","coordinates":[15.08285,49.3711]}},{"type":"Feature","properties":{"label:cs":"Kaplička nad Markvarcem","P31":"http://www.wikidata.org/entity/Q14552192","P31^label:cs":"Kaplička","P131^label:cs":"Nová Cerekev","P6736":"2019"},"geometry":{"type":"Point","coordinates":[15.09144,49.37912]}},{"type":"Feature","properties":{"label:cs":"Kříž mezi stromy v poli u Markvarce","P31":"http://www.wikidata.org/entity/Q2309609","P31^label:cs":"Pamětní kříž","P131^label:cs":"Nová Cerekev","P6736":"2017"},"geometry":{"type":"Point","coordinates":[15.09246,49.38162]}}]}