{"type":"FeatureCollection","features":[{"type":"Feature","properties":{"label:cs":"Pomník padlým v Utěchovicích","P31":"Q575759","P31^label:cs":"Pomník padlým","P131^label:cs":"Útěchovice","P6736":"18560"},"geometry":{"type":"Point","coordinates":[15.11714,49.47807]}},{"type":"Feature","properties":{"label:cs":"Kříž jihozápadně od Útěchovic u silnice","P31":"Q2309609","P31^label:cs":"Pamětní kříž","P131^label:cs":"Útěchovice","P6736":"7414"},"geometry":{"type":"Point","coordinates":[15.11232,49.47634]}},{"type":"Feature","properties":{"label:cs":"Kříž jihozápadně od Útěchovic u zatáčky","P31":"Q2309609","P31^label:cs":"Pamětní kříž","P131^label:cs":"Útěchovice","P6736":"7412"},"geometry":{"type":"Point","coordinates":[15.10882,49.47475]}},{"type":"Feature","properties":{"label:cs":"Kříž jihozápadně od Útěchovic","P31":"Q2309609","P31^label:cs":"Pamětní kříž","P131^label:cs":"Útěchovice","P6736":"7411"},"geometry":{"type":"Point","coordinates":[15.11018,49.47138]}},{"type":"Feature","properties":{"label:cs":"Kříž jižně od Útěchovic","P31":"Q2309609","P31^label:cs":"Pamětní kříž","P131^label:cs":"Útěchovice","P6736":"7410"},"geometry":{"type":"Point","coordinates":[15.11678,49.46984]}},{"type":"Feature","properties":{"label:cs":"Kaplička severně od Útěchovic","P31":"Q14552192","P31^label:cs":"Kaplička","P131^label:cs":"Útěchovice","P6736":"7406"},"geometry":{"type":"Point","coordinates":[15.11681,49.48127]}},{"type":"Feature","properties":{"label:cs":"Kříž u kaple v Útěchovicích","P31":"Q2309609","P31^label:cs":"Pamětní kříž","P131^label:cs":"Útěchovice","P6736":"7404"},"geometry":{"type":"Point","coordinates":[15.1169,49.47804]}},{"type":"Feature","properties":{"label:cs":"Kaple v Útěchovicích","P31":"Q108325","P31^label:cs":"Kaple","P131^label:cs":"Útěchovice","P6736":"7405"},"geometry":{"type":"Point","coordinates":[15.11707,49.47809]}}]}