{"type":"FeatureCollection","features":[{"type":"Feature","properties":{"label:cs":"Kaple v Kačerově","P31":"http://www.wikidata.org/entity/Q108325","P31^label:cs":"Kaple","P131^label:cs":"Loket","P6736":"28647"},"geometry":{"type":"Point","coordinates":[15.09726,49.66133]}},{"type":"Feature","properties":{"label:cs":"Kříž u kaple v Kačerově","P31":"http://www.wikidata.org/entity/Q2309609","P31^label:cs":"Pamětní kříž","P131^label:cs":"Loket","P6736":"28648"},"geometry":{"type":"Point","coordinates":[15.0973,49.66131]}},{"type":"Feature","properties":{"label:cs":"Kříž u silnice mezi Loktem a Kačerovem","P31":"http://www.wikidata.org/entity/Q2309609","P31^label:cs":"Pamětní kříž","P131^label:cs":"Loket","P6736":"28650"},"geometry":{"type":"Point","coordinates":[15.10099,49.66093]}},{"type":"Feature","properties":{"label:cs":"Kříž na západním okraji Lokte","P31":"http://www.wikidata.org/entity/Q2309609","P31^label:cs":"Pamětní kříž","P131^label:cs":"Loket","P6736":"30762"},"geometry":{"type":"Point","coordinates":[15.11491,49.65606]}},{"type":"Feature","properties":{"label:cs":"Kříž se sochou anděla na západním okraji Lokte","P31":"http://www.wikidata.org/entity/Q2309609","P31^label:cs":"Pamětní kříž","P131^label:cs":"Loket","P6736":"30763"},"geometry":{"type":"Point","coordinates":[15.11498,49.65607]}},{"type":"Feature","properties":{"label:cs":"Kaple v Lokti","P31":"http://www.wikidata.org/entity/Q108325","P31^label:cs":"Kaple","P131^label:cs":"Loket","P6736":"30764"},"geometry":{"type":"Point","coordinates":[15.11634,49.65575]}}]}