{"type":"FeatureCollection","features":[{"type":"Feature","properties":{"label:cs":"Kříž v Bernarticích na odbočce na Borovsko","P31":"http://www.wikidata.org/entity/Q2309609","P31^label:cs":"Pamětní kříž","P131^label:cs":"Bernartice","P6736":"30748"},"geometry":{"type":"Point","coordinates":[15.1249,49.67641]}},{"type":"Feature","properties":{"label:cs":"Kříž u hřbitova v Bernarticích","P31":"http://www.wikidata.org/entity/Q2309609","P31^label:cs":"Pamětní kříž","P131^label:cs":"Bernartice","P6736":"30749"},"geometry":{"type":"Point","coordinates":[15.118,49.67895]}},{"type":"Feature","properties":{"label:cs":"Centrální kříž na hřbitově v Bernarticích","P31":"http://www.wikidata.org/entity/Q2309609","P31^label:cs":"Pamětní kříž","P131^label:cs":"Bernartice","P6736":"30750"},"geometry":{"type":"Point","coordinates":[15.11802,49.67929]}},{"type":"Feature","properties":{"label:cs":"Kříž u cesty severně od Bernartic","P31":"http://www.wikidata.org/entity/Q2309609","P31^label:cs":"Pamětní kříž","P131^label:cs":"Bernartice","P6736":"30757"},"geometry":{"type":"Point","coordinates":[15.12959,49.67887]}},{"type":"Feature","properties":{"label:cs":"Kříž na návsi u č.p. 12 v Bernarticích","P31":"http://www.wikidata.org/entity/Q2309609","P31^label:cs":"Pamětní kříž","P131^label:cs":"Bernartice","P6736":"30758"},"geometry":{"type":"Point","coordinates":[15.12967,49.67589]}},{"type":"Feature","properties":{"label:cs":"Kříž s pamětní deskou padlým v Bernarticích","P31":"http://www.wikidata.org/entity/Q2309609","P31^label:cs":"Pamětní kříž","P131^label:cs":"Bernartice","P6736":"30759"},"geometry":{"type":"Point","coordinates":[15.12963,49.67466]}},{"type":"Feature","properties":{"label:cs":"Kaple v Bernarticích","P31":"http://www.wikidata.org/entity/Q108325","P31^label:cs":"Kaple","P131^label:cs":"Bernartice","P6736":"30760"},"geometry":{"type":"Point","coordinates":[15.12964,49.67472]}},{"type":"Feature","properties":{"label:cs":"Kříž na jihovýchodním okraji Bernartic","P31":"http://www.wikidata.org/entity/Q2309609","P31^label:cs":"Pamětní kříž","P131^label:cs":"Bernartice","P6736":"30761"},"geometry":{"type":"Point","coordinates":[15.1263,49.67308]}}]}