{"type":"FeatureCollection","features":[{"type":"Feature","properties":{"label:cs":"Pomník padlým ve Studeném","P31":"http://www.wikidata.org/entity/Q575759","P31^label:cs":"Pomník padlým","P131^label:cs":"Studený","P6736":"23135"},"geometry":{"type":"Point","coordinates":[15.12855,49.60818]}},{"type":"Feature","properties":{"label:cs":"Kříž u silnice jižně od Studeného","P31":"http://www.wikidata.org/entity/Q2309609","P31^label:cs":"Pamětní kříž","P131^label:cs":"Studený","P6736":"30715"},"geometry":{"type":"Point","coordinates":[15.12561,49.60501]}},{"type":"Feature","properties":{"label:cs":"Fragment kříže na jižním okraji Studeného","P31":"http://www.wikidata.org/entity/Q2309609","P31^label:cs":"Pamětní kříž","P131^label:cs":"Studený","P6736":"30716"},"geometry":{"type":"Point","coordinates":[15.12664,49.60608]}},{"type":"Feature","properties":{"label:cs":"Kříž u kaple ve Studeném","P31":"http://www.wikidata.org/entity/Q2309609","P31^label:cs":"Pamětní kříž","P131^label:cs":"Studený","P6736":"30717"},"geometry":{"type":"Point","coordinates":[15.12757,49.60706]}},{"type":"Feature","properties":{"label:cs":"Kaple ve Studeném","P31":"http://www.wikidata.org/entity/Q108325","P31^label:cs":"Kaple","P131^label:cs":"Studený","P6736":"30718"},"geometry":{"type":"Point","coordinates":[15.12744,49.60704]}},{"type":"Feature","properties":{"label:cs":"Fragment kříže v zahradě domu č.p. 14 ve Studeném","P31":"http://www.wikidata.org/entity/Q2309609","P31^label:cs":"Pamětní kříž","P131^label:cs":"Studený","P6736":"30719"},"geometry":{"type":"Point","coordinates":[15.12819,49.60839]}},{"type":"Feature","properties":{"label:cs":"Kříž na křižovatce v centru Studeného","P31":"http://www.wikidata.org/entity/Q2309609","P31^label:cs":"Pamětní kříž","P131^label:cs":"Studený","P6736":"30720"},"geometry":{"type":"Point","coordinates":[15.12812,49.60823]}},{"type":"Feature","properties":{"label:cs":"Kříž na západním okraji Studeného","P31":"http://www.wikidata.org/entity/Q2309609","P31^label:cs":"Pamětní kříž","P131^label:cs":"Studený","P6736":"30721"},"geometry":{"type":"Point","coordinates":[15.12399,49.60997]}}]}