{"type":"FeatureCollection","features":[{"type":"Feature","properties":{"label:cs":"Plastika Mistr Jan Hus ve Vlásenici","P31":"Plastika","P31^label:cs":"Plastika","P131^label:cs":"Lhota-Vlasenice","P6736":"21044"},"geometry":{"type":"Point","coordinates":[15.12407,49.30333]}},{"type":"Feature","properties":{"label:cs":"Plastika Klas ve Vlásenici","P31":"Plastika","P31^label:cs":"Plastika","P131^label:cs":"Lhota-Vlasenice","P6736":"21043"},"geometry":{"type":"Point","coordinates":[15.12398,49.30295]}},{"type":"Feature","properties":{"label:cs":"Plastika Naslouchání ve Vlásenici","P31":"Plastika","P31^label:cs":"Plastika","P131^label:cs":"Lhota-Vlasenice","P6736":"21042"},"geometry":{"type":"Point","coordinates":[15.12438,49.30295]}},{"type":"Feature","properties":{"label:cs":"Plastika Pomník obětem všech totalit 20. století ve Vlásenici","P31":"Plastika","P31^label:cs":"Plastika","P131^label:cs":"Lhota-Vlasenice","P6736":"21041"},"geometry":{"type":"Point","coordinates":[15.12492,49.303]}},{"type":"Feature","properties":{"label:cs":"Pomník padlým ve Lhotě-Vlásenici","P31":"Pomník padlým","P31^label:cs":"Pomník padlým","P131^label:cs":"Lhota-Vlasenice","P6736":"6725"},"geometry":{"type":"Point","coordinates":[15.12484,49.303]}},{"type":"Feature","properties":{"label:cs":"Kříž ve Lhotě-Vlásenici u kaple","P31":"Pamětní kříž","P31^label:cs":"Pamětní kříž","P131^label:cs":"Lhota-Vlasenice","P6736":"6724"},"geometry":{"type":"Point","coordinates":[15.12444,49.30297]}},{"type":"Feature","properties":{"label:cs":"Kaple ve Lhotě-Vlásenici","P31":"Kaple","P31^label:cs":"Kaple","P131^label:cs":"Lhota-Vlasenice","P6736":"6723"},"geometry":{"type":"Point","coordinates":[15.12455,49.30296]}},{"type":"Feature","properties":{"label:cs":"Kříž západně od Lhoty","P31":"Pamětní kříž","P31^label:cs":"Pamětní kříž","P131^label:cs":"Lhota-Vlasenice","P6736":"6098"},"geometry":{"type":"Point","coordinates":[15.12504,49.2965]}}]}