{"type":"FeatureCollection","features":[{"type":"Feature","properties":{"label:cs":"Kříž u cesty severně od Martinic","P31":"http://www.wikidata.org/entity/Q2309609","P31^label:cs":"Pamětní kříž","P131^label:cs":"Martinice u Onšova","P6736":"37385"},"geometry":{"type":"Point","coordinates":[15.11947,49.58703]}},{"type":"Feature","properties":{"label:cs":"Kříž mezi Těškovicemi a Skoranovicemi","P31":"http://www.wikidata.org/entity/Q2309609","P31^label:cs":"Pamětní kříž","P131^label:cs":"Martinice u Onšova","P6736":"37383"},"geometry":{"type":"Point","coordinates":[15.11946,49.59407]}},{"type":"Feature","properties":{"label:cs":"Kříž východně od Těškovic","P31":"http://www.wikidata.org/entity/Q2309609","P31^label:cs":"Pamětní kříž","P131^label:cs":"Onšov","P6736":"37388"},"geometry":{"type":"Point","coordinates":[15.13737,49.58947]}},{"type":"Feature","properties":{"label:cs":"Kaple v Těškovicích","P31":"http://www.wikidata.org/entity/Q108325","P31^label:cs":"Kaple","P131^label:cs":"Onšov","P6736":"37387"},"geometry":{"type":"Point","coordinates":[15.13132,49.58778]}},{"type":"Feature","properties":{"label:cs":"Kříž jižně od Těškovic","P31":"http://www.wikidata.org/entity/Q2309609","P31^label:cs":"Pamětní kříž","P131^label:cs":"Onšov","P6736":"37386"},"geometry":{"type":"Point","coordinates":[15.13029,49.5863]}},{"type":"Feature","properties":{"label:cs":"Kříž severozápadně od Těškovic","P31":"http://www.wikidata.org/entity/Q2309609","P31^label:cs":"Pamětní kříž","P131^label:cs":"Onšov","P6736":"37382"},"geometry":{"type":"Point","coordinates":[15.12671,49.59324]}}]}