{"type":"FeatureCollection","features":[{"type":"Feature","properties":{"label:cs":"Smírčí kříž za parcelou domu 458 v Raspenavě","P31":"http://www.wikidata.org/entity/Q1640496","P31^label:cs":"Smírčí kříž","P131^label:cs":"Raspenava","P6736":"42257"},"geometry":{"type":"Point","coordinates":[15.12723,50.90096]}},{"type":"Feature","properties":{"label:cs":"Kříž u domu 450 v Raspenavě","P31":"http://www.wikidata.org/entity/Q2309609","P31^label:cs":"Pamětní kříž","P131^label:cs":"Raspenava","P6736":"42256"},"geometry":{"type":"Point","coordinates":[15.12918,50.90102]}},{"type":"Feature","properties":{"label:cs":"Pomník malíře Wenzela Franze Jägera naproti škole v Raspenavě","P31":"http://www.wikidata.org/entity/Q4989906","P31^label:cs":"Pomník","P131^label:cs":"Raspenava","P6736":"42255"},"geometry":{"type":"Point","coordinates":[15.1336,50.90093]}},{"type":"Feature","properties":{"label:cs":"Centrální kříž na hřbitově v Raspenavě","P31":"http://www.wikidata.org/entity/Q2309609","P31^label:cs":"Pamětní kříž","P131^label:cs":"Raspenava","P6736":"42254"},"geometry":{"type":"Point","coordinates":[15.13551,50.89945]}},{"type":"Feature","properties":{"label:cs":"Socha svatého Petra u kaple na hřbitově v Raspenavě","P31":"http://www.wikidata.org/entity/Q179700","P31^label:cs":"Socha","P131^label:cs":"Raspenava","P6736":"42253"},"geometry":{"type":"Point","coordinates":[15.13657,50.89941]}},{"type":"Feature","properties":{"label:cs":"Socha svatého Pavla u kaple na hřbitově v Raspenavě","P31":"http://www.wikidata.org/entity/Q179700","P31^label:cs":"Socha","P131^label:cs":"Raspenava","P6736":"42252"},"geometry":{"type":"Point","coordinates":[15.13641,50.8994]}},{"type":"Feature","properties":{"label:cs":"Kaple na hřbitově v Raspenavě","P31":"http://www.wikidata.org/entity/Q108325","P31^label:cs":"Kaple","P131^label:cs":"Raspenava","P6736":"42251"},"geometry":{"type":"Point","coordinates":[15.1365,50.89935]}},{"type":"Feature","properties":{"label:cs":"Kříž u hřbitova v Raspenavě","P31":"http://www.wikidata.org/entity/Q2309609","P31^label:cs":"Pamětní kříž","P131^label:cs":"Raspenava","P6736":"42250"},"geometry":{"type":"Point","coordinates":[15.1366,50.89956]}},{"type":"Feature","properties":{"label:cs":"Pomník padlým rudoarmějcům na hřbitově v Raspenavě","P31":"http://www.wikidata.org/entity/Q575759","P31^label:cs":"Pomník padlým","P131^label:cs":"Raspenava","P6736":"42249"},"geometry":{"type":"Point","coordinates":[15.1362,50.89952]}},{"type":"Feature","properties":{"label:cs":"Pomník padlým v 1. světové válce na hřbitově v Raspenavě","P31":"http://www.wikidata.org/entity/Q575759","P31^label:cs":"Pomník padlým","P131^label:cs":"Raspenava","P6736":"42248"},"geometry":{"type":"Point","coordinates":[15.13592,50.89891]}}]}