{"type":"FeatureCollection","features":[{"type":"Feature","properties":{"label:cs":"Socha Svatého Jana Nepomuckého v Turnově na Bezručově ulici","P31":"http://www.wikidata.org/entity/Q179700","P31^label:cs":"Socha","P131^label:cs":"Turnov","P6736":"37684"},"geometry":{"type":"Point","coordinates":[15.15234,50.59375]}},{"type":"Feature","properties":{"label:cs":"Socha Svatého Jana Nepomuckého v Turnově v Hluboké ulici","P31":"http://www.wikidata.org/entity/Q179700","P31^label:cs":"Socha","P131^label:cs":"Turnov","P6736":"37683"},"geometry":{"type":"Point","coordinates":[15.15603,50.58696]}},{"type":"Feature","properties":{"label:cs":"Pomník Miroslava Tyrše u sportovní haly v Skálově ulici v Turnově","P31":"http://www.wikidata.org/entity/Q4989906","P31^label:cs":"Pomník","P131^label:cs":"Turnov","P6736":"32494"},"geometry":{"type":"Point","coordinates":[15.16048,50.5909]}},{"type":"Feature","properties":{"label:cs":"Kovová plastika v Městském parku v Turnově","P31":"http://www.wikidata.org/entity/Q12045520","P31^label:cs":"Plastika","P131^label:cs":"Turnov","P6736":"32493"},"geometry":{"type":"Point","coordinates":[15.16039,50.59042]}},{"type":"Feature","properties":{"label:cs":"Pomník padlým v Skálově ulici v Turnově","P31":"http://www.wikidata.org/entity/Q575759","P31^label:cs":"Pomník padlým","P131^label:cs":"Turnov","P6736":"32489"},"geometry":{"type":"Point","coordinates":[15.15968,50.59063]}},{"type":"Feature","properties":{"label:cs":"Pomník Josefa Pekaře v Skálově ulici v Turnově","P31":"http://www.wikidata.org/entity/Q4989906","P31^label:cs":"Pomník","P131^label:cs":"Turnov","P6736":"32488"},"geometry":{"type":"Point","coordinates":[15.15851,50.59021]}},{"type":"Feature","properties":{"label:cs":"Pamětní deska Jana Skály na budově Nové radnice v Turnově","P31":"http://www.wikidata.org/entity/Q721747","P31^label:cs":"Pamětní deska","P131^label:cs":"Turnov","P6736":"32487"},"geometry":{"type":"Point","coordinates":[15.15817,50.59016]}},{"type":"Feature","properties":{"label:cs":"Pamětní deska Antonína Marka na domě Na Soboře 80 v Turnově","P31":"http://www.wikidata.org/entity/Q721747","P31^label:cs":"Pamětní deska","P131^label:cs":"Turnov","P6736":"32486"},"geometry":{"type":"Point","coordinates":[15.15849,50.58962]}},{"type":"Feature","properties":{"label:cs":"Kovová plastika Adam a Eva v Městském parku v Turnově","P31":"http://www.wikidata.org/entity/Q12045520","P31^label:cs":"Plastika","P131^label:cs":"Turnov","P6736":"32485"},"geometry":{"type":"Point","coordinates":[15.15998,50.58896]}},{"type":"Feature","properties":{"label:cs":"Kašna u sousoší světců v Skálově ulici v Turnově","P31":"http://www.wikidata.org/entity/Q12029081","P31^label:cs":"Kašna","P131^label:cs":"Turnov","P6736":"32482"},"geometry":{"type":"Point","coordinates":[15.1578,50.58859]}},{"type":"Feature","properties":{"label:cs":"Sousoší světců v Skálově ulici v Turnově","P31":"http://www.wikidata.org/entity/Q179700","P31^label:cs":"Socha","P131^label:cs":"Turnov","P6736":"32481"},"geometry":{"type":"Point","coordinates":[15.15781,50.58859]}},{"type":"Feature","properties":{"label:cs":"Socha svatého Jana Nepomuckého nad branou k vikariátu v Turnově","P31":"http://www.wikidata.org/entity/Q179700","P31^label:cs":"Socha","P131^label:cs":"Turnov","P6736":"32480"},"geometry":{"type":"Point","coordinates":[15.15705,50.58865]}},{"type":"Feature","properties":{"label:cs":"Kapličky v Jiráskově ulici v Turnově","P31":"http://www.wikidata.org/entity/Q14552192","P31^label:cs":"Kaplička","P131^label:cs":"Turnov","P6736":"32478"},"geometry":{"type":"Point","coordinates":[15.15658,50.58836]}},{"type":"Feature","properties":{"label:cs":"Pamětní deska Čeňka Paclta na domě 137 na náměstí Českého ráje v Turnově","P31":"http://www.wikidata.org/entity/Q721747","P31^label:cs":"Pamětní deska","P131^label:cs":"Turnov","P6736":"32477"},"geometry":{"type":"Point","coordinates":[15.1568,50.5873]}},{"type":"Feature","properties":{"label:cs":"Kašna na náměstí Českého ráje v Turnově","P31":"http://www.wikidata.org/entity/Q12029081","P31^label:cs":"Kašna","P131^label:cs":"Turnov","P6736":"32476"},"geometry":{"type":"Point","coordinates":[15.15721,50.58746]}},{"type":"Feature","properties":{"label:cs":"Mariánský sloup na náměstí Českého ráje v Turnově","P31":"http://www.wikidata.org/entity/Q4817","P31^label:cs":"Sloup","P131^label:cs":"Turnov","P6736":"32475"},"geometry":{"type":"Point","coordinates":[15.15716,50.58746]}},{"type":"Feature","properties":{"label:cs":"Pamětní deska Václava Fortunáta Durycha na domě 25 na náměstí Českého ráje v Turnově","P31":"http://www.wikidata.org/entity/Q721747","P31^label:cs":"Pamětní deska","P131^label:cs":"Turnov","P6736":"32474"},"geometry":{"type":"Point","coordinates":[15.15803,50.58725]}},{"type":"Feature","properties":{"label:cs":"Pomník padlým v 2. světové válce na hřbitově v Turnově","P31":"http://www.wikidata.org/entity/Q575759","P31^label:cs":"Pomník padlým","P131^label:cs":"Turnov","P6736":"32472"},"geometry":{"type":"Point","coordinates":[15.15994,50.58685]}},{"type":"Feature","properties":{"label:cs":"Kříž u kostela Narození Panny Marie v Turnově","P31":"http://www.wikidata.org/entity/Q2309609","P31^label:cs":"Pamětní kříž","P131^label:cs":"Turnov","P6736":"32470"},"geometry":{"type":"Point","coordinates":[15.15958,50.58693]}},{"type":"Feature","properties":{"label:cs":"Socha svatého Jana Nepomuckého u kostela Narození Panny Marie v Turnově","P31":"http://www.wikidata.org/entity/Q179700","P31^label:cs":"Socha","P131^label:cs":"Turnov","P6736":"32469"},"geometry":{"type":"Point","coordinates":[15.15911,50.58679]}},{"type":"Feature","properties":{"label:cs":"Fontána s kaskádou u Kulturního centra v Turnově","P31":"http://www.wikidata.org/entity/Q12029081","P31^label:cs":"Kašna","P131^label:cs":"Turnov","P6736":"32458"},"geometry":{"type":"Point","coordinates":[15.15878,50.58539]}},{"type":"Feature","properties":{"label:cs":"Kovová plastika Tvar u Kulturního centra v Turnově","P31":"http://www.wikidata.org/entity/Q12045520","P31^label:cs":"Plastika","P131^label:cs":"Turnov","P6736":"32457"},"geometry":{"type":"Point","coordinates":[15.15902,50.5854]}},{"type":"Feature","properties":{"label:cs":"Socha Panny Marie na rohu ulic Výšinka a Na Stebni v Turnově","P31":"http://www.wikidata.org/entity/Q179700","P31^label:cs":"Socha","P131^label:cs":"Turnov","P6736":"32456"},"geometry":{"type":"Point","coordinates":[15.15939,50.58431]}},{"type":"Feature","properties":{"label:cs":"Kovová plastika v parku v Sobotecké ulici v Turnově","P31":"http://www.wikidata.org/entity/Q12045520","P31^label:cs":"Plastika","P131^label:cs":"Turnov","P6736":"32454"},"geometry":{"type":"Point","coordinates":[15.15376,50.585]}},{"type":"Feature","properties":{"label:cs":"Pamětní deska s bustou Jana Patočky na domě Sobotecká 242 v Turnově","P31":"http://www.wikidata.org/entity/Q721747","P31^label:cs":"Pamětní deska","P131^label:cs":"Turnov","P6736":"32453"},"geometry":{"type":"Point","coordinates":[15.15407,50.5853]}},{"type":"Feature","properties":{"label:cs":"Kovová plastika na domu Palackého 175 v Turnově","P31":"http://www.wikidata.org/entity/Q12045520","P31^label:cs":"Plastika","P131^label:cs":"Turnov","P6736":"32451"},"geometry":{"type":"Point","coordinates":[15.15157,50.58755]}},{"type":"Feature","properties":{"label:cs":"Pamětní deska Jiřímu Kristiánu Lobkowiczovi na domě Palackého 440 v Turnově","P31":"http://www.wikidata.org/entity/Q721747","P31^label:cs":"Pamětní deska","P131^label:cs":"Turnov","P6736":"32450"},"geometry":{"type":"Point","coordinates":[15.14896,50.58764]}},{"type":"Feature","properties":{"label:cs":"Kovová plastika na kruhovém objezdu v Bezručově ulici v Turnově","P31":"http://www.wikidata.org/entity/Q12045520","P31^label:cs":"Plastika","P131^label:cs":"Turnov","P6736":"32448"},"geometry":{"type":"Point","coordinates":[15.14559,50.58751]}},{"type":"Feature","properties":{"label:cs":"Kaplička Božího hrobu u kostela svatého Františka v Turnově","P31":"http://www.wikidata.org/entity/Q14552192","P31^label:cs":"Kaplička","P131^label:cs":"Turnov","P6736":"19324"},"geometry":{"type":"Point","coordinates":[15.15781,50.58762]}}]}