{"type":"FeatureCollection","features":[{"type":"Feature","properties":{"label:cs":"Kamenný kříž ve východní části Tomic","P31":"http://www.wikidata.org/entity/Q2309609","P31^label:cs":"Pamětní kříž","P131^label:cs":"Tomice","P6736":"29800"},"geometry":{"type":"Point","coordinates":[15.1593,49.64416]}},{"type":"Feature","properties":{"label:cs":"Kaple v Tomicích","P31":"http://www.wikidata.org/entity/Q108325","P31^label:cs":"Kaple","P131^label:cs":"Tomice","P6736":"29801"},"geometry":{"type":"Point","coordinates":[15.15738,49.64478]}},{"type":"Feature","properties":{"label:cs":"Pamětní deska padlým spoluobčanům v Tomicích","P31":"http://www.wikidata.org/entity/Q721747","P31^label:cs":"Pamětní deska","P131^label:cs":"Tomice","P6736":"29802"},"geometry":{"type":"Point","coordinates":[15.15735,49.64479]}},{"type":"Feature","properties":{"label:cs":"Kříž u kaple v Tomicích","P31":"http://www.wikidata.org/entity/Q2309609","P31^label:cs":"Pamětní kříž","P131^label:cs":"Tomice","P6736":"29803"},"geometry":{"type":"Point","coordinates":[15.15744,49.64475]}},{"type":"Feature","properties":{"label:cs":"Památník založení hasičského sboru v Tomicích","P31":"http://www.wikidata.org/entity/Q5003624","P31^label:cs":"Památník","P131^label:cs":"Tomice","P6736":"29804"},"geometry":{"type":"Point","coordinates":[15.15694,49.64488]}},{"type":"Feature","properties":{"label:cs":"Kříž v západní části Tomic","P31":"http://www.wikidata.org/entity/Q2309609","P31^label:cs":"Pamětní kříž","P131^label:cs":"Tomice","P6736":"29805"},"geometry":{"type":"Point","coordinates":[15.15471,49.6452]}}]}