{"type":"FeatureCollection","features":[{"type":"Feature","properties":{"label:cs":"Kříž na západním okraji Jiřiček - nenalezen","P31":"http://www.wikidata.org/entity/?","P31^label:cs":"Nenalezena","P131^label:cs":"Křelovice","P6736":"37440"},"geometry":{"type":"Point","coordinates":[15.15619,49.55632]}},{"type":"Feature","properties":{"label:cs":"Křiž na severním okraji Jiřiček","P31":"http://www.wikidata.org/entity/Q2309609","P31^label:cs":"Pamětní kříž","P131^label:cs":"Křelovice","P6736":"37435"},"geometry":{"type":"Point","coordinates":[15.15736,49.55831]}},{"type":"Feature","properties":{"label:cs":"Výklenková kaplička na návsi v Jiřičkách","P31":"http://www.wikidata.org/entity/Q14552192","P31^label:cs":"Kaplička","P131^label:cs":"Křelovice","P6736":"37434"},"geometry":{"type":"Point","coordinates":[15.15755,49.55674]}},{"type":"Feature","properties":{"label:cs":"Kříž na návsi v Jiřičkách","P31":"http://www.wikidata.org/entity/Q2309609","P31^label:cs":"Pamětní kříž","P131^label:cs":"Křelovice","P6736":"37433"},"geometry":{"type":"Point","coordinates":[15.15764,49.55723]}},{"type":"Feature","properties":{"label:cs":"Smírčí kříž u kaple v Jiřičkách","P31":"http://www.wikidata.org/entity/Q1640496","P31^label:cs":"Smírčí kříž","P131^label:cs":"Křelovice","P6736":"37432"},"geometry":{"type":"Point","coordinates":[15.15729,49.55684]}},{"type":"Feature","properties":{"label:cs":"Kaple v Jiřičkách","P31":"http://www.wikidata.org/entity/Q108325","P31^label:cs":"Kaple","P131^label:cs":"Křelovice","P6736":"37431"},"geometry":{"type":"Point","coordinates":[15.15732,49.55682]}}]}