{"type":"FeatureCollection","features":[{"type":"Feature","properties":{"label:cs":"Kamenná plastika v ulici U Kostela v Mšeně nad Nisou","P31":"http://www.wikidata.org/entity/Q12045520","P31^label:cs":"Plastika","P131^label:cs":"Jablonec nad Nisou","P6736":"36808"},"geometry":{"type":"Point","coordinates":[15.16741,50.7396]}},{"type":"Feature","properties":{"label:cs":"Kamenná plastika v ulici U Hřiště v Mšenu nad Nisou","P31":"http://www.wikidata.org/entity/Q12045520","P31^label:cs":"Plastika","P131^label:cs":"Jablonec nad Nisou","P6736":"36807"},"geometry":{"type":"Point","coordinates":[15.16241,50.74093]}},{"type":"Feature","properties":{"label:cs":"Kamenná plastika v ulici Boženy Němcové v Mšeně nad Nisou","P31":"http://www.wikidata.org/entity/Q12045520","P31^label:cs":"Plastika","P131^label:cs":"Jablonec nad Nisou","P6736":"36761"},"geometry":{"type":"Point","coordinates":[15.16708,50.73747]}},{"type":"Feature","properties":{"label:cs":"Pamětní deska obětem 1. světové války v Mšeně nad Nisou","P31":"http://www.wikidata.org/entity/Q721747","P31^label:cs":"Pamětní deska","P131^label:cs":"Jablonec nad Nisou","P6736":"27004"},"geometry":{"type":"Point","coordinates":[15.16929,50.73983]}},{"type":"Feature","properties":{"label:cs":"Socha Piety ve Mšeně","P31":"http://www.wikidata.org/entity/Q179700","P31^label:cs":"Socha","P131^label:cs":"Jablonec nad Nisou","P6736":"9394"},"geometry":{"type":"Point","coordinates":[15.16528,50.73895]}}]}