{"type":"FeatureCollection","features":[{"type":"Feature","properties":{"label:cs":"Kříž východně od Ondřejova u rybníku Hejlov","P31":"Pamětní kříž","P31^label:cs":"Pamětní kříž","P131^label:cs":"Ondřejov","P6736":"20840"},"geometry":{"type":"Point","coordinates":[15.17377,49.39452]}},{"type":"Feature","properties":{"label:cs":"Pomník padlým v Ondřejově","P31":"Pomník padlým","P31^label:cs":"Pomník padlým","P131^label:cs":"Ondřejov","P6736":"19754"},"geometry":{"type":"Point","coordinates":[15.17754,49.39273]}},{"type":"Feature","properties":{"label:cs":"Kříž před kaplí v Ondřejově","P31":"Pamětní kříž","P31^label:cs":"Pamětní kříž","P131^label:cs":"Ondřejov","P6736":"19753"},"geometry":{"type":"Point","coordinates":[15.17751,49.39188]}},{"type":"Feature","properties":{"label:cs":"Kaple v Ondřejově","P31":"Kaple","P31^label:cs":"Kaple","P131^label:cs":"Ondřejov","P6736":"19747"},"geometry":{"type":"Point","coordinates":[15.17746,49.39182]}},{"type":"Feature","properties":{"label:cs":"Pomník padlým v Ústrašíně","P31":"Pomník padlým","P31^label:cs":"Pomník padlým","P131^label:cs":"Ústrašín","P6736":"6044"},"geometry":{"type":"Point","coordinates":[15.16847,49.38254]}},{"type":"Feature","properties":{"label:cs":"Kříž v Ústrašíně u kostela","P31":"Pamětní kříž","P31^label:cs":"Pamětní kříž","P131^label:cs":"Ústrašín","P6736":"6043"},"geometry":{"type":"Point","coordinates":[15.16604,49.38292]}}]}