{"type":"FeatureCollection","features":[{"type":"Feature","properties":{"label:cs":"Kříž vedle cesty U Stínadel nad rybníkem Bečákem","P31":"http://www.wikidata.org/entity/Q2309609","P31^label:cs":"Pamětní kříž","P131^label:cs":"Červená Řečice","P6736":"31864"},"geometry":{"type":"Point","coordinates":[15.1707,49.5084]}},{"type":"Feature","properties":{"label:cs":"Kaplička v Červené Řečici u silnice do Milotiček","P31":"http://www.wikidata.org/entity/Q14552192","P31^label:cs":"Kaplička","P131^label:cs":"Červená Řečice","P6736":"31652"},"geometry":{"type":"Point","coordinates":[15.1696,49.51018]}},{"type":"Feature","properties":{"label:cs":"Kaplička na hrázi Dolního rybníka","P31":"http://www.wikidata.org/entity/Q14552192","P31^label:cs":"Kaplička","P131^label:cs":"Červená Řečice","P6736":"31651"},"geometry":{"type":"Point","coordinates":[15.17653,49.51016]}},{"type":"Feature","properties":{"label:cs":"Kříž poblíž Červené Řečice u silnice do Milotiček","P31":"http://www.wikidata.org/entity/Q2309609","P31^label:cs":"Pamětní kříž","P131^label:cs":"Červená Řečice","P6736":"31650"},"geometry":{"type":"Point","coordinates":[15.16259,49.50507]}},{"type":"Feature","properties":{"label:cs":"Kříž na jižním okraji Červené Řečice u silnice do Pelhřimova","P31":"http://www.wikidata.org/entity/Q2309609","P31^label:cs":"Pamětní kříž","P131^label:cs":"Červená Řečice","P6736":"31554"},"geometry":{"type":"Point","coordinates":[15.179,49.50888]}},{"type":"Feature","properties":{"label:cs":"Kříž na jižním okraji Červené Řečice u cesty do Bácovic","P31":"http://www.wikidata.org/entity/Q2309609","P31^label:cs":"Pamětní kříž","P131^label:cs":"Červená Řečice","P6736":"31553"},"geometry":{"type":"Point","coordinates":[15.17365,49.50704]}},{"type":"Feature","properties":{"label:cs":"Kříž na jižním okraji Červené Řečice","P31":"http://www.wikidata.org/entity/Q2309609","P31^label:cs":"Pamětní kříž","P131^label:cs":"Červená Řečice","P6736":"23159"},"geometry":{"type":"Point","coordinates":[15.17795,49.50614]}},{"type":"Feature","properties":{"label:cs":"Kříž u čp. 233 na západním okraji Červené Řečice","P31":"http://www.wikidata.org/entity/Q2309609","P31^label:cs":"Pamětní kříž","P131^label:cs":"Červená Řečice","P6736":"23156"},"geometry":{"type":"Point","coordinates":[15.17152,49.509]}},{"type":"Feature","properties":{"label:cs":"Kříž na západním okraji Červené Řečice","P31":"http://www.wikidata.org/entity/Q2309609","P31^label:cs":"Pamětní kříž","P131^label:cs":"Červená Řečice","P6736":"23155"},"geometry":{"type":"Point","coordinates":[15.17062,49.51059]}},{"type":"Feature","properties":{"label:cs":"Kaplička jižně od Červené Řečice u hlavní silnice","P31":"http://www.wikidata.org/entity/Q14552192","P31^label:cs":"Kaplička","P131^label:cs":"Červená Řečice","P6736":"18890"},"geometry":{"type":"Point","coordinates":[15.1813,49.50502]}}]}