{"type":"FeatureCollection","features":[{"type":"Feature","properties":{"label:cs":"Milník na okraji obce při silnici na Bednáreček","P31":"?","P31^label:cs":"Něco jiného","P131^label:cs":"Strmilov","P6736":"16762"},"geometry":{"type":"Point","coordinates":[15.16247,49.19299]}},{"type":"Feature","properties":{"label:cs":"Kříž v České Olešné severní část","P31":"Q2309609","P31^label:cs":"Pamětní kříž","P131^label:cs":"Strmilov","P6736":"12941"},"geometry":{"type":"Point","coordinates":[15.17106,49.19605]}},{"type":"Feature","properties":{"label:cs":"Pomník padlým v České Olešné","P31":"Q575759","P31^label:cs":"Pomník padlým","P131^label:cs":"Strmilov","P6736":"12940"},"geometry":{"type":"Point","coordinates":[15.16924,49.1919]}},{"type":"Feature","properties":{"label:cs":"Kaplička v České Olešné","P31":"Q14552192","P31^label:cs":"Kaplička","P131^label:cs":"Strmilov","P6736":"12939"},"geometry":{"type":"Point","coordinates":[15.16801,49.19039]}},{"type":"Feature","properties":{"label:cs":"Kříž v České Olešné","P31":"Q2309609","P31^label:cs":"Pamětní kříž","P131^label:cs":"Strmilov","P6736":"12938"},"geometry":{"type":"Point","coordinates":[15.16811,49.19094]}}]}