{"type":"FeatureCollection","features":[{"type":"Feature","properties":{"label:cs":"Kříž jihozápadně od Perek","P31":"Pamětní kříž","P31^label:cs":"Pamětní kříž","P131^label:cs":"Častrov","P6736":"6084"},"geometry":{"type":"Point","coordinates":[15.19205,49.30162]}},{"type":"Feature","properties":{"label:cs":"Kříž jižně od Perek","P31":"Pamětní kříž","P31^label:cs":"Pamětní kříž","P131^label:cs":"Častrov","P6736":"6083"},"geometry":{"type":"Point","coordinates":[15.20182,49.29996]}},{"type":"Feature","properties":{"label:cs":"Kříž u kaple v Perkách","P31":"Pamětní kříž","P31^label:cs":"Pamětní kříž","P131^label:cs":"Častrov","P6736":"6081"},"geometry":{"type":"Point","coordinates":[15.19713,49.30482]}},{"type":"Feature","properties":{"label:cs":"Kaple v Perkách","P31":"Kaple","P31^label:cs":"Kaple","P131^label:cs":"Častrov","P6736":"6082"},"geometry":{"type":"Point","coordinates":[15.19711,49.30477]}},{"type":"Feature","properties":{"label:cs":"Kříž východně od Častrova","P31":"Pamětní kříž","P31^label:cs":"Pamětní kříž","P131^label:cs":"Častrov","P6736":"6080"},"geometry":{"type":"Point","coordinates":[15.19477,49.30792]}},{"type":"Feature","properties":{"label:cs":"Kříž na křižovatce v Častrově","P31":"Pamětní kříž","P31^label:cs":"Pamětní kříž","P131^label:cs":"Častrov","P6736":"6077"},"geometry":{"type":"Point","coordinates":[15.18358,49.30881]}}]}