{"type":"FeatureCollection","features":[{"type":"Feature","properties":{"label:cs":"Kříž u kaple v Myslotíně","P31":"http://www.wikidata.org/entity/Q2309609","P31^label:cs":"Pamětní kříž","P131^label:cs":"Pelhřimov","P6736":"19214"},"geometry":{"type":"Point","coordinates":[15.19872,49.40292]}},{"type":"Feature","properties":{"label:cs":"Kaple v Myslotíně","P31":"http://www.wikidata.org/entity/Q108325","P31^label:cs":"Kaple","P131^label:cs":"Pelhřimov","P6736":"19213"},"geometry":{"type":"Point","coordinates":[15.19865,49.40292]}},{"type":"Feature","properties":{"label:cs":"Kříž u křižovatky mezi Myslotínem a Vokovem","P31":"http://www.wikidata.org/entity/Q2309609","P31^label:cs":"Pamětní kříž","P131^label:cs":"Pelhřimov","P6736":"19211"},"geometry":{"type":"Point","coordinates":[15.20446,49.39773]}},{"type":"Feature","properties":{"label:cs":"Kříž poblíž Nohaviček u Maštálky","P31":"http://www.wikidata.org/entity/Q2309609","P31^label:cs":"Pamětní kříž","P131^label:cs":"Pelhřimov","P6736":"18353"},"geometry":{"type":"Point","coordinates":[15.19564,49.41007]}},{"type":"Feature","properties":{"label:cs":"Kříž na okraji lesa Kopaniny západně od Myslotína","P31":"http://www.wikidata.org/entity/Q2309609","P31^label:cs":"Pamětní kříž","P131^label:cs":"Ondřejov","P6736":"19206"},"geometry":{"type":"Point","coordinates":[15.18683,49.40182]}}]}