{"type":"FeatureCollection","features":[{"type":"Feature","properties":{"label:cs":"Kříž na ji´hovýchodě Senožat","P31":"http://www.wikidata.org/entity/Q2309609","P31^label:cs":"Pamětní kříž","P131^label:cs":"Senožaty","P6736":"37300"},"geometry":{"type":"Point","coordinates":[15.20883,49.56569]}},{"type":"Feature","properties":{"label:cs":"Kříž u silnice východně od Senožat","P31":"http://www.wikidata.org/entity/Q2309609","P31^label:cs":"Pamětní kříž","P131^label:cs":"Senožaty","P6736":"28631"},"geometry":{"type":"Point","coordinates":[15.21295,49.56771]}},{"type":"Feature","properties":{"label:cs":"Kříž východně od Tuklek","P31":"http://www.wikidata.org/entity/Q2309609","P31^label:cs":"Pamětní kříž","P131^label:cs":"Senožaty","P6736":"37398"},"geometry":{"type":"Point","coordinates":[15.21217,49.55591]}},{"type":"Feature","properties":{"label:cs":"Kříž u kaple v Tuklecích","P31":"http://www.wikidata.org/entity/Q2309609","P31^label:cs":"Pamětní kříž","P131^label:cs":"Senožaty","P6736":"37307"},"geometry":{"type":"Point","coordinates":[15.20599,49.55422]}},{"type":"Feature","properties":{"label:cs":"Kaple v Tuklecích","P31":"http://www.wikidata.org/entity/Q108325","P31^label:cs":"Kaple","P131^label:cs":"Senožaty","P6736":"37306"},"geometry":{"type":"Point","coordinates":[15.20601,49.55426]}}]}