{"type":"FeatureCollection","features":[{"type":"Feature","properties":{"label:cs":"Kaplička u farmy zvané Peklo severně od Pelhřimova","P31":"http://www.wikidata.org/entity/Q14552192","P31^label:cs":"Kaplička","P131^label:cs":"Pelhřimov","P6736":"23792"},"geometry":{"type":"Point","coordinates":[15.20711,49.44665]}},{"type":"Feature","properties":{"label:cs":"Kříž u samoty U Švejdů severně od zemědělského statku Peklo","P31":"http://www.wikidata.org/entity/Q2309609","P31^label:cs":"Pamětní kříž","P131^label:cs":"Pelhřimov","P6736":"20588"},"geometry":{"type":"Point","coordinates":[15.21209,49.45203]}},{"type":"Feature","properties":{"label:cs":"Kaplička u samoty U Švejdů severně od zemědělského statku Peklo","P31":"http://www.wikidata.org/entity/Q14552192","P31^label:cs":"Kaplička","P131^label:cs":"Pelhřimov","P6736":"20587"},"geometry":{"type":"Point","coordinates":[15.21175,49.45223]}},{"type":"Feature","properties":{"label:cs":"Kříž na západním okraji Radětína u polní cesty","P31":"http://www.wikidata.org/entity/Q2309609","P31^label:cs":"Pamětní kříž","P131^label:cs":"Pelhřimov","P6736":"19869"},"geometry":{"type":"Point","coordinates":[15.2254,49.45121]}},{"type":"Feature","properties":{"label:cs":"Kříž jižně od Radětína na mezi u polní cesty do Pelhřimova","P31":"http://www.wikidata.org/entity/Q2309609","P31^label:cs":"Pamětní kříž","P131^label:cs":"Pelhřimov","P6736":"18852"},"geometry":{"type":"Point","coordinates":[15.22648,49.4495]}},{"type":"Feature","properties":{"label:cs":"Kříž západně od Radětínského rybníka u cesty do Radětína","P31":"http://www.wikidata.org/entity/Q2309609","P31^label:cs":"Pamětní kříž","P131^label:cs":"Pelhřimov","P6736":"18851"},"geometry":{"type":"Point","coordinates":[15.22564,49.44759]}},{"type":"Feature","properties":{"label:cs":"Pomník padlým v Radětíně","P31":"http://www.wikidata.org/entity/Q575759","P31^label:cs":"Pomník padlým","P131^label:cs":"Pelhřimov","P6736":"18816"},"geometry":{"type":"Point","coordinates":[15.22682,49.45217]}},{"type":"Feature","properties":{"label:cs":"Kříž u kaple v Radětíně","P31":"http://www.wikidata.org/entity/Q2309609","P31^label:cs":"Pamětní kříž","P131^label:cs":"Pelhřimov","P6736":"18815"},"geometry":{"type":"Point","coordinates":[15.22684,49.45225]}},{"type":"Feature","properties":{"label:cs":"Kaple v Radětíně","P31":"http://www.wikidata.org/entity/Q108325","P31^label:cs":"Kaple","P131^label:cs":"Pelhřimov","P6736":"18814"},"geometry":{"type":"Point","coordinates":[15.22684,49.45221]}}]}