{"type":"FeatureCollection","features":[{"type":"Feature","properties":{"label:cs":"Pamětní deska padlým na bývalé škole ve Svépravicích","P31":"http://www.wikidata.org/entity/Q721747","P31^label:cs":"Pamětní deska","P131^label:cs":"Svépravice","P6736":"18952"},"geometry":{"type":"Point","coordinates":[15.23368,49.49694]}},{"type":"Feature","properties":{"label:cs":"Kříž na severním okraji Svépravic","P31":"http://www.wikidata.org/entity/Q2309609","P31^label:cs":"Pamětní kříž","P131^label:cs":"Svépravice","P6736":"18984"},"geometry":{"type":"Point","coordinates":[15.23252,49.49788]}},{"type":"Feature","properties":{"label:cs":"Kříž u silnice na Sedlici na severním okraji Svépravic","P31":"http://www.wikidata.org/entity/Q2309609","P31^label:cs":"Pamětní kříž","P131^label:cs":"Svépravice","P6736":"18985"},"geometry":{"type":"Point","coordinates":[15.23519,49.49832]}},{"type":"Feature","properties":{"label:cs":"Kříž u cesty mezi Svépravicemi a Mokřinou","P31":"http://www.wikidata.org/entity/Q2309609","P31^label:cs":"Pamětní kříž","P131^label:cs":"Svépravice","P6736":"19008"},"geometry":{"type":"Point","coordinates":[15.23207,49.50077]}},{"type":"Feature","properties":{"label:cs":"Kříž u cesty mezi Svépravicemi a Mokřinou v části Štětky","P31":"http://www.wikidata.org/entity/Q2309609","P31^label:cs":"Pamětní kříž","P131^label:cs":"Svépravice","P6736":"19009"},"geometry":{"type":"Point","coordinates":[15.23159,49.5013]}},{"type":"Feature","properties":{"label:cs":"Kříž jižně od samoty Mokřiny","P31":"http://www.wikidata.org/entity/Q2309609","P31^label:cs":"Pamětní kříž","P131^label:cs":"Svépravice","P6736":"19010"},"geometry":{"type":"Point","coordinates":[15.22845,49.50556]}},{"type":"Feature","properties":{"label:cs":"Kříž na křižovatce u samoty Mokřiny","P31":"http://www.wikidata.org/entity/Q2309609","P31^label:cs":"Pamětní kříž","P131^label:cs":"Želiv","P6736":"19011"},"geometry":{"type":"Point","coordinates":[15.22763,49.51011]}}]}