{"type":"FeatureCollection","features":[{"type":"Feature","properties":{"label:cs":"Kříž západně od Dehtářů u cesty do Kojčic","P31":"http://www.wikidata.org/entity/Q2309609","P31^label:cs":"Pamětní kříž","P131^label:cs":"Dehtáře","P6736":"18730"},"geometry":{"type":"Point","coordinates":[15.2714,49.48518]}},{"type":"Feature","properties":{"label:cs":"Kříž u kaple v Dehtářích","P31":"http://www.wikidata.org/entity/Q2309609","P31^label:cs":"Pamětní kříž","P131^label:cs":"Dehtáře","P6736":"18704"},"geometry":{"type":"Point","coordinates":[15.27521,49.48568]}},{"type":"Feature","properties":{"label:cs":"Kaple v Dehtářích","P31":"http://www.wikidata.org/entity/Q108325","P31^label:cs":"Kaple","P131^label:cs":"Dehtáře","P6736":"18703"},"geometry":{"type":"Point","coordinates":[15.27523,49.48564]}},{"type":"Feature","properties":{"label:cs":"Kříž u kaple v Onšovicích","P31":"http://www.wikidata.org/entity/Q2309609","P31^label:cs":"Pamětní kříž","P131^label:cs":"Dehtáře","P6736":"18849"},"geometry":{"type":"Point","coordinates":[15.28765,49.48988]}},{"type":"Feature","properties":{"label:cs":"Kaple v Onšovicích","P31":"http://www.wikidata.org/entity/Q108325","P31^label:cs":"Kaple","P131^label:cs":"Dehtáře","P6736":"18848"},"geometry":{"type":"Point","coordinates":[15.28769,49.48984]}}]}