{"type":"FeatureCollection","features":[{"type":"Feature","properties":{"label:cs":"Kříž u kaple v Kletečné","P31":"http://www.wikidata.org/entity/Q2309609","P31^label:cs":"Pamětní kříž","P131^label:cs":"Humpolec","P6736":"18691"},"geometry":{"type":"Point","coordinates":[15.29704,49.50606]}},{"type":"Feature","properties":{"label:cs":"Kaple v Kletečné","P31":"http://www.wikidata.org/entity/Q108325","P31^label:cs":"Kaple","P131^label:cs":"Humpolec","P6736":"18690"},"geometry":{"type":"Point","coordinates":[15.29711,49.50613]}},{"type":"Feature","properties":{"label:cs":"Pomník padlým v Kletečné","P31":"http://www.wikidata.org/entity/Q575759","P31^label:cs":"Pomník padlým","P131^label:cs":"Humpolec","P6736":"18689"},"geometry":{"type":"Point","coordinates":[15.29749,49.50622]}},{"type":"Feature","properties":{"label:cs":"Křížový kámen o zavraždění Jíry ze Smrdova v Kletečné","P31":"http://www.wikidata.org/entity/Q38411643","P31^label:cs":"Křížový kámen","P131^label:cs":"Humpolec","P6736":"18688"},"geometry":{"type":"Point","coordinates":[15.29677,49.50589]}},{"type":"Feature","properties":{"label:cs":"Pamětní deska na bývalé škole v Kletečné","P31":"http://www.wikidata.org/entity/Q721747","P31^label:cs":"Pamětní deska","P131^label:cs":"Humpolec","P6736":"18687"},"geometry":{"type":"Point","coordinates":[15.29702,49.50632]}}]}