{"type":"FeatureCollection","features":[{"type":"Feature","properties":{"label:cs":"Pomník Václava Paříka u školy v Libuni","P31":"Q4989906","P31^label:cs":"Pomník","P131^label:cs":"Libuň","P6736":"22843"},"geometry":{"type":"Point","coordinates":[15.29926,50.49827]}},{"type":"Feature","properties":{"label:cs":"Pomník padlým u kostela v Libuni","P31":"Q575759","P31^label:cs":"Pomník padlým","P131^label:cs":"Libuň","P6736":"22842"},"geometry":{"type":"Point","coordinates":[15.29908,50.49819]}},{"type":"Feature","properties":{"label:cs":"Socha svatého Jana Nepomuckého u kostela v Libuni","P31":"Q179700","P31^label:cs":"Socha","P131^label:cs":"Libuň","P6736":"22841"},"geometry":{"type":"Point","coordinates":[15.29828,50.49863]}},{"type":"Feature","properties":{"label:cs":"Pomník Antonína Marka u kostela v Libuni","P31":"Q4989906","P31^label:cs":"Pomník","P131^label:cs":"Libuň","P6736":"22840"},"geometry":{"type":"Point","coordinates":[15.29878,50.49826]}},{"type":"Feature","properties":{"label:cs":"Socha svatého Josefa u kostela v Libuni","P31":"Q179700","P31^label:cs":"Socha","P131^label:cs":"Libuň","P6736":"22839"},"geometry":{"type":"Point","coordinates":[15.29855,50.4983]}}]}