{"type":"FeatureCollection","features":[{"type":"Feature","properties":{"label:cs":"Kaple v Hněvkovicích","P31":"http://www.wikidata.org/entity/Q108325","P31^label:cs":"Kaple","P131^label:cs":"Humpolec","P6736":"18684"},"geometry":{"type":"Point","coordinates":[15.32054,49.52957]}},{"type":"Feature","properties":{"label:cs":"Kříž před kaplí v Hněvkovicích","P31":"http://www.wikidata.org/entity/Q2309609","P31^label:cs":"Pamětní kříž","P131^label:cs":"Humpolec","P6736":"18685"},"geometry":{"type":"Point","coordinates":[15.32055,49.52962]}},{"type":"Feature","properties":{"label:cs":"Kříž z kamene vedle kaple v Hněvkovicích","P31":"http://www.wikidata.org/entity/Q2309609","P31^label:cs":"Pamětní kříž","P131^label:cs":"Humpolec","P6736":"18686"},"geometry":{"type":"Point","coordinates":[15.32049,49.52957]}},{"type":"Feature","properties":{"label:cs":"Kříž u silnice z Hněvkovic do Jiřic","P31":"http://www.wikidata.org/entity/Q2309609","P31^label:cs":"Pamětní kříž","P131^label:cs":"Humpolec","P6736":"28360"},"geometry":{"type":"Point","coordinates":[15.32143,49.53291]}},{"type":"Feature","properties":{"label:cs":"Kaple Nejsvětější Trojice a kříž u silnice Hněvkovice - Kletečná","P31":"http://www.wikidata.org/entity/Q108325","P31^label:cs":"Kaple","P131^label:cs":"Humpolec","P6736":"28361"},"geometry":{"type":"Point","coordinates":[15.31593,49.53036]}},{"type":"Feature","properties":{"label:cs":"Kříž u nadjezdu dálnice mezi Humpolcem a Hněvkovicemi","P31":"http://www.wikidata.org/entity/Q2309609","P31^label:cs":"Pamětní kříž","P131^label:cs":"Humpolec","P6736":"28549"},"geometry":{"type":"Point","coordinates":[15.33561,49.53399]}},{"type":"Feature","properties":{"label:cs":"Kříž Františka Jiráka v Hněvkovicích","P31":"http://www.wikidata.org/entity/Q2309609","P31^label:cs":"Pamětní kříž","P131^label:cs":"Humpolec","P6736":"28553"},"geometry":{"type":"Point","coordinates":[15.3296,49.53224]}},{"type":"Feature","properties":{"label:cs":"Kamenný kříž na severním okraji Hněvkovic","P31":"http://www.wikidata.org/entity/Q2309609","P31^label:cs":"Pamětní kříž","P131^label:cs":"Humpolec","P6736":"28554"},"geometry":{"type":"Point","coordinates":[15.32074,49.53137]}}]}