{"type":"FeatureCollection","features":[{"type":"Feature","properties":{"label:cs":"Socha anděla před kostelem v Jiřicích","P31":"http://www.wikidata.org/entity/Q179700","P31^label:cs":"Socha","P131^label:cs":"Jiřice","P6736":"28558"},"geometry":{"type":"Point","coordinates":[15.31732,49.55307]}},{"type":"Feature","properties":{"label:cs":"Kříž proti čp. 211 v Jiřicích","P31":"http://www.wikidata.org/entity/Q2309609","P31^label:cs":"Pamětní kříž","P131^label:cs":"Jiřice","P6736":"28556"},"geometry":{"type":"Point","coordinates":[15.32054,49.5516]}},{"type":"Feature","properties":{"label:cs":"Kříž na kostele v Jiřicích","P31":"http://www.wikidata.org/entity/Q2309609","P31^label:cs":"Pamětní kříž","P131^label:cs":"Jiřice","P6736":"28555"},"geometry":{"type":"Point","coordinates":[15.31774,49.55304]}},{"type":"Feature","properties":{"label:cs":"Kříž v centru Jiřic","P31":"http://www.wikidata.org/entity/Q2309609","P31^label:cs":"Pamětní kříž","P131^label:cs":"Jiřice","P6736":"20021"},"geometry":{"type":"Point","coordinates":[15.31962,49.55336]}},{"type":"Feature","properties":{"label:cs":"Pomník obětem 1. světové války v Jiřicích","P31":"http://www.wikidata.org/entity/Q575759","P31^label:cs":"Pomník padlým","P131^label:cs":"Jiřice","P6736":"20020"},"geometry":{"type":"Point","coordinates":[15.31882,49.55326]}},{"type":"Feature","properties":{"label:cs":"Kaplička u kostela svatého Jakuba Většího v Jiřicích","P31":"http://www.wikidata.org/entity/Q14552192","P31^label:cs":"Kaplička","P131^label:cs":"Jiřice","P6736":"20019"},"geometry":{"type":"Point","coordinates":[15.31698,49.55323]}},{"type":"Feature","properties":{"label:cs":"Kříž východně od Jiřic","P31":"http://www.wikidata.org/entity/Q2309609","P31^label:cs":"Pamětní kříž","P131^label:cs":"Jiřice","P6736":"11087"},"geometry":{"type":"Point","coordinates":[15.32846,49.55108]}}]}