{"type":"FeatureCollection","features":[{"type":"Feature","properties":{"label:cs":"Kříž u kaple v Horních Rápoticích","P31":"http://www.wikidata.org/entity/Q2309609","P31^label:cs":"Pamětní kříž","P131^label:cs":"Horní Rápotice","P6736":"38525"},"geometry":{"type":"Point","coordinates":[15.32087,49.57498]}},{"type":"Feature","properties":{"label:cs":"Kaple v Horních Rápoticích","P31":"http://www.wikidata.org/entity/Q108325","P31^label:cs":"Kaple","P131^label:cs":"Horní Rápotice","P6736":"38523"},"geometry":{"type":"Point","coordinates":[15.32096,49.575]}},{"type":"Feature","properties":{"label:cs":"Kaplička u silnice jihovýchodně od Horních Rápotic","P31":"http://www.wikidata.org/entity/Q14552192","P31^label:cs":"Kaplička","P131^label:cs":"Horní Rápotice","P6736":"38521"},"geometry":{"type":"Point","coordinates":[15.32357,49.57309]}},{"type":"Feature","properties":{"label:cs":"Kříž u silnice jihovýchodně od Horních Rápotic","P31":"http://www.wikidata.org/entity/Q2309609","P31^label:cs":"Pamětní kříž","P131^label:cs":"Horní Rápotice","P6736":"38520"},"geometry":{"type":"Point","coordinates":[15.3247,49.57179]}},{"type":"Feature","properties":{"label:cs":"Kříž na východním okraji Horních Rápotic","P31":"http://www.wikidata.org/entity/Q2309609","P31^label:cs":"Pamětní kříž","P131^label:cs":"Horní Rápotice","P6736":"19963"},"geometry":{"type":"Point","coordinates":[15.32109,49.57663]}},{"type":"Feature","properties":{"label:cs":"Kříž na západním okraji Horních Rápotic","P31":"http://www.wikidata.org/entity/Q2309609","P31^label:cs":"Pamětní kříž","P131^label:cs":"Horní Rápotice","P6736":"19961"},"geometry":{"type":"Point","coordinates":[15.31765,49.57743]}}]}