{"type":"FeatureCollection","features":[{"type":"Feature","properties":{"label:cs":"Kříž u samoty Na Radosti","P31":"http://www.wikidata.org/entity/Q2309609","P31^label:cs":"Pamětní kříž","P131^label:cs":"Komorovice","P6736":"25901"},"geometry":{"type":"Point","coordinates":[15.33346,49.50969]}},{"type":"Feature","properties":{"label:cs":"Kříž před kaplí v Záhoří","P31":"http://www.wikidata.org/entity/Q2309609","P31^label:cs":"Pamětní kříž","P131^label:cs":"Mladé Bříště","P6736":"25903"},"geometry":{"type":"Point","coordinates":[15.32409,49.50336]}},{"type":"Feature","properties":{"label:cs":"Kaple v Záhoří","P31":"http://www.wikidata.org/entity/Q108325","P31^label:cs":"Kaple","P131^label:cs":"Mladé Bříště","P6736":"25902"},"geometry":{"type":"Point","coordinates":[15.32403,49.50338]}},{"type":"Feature","properties":{"label:cs":"Kříž na křižovatce místních cest severovýchodně od Záhoří","P31":"http://www.wikidata.org/entity/Q2309609","P31^label:cs":"Pamětní kříž","P131^label:cs":"Mladé Bříště","P6736":"23137"},"geometry":{"type":"Point","coordinates":[15.33175,49.50588]}},{"type":"Feature","properties":{"label:cs":"Kříž 'Za všechny na cestách' jihozápadně od Záhoří","P31":"http://www.wikidata.org/entity/Q2309609","P31^label:cs":"Pamětní kříž","P131^label:cs":"Mladé Bříště","P6736":"11096"},"geometry":{"type":"Point","coordinates":[15.32063,49.49799]}}]}