{"type":"FeatureCollection","features":[{"type":"Feature","properties":{"label:cs":"Kaple u cesty z Příchovic do Kořenova","P31":"http://www.wikidata.org/entity/Q108325","P31^label:cs":"Kaple","P131^label:cs":"Kořenov","P6736":"36844"},"geometry":{"type":"Point","coordinates":[15.35659,50.74743]}},{"type":"Feature","properties":{"label:cs":"Pomník nejasného účelu u tenisového hřiště v Příchovicích","P31":"http://www.wikidata.org/entity/Q4989906","P31^label:cs":"Pomník","P131^label:cs":"Kořenov","P6736":"36843"},"geometry":{"type":"Point","coordinates":[15.35287,50.74523]}},{"type":"Feature","properties":{"label:cs":"Socha svatého Jana Nepomuckého u cesty z Příchovic do Kořenova","P31":"http://www.wikidata.org/entity/Q179700","P31^label:cs":"Socha","P131^label:cs":"Kořenov","P6736":"36842"},"geometry":{"type":"Point","coordinates":[15.35293,50.74517]}},{"type":"Feature","properties":{"label:cs":"Centrální kříž na hřbitově v Příchovicích","P31":"http://www.wikidata.org/entity/Q2309609","P31^label:cs":"Pamětní kříž","P131^label:cs":"Kořenov","P6736":"36841"},"geometry":{"type":"Point","coordinates":[15.34843,50.74199]}},{"type":"Feature","properties":{"label:cs":"Kaple na hřbitově v Příchovicích","P31":"http://www.wikidata.org/entity/Q108325","P31^label:cs":"Kaple","P131^label:cs":"Kořenov","P6736":"36840"},"geometry":{"type":"Point","coordinates":[15.3479,50.74209]}},{"type":"Feature","properties":{"label:cs":"Socha svatého Josefa u kostela v Příchovicích","P31":"http://www.wikidata.org/entity/Q179700","P31^label:cs":"Socha","P131^label:cs":"Kořenov","P6736":"36839"},"geometry":{"type":"Point","coordinates":[15.34939,50.74152]}},{"type":"Feature","properties":{"label:cs":"Socha Panny Marie na návsi v Příchovicích","P31":"http://www.wikidata.org/entity/Q179700","P31^label:cs":"Socha","P131^label:cs":"Kořenov","P6736":"36838"},"geometry":{"type":"Point","coordinates":[15.35044,50.74191]}},{"type":"Feature","properties":{"label:cs":"Kašna na návsi v Příchovicích","P31":"http://www.wikidata.org/entity/Q12029081","P31^label:cs":"Kašna","P131^label:cs":"Kořenov","P6736":"36837"},"geometry":{"type":"Point","coordinates":[15.35033,50.7418]}},{"type":"Feature","properties":{"label:cs":"Kříž u domu 39 v Příchovicích","P31":"http://www.wikidata.org/entity/Q2309609","P31^label:cs":"Pamětní kříž","P131^label:cs":"Kořenov","P6736":"36836"},"geometry":{"type":"Point","coordinates":[15.35121,50.74224]}},{"type":"Feature","properties":{"label:cs":"Socha Madony na rozcestí západně od Příchovic","P31":"http://www.wikidata.org/entity/Q179700","P31^label:cs":"Socha","P131^label:cs":"Kořenov","P6736":"36815"},"geometry":{"type":"Point","coordinates":[15.34727,50.74154]}},{"type":"Feature","properties":{"label:cs":"Pomník padlým v 1. světové válce u hřbitova v Příchovicích","P31":"http://www.wikidata.org/entity/Q575759","P31^label:cs":"Pomník padlým","P131^label:cs":"Kořenov","P6736":"36814"},"geometry":{"type":"Point","coordinates":[15.34904,50.74183]}},{"type":"Feature","properties":{"label:cs":"Socha svatého Jana Nepomuckého u penzionu U Čápa v Příchovicích","P31":"http://www.wikidata.org/entity/Q179700","P31^label:cs":"Socha","P131^label:cs":"Kořenov","P6736":"36813"},"geometry":{"type":"Point","coordinates":[15.34647,50.73998]}}]}