{"type":"FeatureCollection","features":[{"type":"Feature","properties":{"label:cs":"Kříž před kaplí v Branišově","P31":"http://www.wikidata.org/entity/Q2309609","P31^label:cs":"Pamětní kříž","P131^label:cs":"Vyskytná","P6736":"20146"},"geometry":{"type":"Point","coordinates":[15.3375,49.42103]}},{"type":"Feature","properties":{"label:cs":"Kaple v Branišově","P31":"http://www.wikidata.org/entity/Q108325","P31^label:cs":"Kaple","P131^label:cs":"Vyskytná","P6736":"20145"},"geometry":{"type":"Point","coordinates":[15.33756,49.42105]}},{"type":"Feature","properties":{"label:cs":"Kříž U Matějků na okraji Branišova","P31":"http://www.wikidata.org/entity/Q2309609","P31^label:cs":"Pamětní kříž","P131^label:cs":"Vyskytná","P6736":"18619"},"geometry":{"type":"Point","coordinates":[15.33867,49.41541]}},{"type":"Feature","properties":{"label:cs":"Kříž na okraji Branišova","P31":"http://www.wikidata.org/entity/Q2309609","P31^label:cs":"Pamětní kříž","P131^label:cs":"Vyskytná","P6736":"18346"},"geometry":{"type":"Point","coordinates":[15.33762,49.42258]}},{"type":"Feature","properties":{"label:cs":"Kříž na Hadím vrchu u Vyskytné","P31":"http://www.wikidata.org/entity/Q2309609","P31^label:cs":"Pamětní kříž","P131^label:cs":"Vyskytná","P6736":"18348"},"geometry":{"type":"Point","coordinates":[15.35239,49.42199]}},{"type":"Feature","properties":{"label:cs":"Kříž východně od Branišova na kraji lesa","P31":"http://www.wikidata.org/entity/Q2309609","P31^label:cs":"Pamětní kříž","P131^label:cs":"Vyskytná","P6736":"18347"},"geometry":{"type":"Point","coordinates":[15.3453,49.42274]}}]}