{"type":"FeatureCollection","features":[{"type":"Feature","properties":{"label:cs":"Pomník padlým saským vojákům 29. 6. 1866 na vrchu Horka u Dílců","P31":"http://www.wikidata.org/entity/Q575759","P31^label:cs":"Pomník padlým","P131^label:cs":"Dílce","P6736":"22877"},"geometry":{"type":"Point","coordinates":[15.35499,50.46264]}},{"type":"Feature","properties":{"label:cs":"Kaple v památníku bitvy u Jičína 1866 u Kbelnice","P31":"http://www.wikidata.org/entity/Q108325","P31^label:cs":"Kaple","P131^label:cs":"Kbelnice","P6736":"22891"},"geometry":{"type":"Point","coordinates":[15.34548,50.45925]}},{"type":"Feature","properties":{"label:cs":"Sochy svatých Petra a Pavla u brány do Ossaria u Kbelnice","P31":"http://www.wikidata.org/entity/Q179700","P31^label:cs":"Socha","P131^label:cs":"Kbelnice","P6736":"22892"},"geometry":{"type":"Point","coordinates":[15.34583,50.4593]}},{"type":"Feature","properties":{"label:cs":"Pomník padlým z pruského 8. granátnického pluku 29. 6. 1866 v poli východně od Podůlší","P31":"http://www.wikidata.org/entity/Q575759","P31^label:cs":"Pomník padlým","P131^label:cs":"Podůlší","P6736":"22869"},"geometry":{"type":"Point","coordinates":[15.34769,50.47079]}},{"type":"Feature","properties":{"label:cs":"Pomník padlým z pruského 48. pěšího pluku 29. 6. 1866 v poli východně od Podůlší","P31":"http://www.wikidata.org/entity/Q575759","P31^label:cs":"Pomník padlým","P131^label:cs":"Podůlší","P6736":"22870"},"geometry":{"type":"Point","coordinates":[15.34812,50.47071]}},{"type":"Feature","properties":{"label:cs":"Kříž na rozcestí silnice 35 v Podůlší","P31":"http://www.wikidata.org/entity/Q2309609","P31^label:cs":"Pamětní kříž","P131^label:cs":"Podůlší","P6736":"22871"},"geometry":{"type":"Point","coordinates":[15.3403,50.47135]}},{"type":"Feature","properties":{"label:cs":"Pomník padlým důstojníkům 29. 6. 1866 v Podůlší","P31":"http://www.wikidata.org/entity/Q575759","P31^label:cs":"Pomník padlým","P131^label:cs":"Podůlší","P6736":"22872"},"geometry":{"type":"Point","coordinates":[15.33973,50.47077]}}]}