{"type":"FeatureCollection","features":[{"type":"Feature","properties":{"label:cs":"Kříž u zaniklé cesty západně od Budíkova","P31":"http://www.wikidata.org/entity/Q2309609","P31^label:cs":"Pamětní kříž","P131^label:cs":"Budíkov","P6736":"37163"},"geometry":{"type":"Point","coordinates":[15.35231,49.57884]}},{"type":"Feature","properties":{"label:cs":"Kříž na křižovatce polních cest západně od Světlic","P31":"http://www.wikidata.org/entity/Q2309609","P31^label:cs":"Pamětní kříž","P131^label:cs":"Humpolec","P6736":"37170"},"geometry":{"type":"Point","coordinates":[15.34438,49.56875]}},{"type":"Feature","properties":{"label:cs":"Pomník padlým ve Světlicích","P31":"http://www.wikidata.org/entity/Q575759","P31^label:cs":"Pomník padlým","P131^label:cs":"Humpolec","P6736":"37168"},"geometry":{"type":"Point","coordinates":[15.35311,49.56992]}},{"type":"Feature","properties":{"label:cs":"Kříž u kaple ve Světlicích","P31":"http://www.wikidata.org/entity/Q2309609","P31^label:cs":"Pamětní kříž","P131^label:cs":"Humpolec","P6736":"37167"},"geometry":{"type":"Point","coordinates":[15.35315,49.57022]}},{"type":"Feature","properties":{"label:cs":"Kaple ve Světlicích","P31":"http://www.wikidata.org/entity/Q108325","P31^label:cs":"Kaple","P131^label:cs":"Humpolec","P6736":"37166"},"geometry":{"type":"Point","coordinates":[15.35309,49.57026]}},{"type":"Feature","properties":{"label:cs":"Kříž u cesty severozápadně od Světlic","P31":"http://www.wikidata.org/entity/Q2309609","P31^label:cs":"Pamětní kříž","P131^label:cs":"Humpolec","P6736":"37164"},"geometry":{"type":"Point","coordinates":[15.34894,49.57306]}}]}