{"type":"FeatureCollection","features":[{"type":"Feature","properties":{"label:cs":"Boží muka jižně od Zachotína směrem na Častonín","P31":"http://www.wikidata.org/entity/Q3395121","P31^label:cs":"Boží muka","P131^label:cs":"Zachotín","P6736":"18643"},"geometry":{"type":"Point","coordinates":[15.34958,49.45924]}},{"type":"Feature","properties":{"label:cs":"Boží muka v Zachotíně u cesty do Žirova","P31":"http://www.wikidata.org/entity/Q3395121","P31^label:cs":"Boží muka","P131^label:cs":"Zachotín","P6736":"18642"},"geometry":{"type":"Point","coordinates":[15.34667,49.4646]}},{"type":"Feature","properties":{"label:cs":"Kříž u kostela Narození Panny Marie v Zachotíně","P31":"http://www.wikidata.org/entity/Q2309609","P31^label:cs":"Pamětní kříž","P131^label:cs":"Zachotín","P6736":"18635"},"geometry":{"type":"Point","coordinates":[15.34769,49.46292]}},{"type":"Feature","properties":{"label:cs":"Kříž mezi Zachotínem a Častonínem","P31":"http://www.wikidata.org/entity/Q2309609","P31^label:cs":"Pamětní kříž","P131^label:cs":"Zachotín","P6736":"18634"},"geometry":{"type":"Point","coordinates":[15.35244,49.4547]}},{"type":"Feature","properties":{"label:cs":"Kříž v jižní části Zachotína za stodolami","P31":"http://www.wikidata.org/entity/Q2309609","P31^label:cs":"Pamětní kříž","P131^label:cs":"Zachotín","P6736":"18633"},"geometry":{"type":"Point","coordinates":[15.34796,49.46004]}},{"type":"Feature","properties":{"label:cs":"Kříž na jižním okraji Zachotína u odbočky na Častonín","P31":"http://www.wikidata.org/entity/Q2309609","P31^label:cs":"Pamětní kříž","P131^label:cs":"Zachotín","P6736":"18632"},"geometry":{"type":"Point","coordinates":[15.34902,49.46009]}},{"type":"Feature","properties":{"label:cs":"Kříž v západní části Zachotína u domu čp.79","P31":"http://www.wikidata.org/entity/Q2309609","P31^label:cs":"Pamětní kříž","P131^label:cs":"Zachotín","P6736":"18631"},"geometry":{"type":"Point","coordinates":[15.34688,49.46267]}},{"type":"Feature","properties":{"label:cs":"Kříž u hřbitova v Zachotíně","P31":"http://www.wikidata.org/entity/Q2309609","P31^label:cs":"Pamětní kříž","P131^label:cs":"Zachotín","P6736":"18630"},"geometry":{"type":"Point","coordinates":[15.34465,49.46112]}},{"type":"Feature","properties":{"label:cs":"Kříž severně od pily v Zachotíně","P31":"http://www.wikidata.org/entity/Q2309609","P31^label:cs":"Pamětní kříž","P131^label:cs":"Zachotín","P6736":"18371"},"geometry":{"type":"Point","coordinates":[15.35126,49.46621]}},{"type":"Feature","properties":{"label:cs":"Kříž východně od Zachotína","P31":"http://www.wikidata.org/entity/Q2309609","P31^label:cs":"Pamětní kříž","P131^label:cs":"Zachotín","P6736":"11097"},"geometry":{"type":"Point","coordinates":[15.35386,49.46576]}}]}