{"type":"FeatureCollection","features":[{"type":"Feature","properties":{"label:cs":"Kříž jižně od Sedliště u samoty Na Skále","P31":"Pamětní kříž","P31^label:cs":"Pamětní kříž","P131^label:cs":"Vyskytná","P6736":"18872"},"geometry":{"type":"Point","coordinates":[15.33923,49.4343]}},{"type":"Feature","properties":{"label:cs":"Kříž v Sedlišti u čp.26","P31":"Pamětní kříž","P31^label:cs":"Pamětní kříž","P131^label:cs":"Vyskytná","P6736":"18871"},"geometry":{"type":"Point","coordinates":[15.33915,49.4379]}},{"type":"Feature","properties":{"label:cs":"Kaple v Sedlišti","P31":"Kaple","P31^label:cs":"Kaple","P131^label:cs":"Vyskytná","P6736":"18870"},"geometry":{"type":"Point","coordinates":[15.33889,49.4386]}},{"type":"Feature","properties":{"label:cs":"Kříž u samoty Beledinka poblíž Sedliště","P31":"Pamětní kříž","P31^label:cs":"Pamětní kříž","P131^label:cs":"Vyskytná","P6736":"18862"},"geometry":{"type":"Point","coordinates":[15.34873,49.43827]}},{"type":"Feature","properties":{"label:cs":"Kříž na vedlejší silnici mezi Vyskytnou a Sedlištěm","P31":"Pamětní kříž","P31^label:cs":"Pamětní kříž","P131^label:cs":"Vyskytná","P6736":"18861"},"geometry":{"type":"Point","coordinates":[15.3566,49.43518]}}]}