{"type":"FeatureCollection","features":[{"type":"Feature","properties":{"label:cs":"Kříž před kaplí v Komorovicích","P31":"http://www.wikidata.org/entity/Q2309609","P31^label:cs":"Pamětní kříž","P131^label:cs":"Komorovice","P6736":"19893"},"geometry":{"type":"Point","coordinates":[15.34544,49.50816]}},{"type":"Feature","properties":{"label:cs":"Kaple v Komorovicích","P31":"http://www.wikidata.org/entity/Q108325","P31^label:cs":"Kaple","P131^label:cs":"Komorovice","P6736":"18798"},"geometry":{"type":"Point","coordinates":[15.34553,49.50814]}},{"type":"Feature","properties":{"label:cs":"Křížový kámen severně od Mladých Bříští","P31":"http://www.wikidata.org/entity/Q38411643","P31^label:cs":"Křížový kámen","P131^label:cs":"Mladé Bříště","P6736":"34596"},"geometry":{"type":"Point","coordinates":[15.34427,49.49675]}},{"type":"Feature","properties":{"label:cs":"Kříž u polní cesty severně od Mladých Bříští","P31":"http://www.wikidata.org/entity/Q2309609","P31^label:cs":"Pamětní kříž","P131^label:cs":"Mladé Bříště","P6736":"34595"},"geometry":{"type":"Point","coordinates":[15.34228,49.49839]}},{"type":"Feature","properties":{"label:cs":"Dřevěný kříž u zemědělského družstva Komorovice","P31":"http://www.wikidata.org/entity/Q2309609","P31^label:cs":"Pamětní kříž","P131^label:cs":"Mladé Bříště","P6736":"18794"},"geometry":{"type":"Point","coordinates":[15.34187,49.50238]}}]}