{"type":"FeatureCollection","features":[{"type":"Feature","properties":{"label:cs":"Křížový kámen u lesa nad domem 1003 v Jizerce","P31":"http://www.wikidata.org/entity/Q38411643","P31^label:cs":"Křížový kámen","P131^label:cs":"Kořenov","P6736":"36862"},"geometry":{"type":"Point","coordinates":[15.35448,50.81342]}},{"type":"Feature","properties":{"label:cs":"Pomník Pyramida v Jizerce","P31":"http://www.wikidata.org/entity/Q4989906","P31^label:cs":"Pomník","P131^label:cs":"Kořenov","P6736":"36859"},"geometry":{"type":"Point","coordinates":[15.3466,50.81841]}},{"type":"Feature","properties":{"label:cs":"Kříž u Panského domu v Jizerce","P31":"http://www.wikidata.org/entity/Q2309609","P31^label:cs":"Pamětní kříž","P131^label:cs":"Kořenov","P6736":"36857"},"geometry":{"type":"Point","coordinates":[15.34567,50.81828]}},{"type":"Feature","properties":{"label:cs":"Pomník Wilhelma Langeho v Jizerce","P31":"http://www.wikidata.org/entity/Q4989906","P31^label:cs":"Pomník","P131^label:cs":"Kořenov","P6736":"36853"},"geometry":{"type":"Point","coordinates":[15.35191,50.81517]}},{"type":"Feature","properties":{"label:cs":"Jurischův kříž u silnice jižně od Jizerky","P31":"http://www.wikidata.org/entity/Q2309609","P31^label:cs":"Pamětní kříž","P131^label:cs":"Kořenov","P6736":"36855"},"geometry":{"type":"Point","coordinates":[15.35224,50.80862]}}]}