{"type":"FeatureCollection","features":[{"type":"Feature","properties":{"label:cs":"Socha svatého Jana Nepomuckého u kostela na hřbitově v Semilech","P31":"http://www.wikidata.org/entity/Q179700","P31^label:cs":"Socha","P131^label:cs":"Semily","P6736":"21492"},"geometry":{"type":"Point","coordinates":[15.33836,50.60082]}},{"type":"Feature","properties":{"label:cs":"Socha svatého Václava u pramene v Jílovecké ulici v Semilech","P31":"http://www.wikidata.org/entity/Q179700","P31^label:cs":"Socha","P131^label:cs":"Semily","P6736":"21491"},"geometry":{"type":"Point","coordinates":[15.3388,50.60163]}},{"type":"Feature","properties":{"label:cs":"Sochy svatých Petra a Pavla u kostela svatých Petra a Pavla v Semilech","P31":"http://www.wikidata.org/entity/Q179700","P31^label:cs":"Socha","P131^label:cs":"Semily","P6736":"21490"},"geometry":{"type":"Point","coordinates":[15.33735,50.60251]}},{"type":"Feature","properties":{"label:cs":"Mariánský sloup na náměstí Komenského v Semilech","P31":"http://www.wikidata.org/entity/Q4817","P31^label:cs":"Sloup","P131^label:cs":"Semily","P6736":"21489"},"geometry":{"type":"Point","coordinates":[15.33755,50.60308]}},{"type":"Feature","properties":{"label:cs":"Socha svatého Václava u kostela svatých Petra a Pavla v Semilech","P31":"http://www.wikidata.org/entity/Q179700","P31^label:cs":"Socha","P131^label:cs":"Semily","P6736":"21487"},"geometry":{"type":"Point","coordinates":[15.33702,50.60257]}}]}