{"type":"FeatureCollection","features":[{"type":"Feature","properties":{"label:cs":"Kříž v severovýchodní části Milíčova","P31":"http://www.wikidata.org/entity/Q2309609","P31^label:cs":"Pamětní kříž","P131^label:cs":"Milíčov","P6736":"32015"},"geometry":{"type":"Point","coordinates":[15.39328,49.39614]}},{"type":"Feature","properties":{"label:cs":"Kříž před kaplí v Milíčově","P31":"http://www.wikidata.org/entity/Q2309609","P31^label:cs":"Pamětní kříž","P131^label:cs":"Milíčov","P6736":"32014"},"geometry":{"type":"Point","coordinates":[15.39162,49.39523]}},{"type":"Feature","properties":{"label:cs":"Kříž na jižním okraji Milíčova","P31":"http://www.wikidata.org/entity/Q2309609","P31^label:cs":"Pamětní kříž","P131^label:cs":"Milíčov","P6736":"32013"},"geometry":{"type":"Point","coordinates":[15.39141,49.39271]}},{"type":"Feature","properties":{"label:cs":"Boží muka v Milíčově","P31":"http://www.wikidata.org/entity/Q3395121","P31^label:cs":"Boží muka","P131^label:cs":"Milíčov","P6736":"32012"},"geometry":{"type":"Point","coordinates":[15.39129,49.39265]}},{"type":"Feature","properties":{"label:cs":"Kříž u silnice mezi Novým Rychnovem a Milíčovem","P31":"http://www.wikidata.org/entity/Q2309609","P31^label:cs":"Pamětní kříž","P131^label:cs":"Milíčov","P6736":"32011"},"geometry":{"type":"Point","coordinates":[15.38385,49.38696]}},{"type":"Feature","properties":{"label:cs":"Kaple v Milíčově","P31":"http://www.wikidata.org/entity/Q108325","P31^label:cs":"Kaple","P131^label:cs":"Milíčov","P6736":"19513"},"geometry":{"type":"Point","coordinates":[15.39151,49.39526]}}]}