{"type":"FeatureCollection","features":[{"type":"Feature","properties":{"label:cs":"Kříž u zvoničky ve Vilémově","P31":"http://www.wikidata.org/entity/Q2309609","P31^label:cs":"Pamětní kříž","P131^label:cs":"Humpolec","P6736":"18674"},"geometry":{"type":"Point","coordinates":[15.38355,49.53514]}},{"type":"Feature","properties":{"label:cs":"Zvonička ve Vilémově","P31":"http://www.wikidata.org/entity/Q10861631","P31^label:cs":"Zvonička","P131^label:cs":"Humpolec","P6736":"18673"},"geometry":{"type":"Point","coordinates":[15.38354,49.53512]}},{"type":"Feature","properties":{"label:cs":"Kříž u kaple v Plačkově","P31":"http://www.wikidata.org/entity/Q2309609","P31^label:cs":"Pamětní kříž","P131^label:cs":"Humpolec","P6736":"18672"},"geometry":{"type":"Point","coordinates":[15.39649,49.52976]}},{"type":"Feature","properties":{"label:cs":"Kaple v Plačkově","P31":"http://www.wikidata.org/entity/Q108325","P31^label:cs":"Kaple","P131^label:cs":"Humpolec","P6736":"18671"},"geometry":{"type":"Point","coordinates":[15.39648,49.52971]}},{"type":"Feature","properties":{"label:cs":"Památný kámen v Plačkově","P31":"http://www.wikidata.org/entity/Q11734477","P31^label:cs":"Památný kámen","P131^label:cs":"Humpolec","P6736":"18670"},"geometry":{"type":"Point","coordinates":[15.39657,49.52972]}}]}