{"type":"FeatureCollection","features":[{"type":"Feature","properties":{"label:cs":"Kříž v zahradě domu čp. 9 v Krasoňově","P31":"http://www.wikidata.org/entity/Q2309609","P31^label:cs":"Pamětní kříž","P131^label:cs":"Humpolec","P6736":"27233"},"geometry":{"type":"Point","coordinates":[15.39922,49.50134]}},{"type":"Feature","properties":{"label:cs":"Památník padlým v I. světové válce v Krasoňově","P31":"http://www.wikidata.org/entity/Q575759","P31^label:cs":"Pomník padlým","P131^label:cs":"Humpolec","P6736":"27232"},"geometry":{"type":"Point","coordinates":[15.39915,49.50041]}},{"type":"Feature","properties":{"label:cs":"Kříž v jižní části Krasoňova","P31":"http://www.wikidata.org/entity/Q2309609","P31^label:cs":"Pamětní kříž","P131^label:cs":"Humpolec","P6736":"27231"},"geometry":{"type":"Point","coordinates":[15.39891,49.49902]}},{"type":"Feature","properties":{"label:cs":"Kaple sv. Václava v Krasoňově","P31":"http://www.wikidata.org/entity/Q108325","P31^label:cs":"Kaple","P131^label:cs":"Humpolec","P6736":"27230"},"geometry":{"type":"Point","coordinates":[15.39908,49.49986]}},{"type":"Feature","properties":{"label:cs":"Kříž v poli západně od Krasoňova","P31":"http://www.wikidata.org/entity/Q2309609","P31^label:cs":"Pamětní kříž","P131^label:cs":"Humpolec","P6736":"27228"},"geometry":{"type":"Point","coordinates":[15.39067,49.50007]}}]}