{"type":"FeatureCollection","features":[{"type":"Feature","properties":{"label:cs":"Plastika Květ v areálu Akademie ve Světlé nad Sázavou","P31":"http://www.wikidata.org/entity/Q12045520","P31^label:cs":"Plastika","P131^label:cs":"Světlá nad Sázavou","P6736":"39005"},"geometry":{"type":"Point","coordinates":[15.4032,49.66588]}},{"type":"Feature","properties":{"label:cs":"Socha fantastického zvířete v areálu Akademie ve Světlé nad Sázavou","P31":"http://www.wikidata.org/entity/Q179700","P31^label:cs":"Socha","P131^label:cs":"Světlá nad Sázavou","P6736":"39004"},"geometry":{"type":"Point","coordinates":[15.40319,49.66594]}},{"type":"Feature","properties":{"label:cs":"Klečící figura v areálu Akademie ve Světlé nad Sázavou","P31":"http://www.wikidata.org/entity/Q179700","P31^label:cs":"Socha","P131^label:cs":"Světlá nad Sázavou","P6736":"39003"},"geometry":{"type":"Point","coordinates":[15.40312,49.66604]}},{"type":"Feature","properties":{"label:cs":"Plastika Lebka v areálu Akademie ve Světlé nad Sázavou","P31":"http://www.wikidata.org/entity/Q12045520","P31^label:cs":"Plastika","P131^label:cs":"Světlá nad Sázavou","P6736":"39002"},"geometry":{"type":"Point","coordinates":[15.40303,49.66609]}},{"type":"Feature","properties":{"label:cs":"Turecký pavilon ve Světlé nad Sázavou","P31":"http://www.wikidata.org/entity/Q961082","P31^label:cs":"Altán","P131^label:cs":"Světlá nad Sázavou","P6736":"39000"},"geometry":{"type":"Point","coordinates":[15.40656,49.66761]}},{"type":"Feature","properties":{"label:cs":"Socha rytíře vlevo od vchodu do Akademie ve Světlé nad Sázavou","P31":"http://www.wikidata.org/entity/Q179700","P31^label:cs":"Socha","P131^label:cs":"Světlá nad Sázavou","P6736":"38997"},"geometry":{"type":"Point","coordinates":[15.40297,49.66623]}},{"type":"Feature","properties":{"label:cs":"Socha rytíře vpravo od vchodu do Akademie ve Světlé nad Sázavou","P31":"http://www.wikidata.org/entity/Q179700","P31^label:cs":"Socha","P131^label:cs":"Světlá nad Sázavou","P6736":"38996"},"geometry":{"type":"Point","coordinates":[15.4029,49.66623]}},{"type":"Feature","properties":{"label:cs":"Kovová plastika u Akademie ve Světlé nad Sázavou","P31":"http://www.wikidata.org/entity/Q12045520","P31^label:cs":"Plastika","P131^label:cs":"Světlá nad Sázavou","P6736":"38995"},"geometry":{"type":"Point","coordinates":[15.4029,49.66644]}},{"type":"Feature","properties":{"label:cs":"Kříž u kostela ve Světlé nad Sázavou","P31":"http://www.wikidata.org/entity/Q2309609","P31^label:cs":"Pamětní kříž","P131^label:cs":"Světlá nad Sázavou","P6736":"38987"},"geometry":{"type":"Point","coordinates":[15.40484,49.66735]}},{"type":"Feature","properties":{"label:cs":"Pomník osvobození ve Světlé nad Sázavou","P31":"http://www.wikidata.org/entity/Q4989906","P31^label:cs":"Pomník","P131^label:cs":"Světlá nad Sázavou","P6736":"38986"},"geometry":{"type":"Point","coordinates":[15.40664,49.66644]}},{"type":"Feature","properties":{"label:cs":"Fontána v zámeckém parku ve Světlé nad Sázavou","P31":"http://www.wikidata.org/entity/Q12029081","P31^label:cs":"Kašna","P131^label:cs":"Světlá nad Sázavou","P6736":"38984"},"geometry":{"type":"Point","coordinates":[15.40776,49.66686]}},{"type":"Feature","properties":{"label:cs":"Fontána na nádvoří zámku ve Světlé nad Sázavou","P31":"http://www.wikidata.org/entity/Q12029081","P31^label:cs":"Kašna","P131^label:cs":"Světlá nad Sázavou","P6736":"38983"},"geometry":{"type":"Point","coordinates":[15.40755,49.66736]}},{"type":"Feature","properties":{"label:cs":"Pamětní deska Aloise Jelena ve Světlé nad Sázavou","P31":"http://www.wikidata.org/entity/Q721747","P31^label:cs":"Pamětní deska","P131^label:cs":"Světlá nad Sázavou","P6736":"38982"},"geometry":{"type":"Point","coordinates":[15.40495,49.66676]}},{"type":"Feature","properties":{"label:cs":"Kříž v Sázavské ulici ve Světlé nad Sázavou","P31":"http://www.wikidata.org/entity/Q2309609","P31^label:cs":"Pamětní kříž","P131^label:cs":"Světlá nad Sázavou","P6736":"38234"},"geometry":{"type":"Point","coordinates":[15.40344,49.66696]}},{"type":"Feature","properties":{"label:cs":"Socha Čerta v zámeckém parku ve Světlé nad Sázavou","P31":"http://www.wikidata.org/entity/Q179700","P31^label:cs":"Socha","P131^label:cs":"Světlá nad Sázavou","P6736":"38232"},"geometry":{"type":"Point","coordinates":[15.40965,49.66322]}},{"type":"Feature","properties":{"label:cs":"Socha Anděla v zámeckém parku ve Světlé nad Sázavou","P31":"http://www.wikidata.org/entity/Q179700","P31^label:cs":"Socha","P131^label:cs":"Světlá nad Sázavou","P6736":"38229"},"geometry":{"type":"Point","coordinates":[15.41057,49.66488]}},{"type":"Feature","properties":{"label:cs":"Plastika Pocta sklářům na zámeckém nádvoří ve Světlé nad Sázavou","P31":"http://www.wikidata.org/entity/Q12045520","P31^label:cs":"Plastika","P131^label:cs":"Světlá nad Sázavou","P6736":"38225"},"geometry":{"type":"Point","coordinates":[15.4076,49.66753]}},{"type":"Feature","properties":{"label:cs":"Socha dívky na zámeckém nádvoří ve Světlé nad Sázavou","P31":"http://www.wikidata.org/entity/Q179700","P31^label:cs":"Socha","P131^label:cs":"Světlá nad Sázavou","P6736":"38224"},"geometry":{"type":"Point","coordinates":[15.40729,49.66734]}},{"type":"Feature","properties":{"label:cs":"Památník Jiřího Wolkera a Antonína Benjamina Svojsíka ve Světlé nad Sázavou","P31":"http://www.wikidata.org/entity/Q5003624","P31^label:cs":"Památník","P131^label:cs":"Světlá nad Sázavou","P6736":"38222"},"geometry":{"type":"Point","coordinates":[15.40985,49.66203]}},{"type":"Feature","properties":{"label:cs":"Plastika Sklo a kámen ve Světlé nad Sázavou","P31":"http://www.wikidata.org/entity/Q12045520","P31^label:cs":"Plastika","P131^label:cs":"Světlá nad Sázavou","P6736":"38215"},"geometry":{"type":"Point","coordinates":[15.40425,49.66761]}},{"type":"Feature","properties":{"label:cs":"Socha svatého Jana Nepomuckého ve Světlé nad Sázavou","P31":"http://www.wikidata.org/entity/Q179700","P31^label:cs":"Socha","P131^label:cs":"Světlá nad Sázavou","P6736":"38214"},"geometry":{"type":"Point","coordinates":[15.40469,49.66747]}},{"type":"Feature","properties":{"label:cs":"Socha svatého Václava ve Světlé nad Sázavou","P31":"http://www.wikidata.org/entity/Q179700","P31^label:cs":"Socha","P131^label:cs":"Světlá nad Sázavou","P6736":"38213"},"geometry":{"type":"Point","coordinates":[15.40475,49.66733]}},{"type":"Feature","properties":{"label:cs":"Socha svaté Barbory ve Světlé nad Sázavou","P31":"http://www.wikidata.org/entity/Q179700","P31^label:cs":"Socha","P131^label:cs":"Světlá nad Sázavou","P6736":"38212"},"geometry":{"type":"Point","coordinates":[15.40464,49.66735]}},{"type":"Feature","properties":{"label:cs":"Socha svatého Floriána ve Světlé nad Sázavou","P31":"http://www.wikidata.org/entity/Q179700","P31^label:cs":"Socha","P131^label:cs":"Světlá nad Sázavou","P6736":"38211"},"geometry":{"type":"Point","coordinates":[15.40461,49.66739]}},{"type":"Feature","properties":{"label:cs":"Socha svatého Josefa s Ježíškem ve Světlé nad Sázavou","P31":"http://www.wikidata.org/entity/Q179700","P31^label:cs":"Socha","P131^label:cs":"Světlá nad Sázavou","P6736":"38210"},"geometry":{"type":"Point","coordinates":[15.40456,49.66745]}}]}