{"type":"FeatureCollection","features":[{"type":"Feature","properties":{"label:cs":"Kříž u silnice západně od Dubí","P31":"http://www.wikidata.org/entity/Q2309609","P31^label:cs":"Pamětní kříž","P131^label:cs":"Herálec","P6736":"37130"},"geometry":{"type":"Point","coordinates":[15.41561,49.53473]}},{"type":"Feature","properties":{"label:cs":"Kříž u cesty jižně od Dubí","P31":"http://www.wikidata.org/entity/Q2309609","P31^label:cs":"Pamětní kříž","P131^label:cs":"Herálec","P6736":"37129"},"geometry":{"type":"Point","coordinates":[15.41891,49.5312]}},{"type":"Feature","properties":{"label:cs":"Kříž u domu č. 8 v Dubí","P31":"http://www.wikidata.org/entity/Q2309609","P31^label:cs":"Pamětní kříž","P131^label:cs":"Herálec","P6736":"37128"},"geometry":{"type":"Point","coordinates":[15.4186,49.53335]}},{"type":"Feature","properties":{"label:cs":"Boží muka západně od Dubí nedaleko samoty U Šidláků","P31":"http://www.wikidata.org/entity/Q3395121","P31^label:cs":"Boží muka","P131^label:cs":"Herálec","P6736":"37126"},"geometry":{"type":"Point","coordinates":[15.40973,49.53654]}},{"type":"Feature","properties":{"label:cs":"Zvonice v Dubí","P31":"http://www.wikidata.org/entity/Q200334","P31^label:cs":"Zvonice","P131^label:cs":"Herálec","P6736":"18666"},"geometry":{"type":"Point","coordinates":[15.41863,49.53343]}},{"type":"Feature","properties":{"label:cs":"Kaple ve Zdislavicích","P31":"http://www.wikidata.org/entity/Q108325","P31^label:cs":"Kaple","P131^label:cs":"Herálec","P6736":"18669"},"geometry":{"type":"Point","coordinates":[15.42201,49.53905]}}]}