{"type":"FeatureCollection","features":[{"type":"Feature","properties":{"label:cs":"Plastika v areálu Akademie u Lipnice nad Sázavou","P31":"http://www.wikidata.org/entity/Q12045520","P31^label:cs":"Plastika","P131^label:cs":"Lipnice nad Sázavou","P6736":"38412"},"geometry":{"type":"Point","coordinates":[15.40473,49.6167]}},{"type":"Feature","properties":{"label:cs":"Socha v areálu Akademie u Lipnice nad Sázavou","P31":"http://www.wikidata.org/entity/Q179700","P31^label:cs":"Socha","P131^label:cs":"Lipnice nad Sázavou","P6736":"38411"},"geometry":{"type":"Point","coordinates":[15.40479,49.61676]}},{"type":"Feature","properties":{"label:cs":"Socha před areálem Akademie u Lipnice nad Sázavou","P31":"http://www.wikidata.org/entity/Q179700","P31^label:cs":"Socha","P131^label:cs":"Lipnice nad Sázavou","P6736":"38410"},"geometry":{"type":"Point","coordinates":[15.40451,49.61663]}},{"type":"Feature","properties":{"label:cs":"Dva podstavce u kostela svatého Víta v Lipnici nad Sázavou","P31":"http://www.wikidata.org/entity/?","P31^label:cs":"Neznámý","P131^label:cs":"Lipnice nad Sázavou","P6736":"38403"},"geometry":{"type":"Point","coordinates":[15.41216,49.61361]}},{"type":"Feature","properties":{"label:cs":"Plastika Ústa pravdy - Národní památník odposlechu u Lipnice nad Sázavou","P31":"http://www.wikidata.org/entity/Q12045520","P31^label:cs":"Plastika","P131^label:cs":"Lipnice nad Sázavou","P6736":"38375"},"geometry":{"type":"Point","coordinates":[15.40773,49.61937]}},{"type":"Feature","properties":{"label:cs":"Plastika Bretschneiderovo ucho - Národní památník odposlechu u Lipnice nad Sázavou","P31":"http://www.wikidata.org/entity/Q12045520","P31^label:cs":"Plastika","P131^label:cs":"Lipnice nad Sázavou","P6736":"38374"},"geometry":{"type":"Point","coordinates":[15.40688,49.61839]}},{"type":"Feature","properties":{"label:cs":"Pomník založení Sokola v Lipnici nad Sázavou","P31":"http://www.wikidata.org/entity/Q4989906","P31^label:cs":"Pomník","P131^label:cs":"Lipnice nad Sázavou","P6736":"38372"},"geometry":{"type":"Point","coordinates":[15.4122,49.61504]}},{"type":"Feature","properties":{"label:cs":"Dřevěná plastika v amfiteátru v Lipnici nad Sázavou","P31":"http://www.wikidata.org/entity/Q12045520","P31^label:cs":"Plastika","P131^label:cs":"Lipnice nad Sázavou","P6736":"38371"},"geometry":{"type":"Point","coordinates":[15.41194,49.61445]}},{"type":"Feature","properties":{"label:cs":"Dřevěné plastiky pod skalou v amfitátru v Lipnici nad Sázavou","P31":"http://www.wikidata.org/entity/Q12045520","P31^label:cs":"Plastika","P131^label:cs":"Lipnice nad Sázavou","P6736":"38370"},"geometry":{"type":"Point","coordinates":[15.41169,49.61435]}},{"type":"Feature","properties":{"label:cs":"Dřevěná plastika před amfitátrem v Lipnici nad Sázavou","P31":"http://www.wikidata.org/entity/Q12045520","P31^label:cs":"Plastika","P131^label:cs":"Lipnice nad Sázavou","P6736":"38369"},"geometry":{"type":"Point","coordinates":[15.41139,49.61423]}},{"type":"Feature","properties":{"label:cs":"Plastika Kamenná jednohubka v Lipnici nad Sázavou","P31":"http://www.wikidata.org/entity/Q12045520","P31^label:cs":"Plastika","P131^label:cs":"Lipnice nad Sázavou","P6736":"38368"},"geometry":{"type":"Point","coordinates":[15.41125,49.61364]}},{"type":"Feature","properties":{"label:cs":"Pamětní deska Jaroslava Haška na hostinci U České koruny v Lipnici nad Sázavou","P31":"http://www.wikidata.org/entity/Q721747","P31^label:cs":"Pamětní deska","P131^label:cs":"Lipnice nad Sázavou","P6736":"38367"},"geometry":{"type":"Point","coordinates":[15.41367,49.61274]}},{"type":"Feature","properties":{"label:cs":"Kříž pod schody ke kostelu v Lipnici nad Sázavou","P31":"http://www.wikidata.org/entity/Q2309609","P31^label:cs":"Pamětní kříž","P131^label:cs":"Lipnice nad Sázavou","P6736":"38366"},"geometry":{"type":"Point","coordinates":[15.41212,49.61344]}},{"type":"Feature","properties":{"label:cs":"Barokní zvonice v Lipnici nad Sázavou","P31":"http://www.wikidata.org/entity/Q200334","P31^label:cs":"Zvonice","P131^label:cs":"Lipnice nad Sázavou","P6736":"38365"},"geometry":{"type":"Point","coordinates":[15.41193,49.61428]}},{"type":"Feature","properties":{"label:cs":"Kaple svatého Antonína v Lipnici nad Sázavou","P31":"http://www.wikidata.org/entity/Q108325","P31^label:cs":"Kaple","P131^label:cs":"Lipnice nad Sázavou","P6736":"38364"},"geometry":{"type":"Point","coordinates":[15.4129,49.6113]}},{"type":"Feature","properties":{"label:cs":"Pomník obětem 2. světové války v Lipnici nad Sázavou","P31":"http://www.wikidata.org/entity/Q4989906","P31^label:cs":"Pomník","P131^label:cs":"Lipnice nad Sázavou","P6736":"38363"},"geometry":{"type":"Point","coordinates":[15.41249,49.612]}},{"type":"Feature","properties":{"label:cs":"Pomník padlým v Květnovém povstání v Lipnici nad Sázavou","P31":"http://www.wikidata.org/entity/Q575759","P31^label:cs":"Pomník padlým","P131^label:cs":"Lipnice nad Sázavou","P6736":"38362"},"geometry":{"type":"Point","coordinates":[15.4127,49.61196]}},{"type":"Feature","properties":{"label:cs":"Pomník padlým v Lipnici nad Sázavou","P31":"http://www.wikidata.org/entity/Q575759","P31^label:cs":"Pomník padlým","P131^label:cs":"Lipnice nad Sázavou","P6736":"38361"},"geometry":{"type":"Point","coordinates":[15.41252,49.61203]}},{"type":"Feature","properties":{"label:cs":"Socha svatého Floriána v Lipnici nad Sázavou","P31":"http://www.wikidata.org/entity/Q179700","P31^label:cs":"Socha","P131^label:cs":"Lipnice nad Sázavou","P6736":"38360"},"geometry":{"type":"Point","coordinates":[15.41132,49.61255]}},{"type":"Feature","properties":{"label:cs":"Socha Panny Marie v Lipnici nad Sázavou","P31":"http://www.wikidata.org/entity/Q179700","P31^label:cs":"Socha","P131^label:cs":"Lipnice nad Sázavou","P6736":"38359"},"geometry":{"type":"Point","coordinates":[15.41324,49.61298]}},{"type":"Feature","properties":{"label:cs":"Socha svatého Jana Nepomuckého v Lipnici nad Sázavou","P31":"http://www.wikidata.org/entity/Q179700","P31^label:cs":"Socha","P131^label:cs":"Lipnice nad Sázavou","P6736":"19485"},"geometry":{"type":"Point","coordinates":[15.41254,49.61318]}},{"type":"Feature","properties":{"label:cs":"Památník Jaroslava Haška pod hradem Lipnice","P31":"http://www.wikidata.org/entity/Q5003624","P31^label:cs":"Památník","P131^label:cs":"Lipnice nad Sázavou","P6736":"19484"},"geometry":{"type":"Point","coordinates":[15.41409,49.61324]}},{"type":"Feature","properties":{"label:cs":"Kříž u hřbitova v Lipnici nad Sázavou","P31":"http://www.wikidata.org/entity/Q2309609","P31^label:cs":"Pamětní kříž","P131^label:cs":"Lipnice nad Sázavou","P6736":"19483"},"geometry":{"type":"Point","coordinates":[15.4047,49.61139]}},{"type":"Feature","properties":{"label:cs":"Socha Jaroslava Haška jižně od náměstí v Lipnici nad Sázavou","P31":"http://www.wikidata.org/entity/Q179700","P31^label:cs":"Socha","P131^label:cs":"Lipnice nad Sázavou","P6736":"17113"},"geometry":{"type":"Point","coordinates":[15.41326,49.61226]}},{"type":"Feature","properties":{"label:cs":"Pomník mistra Jana Husa ve středu Lipnice nad Sázavou","P31":"http://www.wikidata.org/entity/Q4989906","P31^label:cs":"Pomník","P131^label:cs":"Lipnice nad Sázavou","P6736":"17112"},"geometry":{"type":"Point","coordinates":[15.41369,49.61292]}}]}