{"type":"FeatureCollection","features":[{"type":"Feature","properties":{"label:cs":"Kříž na severním okraji Spělova","P31":"http://www.wikidata.org/entity/Q2309609","P31^label:cs":"Pamětní kříž","P131^label:cs":"Dolní Cerekev","P6736":"33823"},"geometry":{"type":"Point","coordinates":[15.44478,49.33472]}},{"type":"Feature","properties":{"label:cs":"Kříž na jižním okraji Spělova","P31":"http://www.wikidata.org/entity/Q2309609","P31^label:cs":"Pamětní kříž","P131^label:cs":"Dolní Cerekev","P6736":"33824"},"geometry":{"type":"Point","coordinates":[15.44208,49.33109]}},{"type":"Feature","properties":{"label:cs":"Kříž v centru Spělova","P31":"http://www.wikidata.org/entity/Q2309609","P31^label:cs":"Pamětní kříž","P131^label:cs":"Dolní Cerekev","P6736":"33825"},"geometry":{"type":"Point","coordinates":[15.44406,49.33295]}},{"type":"Feature","properties":{"label:cs":"Kaple ve Spělově","P31":"http://www.wikidata.org/entity/Q108325","P31^label:cs":"Kaple","P131^label:cs":"Dolní Cerekev","P6736":"33826"},"geometry":{"type":"Point","coordinates":[15.44411,49.33304]}},{"type":"Feature","properties":{"label:cs":"Pamětní deska obětem 1. světové války ve Spělově","P31":"http://www.wikidata.org/entity/Q721747","P31^label:cs":"Pamětní deska","P131^label:cs":"Dolní Cerekev","P6736":"33827"},"geometry":{"type":"Point","coordinates":[15.44406,49.33294]}},{"type":"Feature","properties":{"label:cs":"Boží muka jihozápadně od Spělova","P31":"http://www.wikidata.org/entity/Q3395121","P31^label:cs":"Boží muka","P131^label:cs":"Dolní Cerekev","P6736":"33828"},"geometry":{"type":"Point","coordinates":[15.43884,49.32991]}}]}