{"type":"FeatureCollection","features":[{"type":"Feature","properties":{"label:cs":"Výklenková kaplička mezi Boňkovem a Věží","P31":"http://www.wikidata.org/entity/Q14552192","P31^label:cs":"Kaplička","P131^label:cs":"Boňkov","P6736":"37142"},"geometry":{"type":"Point","coordinates":[15.44308,49.55207]}},{"type":"Feature","properties":{"label:cs":"Kříž u cesty západně od Boňkova","P31":"http://www.wikidata.org/entity/Q2309609","P31^label:cs":"Pamětní kříž","P131^label:cs":"Boňkov","P6736":"37140"},"geometry":{"type":"Point","coordinates":[15.43998,49.54819]}},{"type":"Feature","properties":{"label:cs":"Kříž u studánky Panny Marie u Skály","P31":"http://www.wikidata.org/entity/Q2309609","P31^label:cs":"Pamětní kříž","P131^label:cs":"Boňkov","P6736":"37139"},"geometry":{"type":"Point","coordinates":[15.43505,49.55309]}},{"type":"Feature","properties":{"label:cs":"Obrázek u studánky Panny Marie u Skály","P31":"http://www.wikidata.org/entity/Q478798","P31^label:cs":"Obrázek","P131^label:cs":"Boňkov","P6736":"37138"},"geometry":{"type":"Point","coordinates":[15.43525,49.55313]}},{"type":"Feature","properties":{"label:cs":"Centrální kříž na hřbitově ve Věži","P31":"http://www.wikidata.org/entity/Q2309609","P31^label:cs":"Pamětní kříž","P131^label:cs":"Věž","P6736":"37137"},"geometry":{"type":"Point","coordinates":[15.43595,49.55204]}},{"type":"Feature","properties":{"label:cs":"Památník založení Československa u silnice mezi Rozkoší a Skálou","P31":"http://www.wikidata.org/entity/Q5003624","P31^label:cs":"Památník","P131^label:cs":"Herálec","P6736":"37136"},"geometry":{"type":"Point","coordinates":[15.42961,49.55348]}}]}