{"type":"FeatureCollection","features":[{"type":"Feature","properties":{"label:cs":"Kříž při polní cestě mezi Kalhovem a Branišovem","P31":"http://www.wikidata.org/entity/Q2309609","P31^label:cs":"Pamětní kříž","P131^label:cs":"Kalhov","P6736":"27301"},"geometry":{"type":"Point","coordinates":[15.44286,49.47459]}},{"type":"Feature","properties":{"label:cs":"Kříž na západním okraji Kalhova","P31":"http://www.wikidata.org/entity/Q2309609","P31^label:cs":"Pamětní kříž","P131^label:cs":"Kalhov","P6736":"27263"},"geometry":{"type":"Point","coordinates":[15.43684,49.48072]}},{"type":"Feature","properties":{"label:cs":"Kaple v Kalhově","P31":"http://www.wikidata.org/entity/Q108325","P31^label:cs":"Kaple","P131^label:cs":"Kalhov","P6736":"27262"},"geometry":{"type":"Point","coordinates":[15.44177,49.48085]}},{"type":"Feature","properties":{"label:cs":"Kříž na návsi v Kalhově","P31":"http://www.wikidata.org/entity/Q2309609","P31^label:cs":"Pamětní kříž","P131^label:cs":"Kalhov","P6736":"27261"},"geometry":{"type":"Point","coordinates":[15.44146,49.48099]}},{"type":"Feature","properties":{"label:cs":"Pomník obětem 1. světové války v Kalhově","P31":"http://www.wikidata.org/entity/Q575759","P31^label:cs":"Pomník padlým","P131^label:cs":"Kalhov","P6736":"27260"},"geometry":{"type":"Point","coordinates":[15.44168,49.48089]}},{"type":"Feature","properties":{"label:cs":"Pomník gardového seržanta B. V. Budnikova v Kalhově","P31":"http://www.wikidata.org/entity/Q4989906","P31^label:cs":"Pomník","P131^label:cs":"","P6736":"27259"},"geometry":{"type":"Point","coordinates":[15.44447,49.47833]}},{"type":"Feature","properties":{"label:cs":"Kříž na východním okraji Kalhova","P31":"http://www.wikidata.org/entity/Q2309609","P31^label:cs":"Pamětní kříž","P131^label:cs":"Kalhov","P6736":"27258"},"geometry":{"type":"Point","coordinates":[15.44612,49.47834]}},{"type":"Feature","properties":{"label:cs":"Křížový kámen v Kalhově","P31":"http://www.wikidata.org/entity/Q38411643","P31^label:cs":"Křížový kámen","P131^label:cs":"Kalhov","P6736":"27257"},"geometry":{"type":"Point","coordinates":[15.44641,49.47829]}}]}