{"type":"FeatureCollection","features":[{"type":"Feature","properties":{"label:cs":"Křížový kámen v Boršově","P31":"http://www.wikidata.org/entity/Q38411643","P31^label:cs":"Křížový kámen","P131^label:cs":"Boršov","P6736":"16143"},"geometry":{"type":"Point","coordinates":[15.43476,49.40405]}},{"type":"Feature","properties":{"label:cs":"Kříž v Boršově","P31":"http://www.wikidata.org/entity/Q2309609","P31^label:cs":"Pamětní kříž","P131^label:cs":"Boršov","P6736":"32128"},"geometry":{"type":"Point","coordinates":[15.43469,49.40418]}},{"type":"Feature","properties":{"label:cs":"Kříž u Boršovského mlýna","P31":"http://www.wikidata.org/entity/Q2309609","P31^label:cs":"Pamětní kříž","P131^label:cs":"Boršov","P6736":"32129"},"geometry":{"type":"Point","coordinates":[15.44256,49.40309]}},{"type":"Feature","properties":{"label:cs":"Kříž u Dušejova","P31":"http://www.wikidata.org/entity/Q2309609","P31^label:cs":"Pamětní kříž","P131^label:cs":"Dušejov","P6736":"12100"},"geometry":{"type":"Point","coordinates":[15.43976,49.40977]}},{"type":"Feature","properties":{"label:cs":"Kříž u hlavní křižovatky na okraji Dušejova","P31":"http://www.wikidata.org/entity/Q2309609","P31^label:cs":"Pamětní kříž","P131^label:cs":"Dušejov","P6736":"19506"},"geometry":{"type":"Point","coordinates":[15.43795,49.41054]}},{"type":"Feature","properties":{"label:cs":"Kříž před kostelem svatého Bartoloměje v Dušejově","P31":"http://www.wikidata.org/entity/Q2309609","P31^label:cs":"Pamětní kříž","P131^label:cs":"Dušejov","P6736":"19507"},"geometry":{"type":"Point","coordinates":[15.43367,49.41024]}},{"type":"Feature","properties":{"label:cs":"Kříž u hřiště v Dušejově","P31":"http://www.wikidata.org/entity/Q2309609","P31^label:cs":"Pamětní kříž","P131^label:cs":"Dušejov","P6736":"32121"},"geometry":{"type":"Point","coordinates":[15.43175,49.40883]}},{"type":"Feature","properties":{"label:cs":"Pomník padlým v Dušejově","P31":"http://www.wikidata.org/entity/Q575759","P31^label:cs":"Pomník padlým","P131^label:cs":"Dušejov","P6736":"32126"},"geometry":{"type":"Point","coordinates":[15.43123,49.40911]}},{"type":"Feature","properties":{"label:cs":"Pamětní deska Sokola v Dušejově","P31":"http://www.wikidata.org/entity/Q721747","P31^label:cs":"Pamětní deska","P131^label:cs":"Dušejov","P6736":"32127"},"geometry":{"type":"Point","coordinates":[15.43123,49.40911]}},{"type":"Feature","properties":{"label:cs":"Kašparův kříž východně od Dušejova","P31":"http://www.wikidata.org/entity/Q2309609","P31^label:cs":"Pamětní kříž","P131^label:cs":"Ježená","P6736":"11657"},"geometry":{"type":"Point","coordinates":[15.44657,49.40855]}}]}