{"type":"FeatureCollection","features":[{"type":"Feature","properties":{"label:cs":"Kříž před kostelem sv. Bartoloměje v Dušejově","P31":"Pamětní kříž","P31^label:cs":"Pamětní kříž","P131^label:cs":"Dušejov","P6736":"19507"},"geometry":{"type":"Point","coordinates":[15.43367,49.41024]}},{"type":"Feature","properties":{"label:cs":"Kříž u hlavní křižovatky na okraji Dušejova","P31":"Pamětní kříž","P31^label:cs":"Pamětní kříž","P131^label:cs":"Dušejov","P6736":"19506"},"geometry":{"type":"Point","coordinates":[15.43795,49.41054]}},{"type":"Feature","properties":{"label:cs":"Křížový kámen v Boršově","P31":"Křížový kámen","P31^label:cs":"Křížový kámen","P131^label:cs":"Boršov","P6736":"16143"},"geometry":{"type":"Point","coordinates":[15.43476,49.40405]}},{"type":"Feature","properties":{"label:cs":"Kříž u Dušejova","P31":"Pamětní kříž","P31^label:cs":"Pamětní kříž","P131^label:cs":"Dušejov","P6736":"12100"},"geometry":{"type":"Point","coordinates":[15.43976,49.40977]}},{"type":"Feature","properties":{"label:cs":"Kašparův kříž","P31":"Pamětní kříž","P31^label:cs":"Pamětní kříž","P131^label:cs":"Ježená","P6736":"11657"},"geometry":{"type":"Point","coordinates":[15.44657,49.40855]}}]}