{"type":"FeatureCollection","features":[{"type":"Feature","properties":{"label:cs":"Pomník Obětem 1. světové války","P31":"http://www.wikidata.org/entity/Q575759","P31^label:cs":"Pomník padlým","P131^label:cs":"Věž","P6736":"18682"},"geometry":{"type":"Point","coordinates":[15.45847,49.56381]}},{"type":"Feature","properties":{"label:cs":"Pomník padlým rumunským vojákům ve Věži","P31":"http://www.wikidata.org/entity/Q575759","P31^label:cs":"Pomník padlým","P131^label:cs":"Věž","P6736":"18681"},"geometry":{"type":"Point","coordinates":[15.45808,49.56328]}},{"type":"Feature","properties":{"label:cs":"Kříž u autobusové zastávky ve Věži","P31":"http://www.wikidata.org/entity/Q2309609","P31^label:cs":"Pamětní kříž","P131^label:cs":"Věž","P6736":"18680"},"geometry":{"type":"Point","coordinates":[15.45844,49.56358]}},{"type":"Feature","properties":{"label:cs":"Kaple Krista Krále ve Věži","P31":"http://www.wikidata.org/entity/Q108325","P31^label:cs":"Kaple","P131^label:cs":"Věž","P6736":"18679"},"geometry":{"type":"Point","coordinates":[15.46199,49.56191]}},{"type":"Feature","properties":{"label:cs":"Kaple sv. Jana Nepomuckého ve Věži","P31":"http://www.wikidata.org/entity/Q108325","P31^label:cs":"Kaple","P131^label:cs":"Věž","P6736":"18678"},"geometry":{"type":"Point","coordinates":[15.45866,49.56285]}}]}