{"type":"FeatureCollection","features":[{"type":"Feature","properties":{"label:cs":"Pomník padlým v 1.světové válce ve Svojku","P31":"http://www.wikidata.org/entity/Q575759","P31^label:cs":"Pomník padlým","P131^label:cs":"Svojek","P6736":"27338"},"geometry":{"type":"Point","coordinates":[15.45277,50.55481]}},{"type":"Feature","properties":{"label:cs":"Kříž ve Svojku","P31":"http://www.wikidata.org/entity/Q2309609","P31^label:cs":"Pamětní kříž","P131^label:cs":"Svojek","P6736":"27337"},"geometry":{"type":"Point","coordinates":[15.45508,50.55383]}},{"type":"Feature","properties":{"label:cs":"Socha svatého Václava u obecního úřadu ve Svojku","P31":"http://www.wikidata.org/entity/Q179700","P31^label:cs":"Socha","P131^label:cs":"Svojek","P6736":"27336"},"geometry":{"type":"Point","coordinates":[15.45592,50.55322]}},{"type":"Feature","properties":{"label:cs":"Pomník padlým v květnu 1945 u železniční zastávky v osadě Tample","P31":"http://www.wikidata.org/entity/Q575759","P31^label:cs":"Pomník padlým","P131^label:cs":"Svojek","P6736":"27335"},"geometry":{"type":"Point","coordinates":[15.46479,50.54516]}},{"type":"Feature","properties":{"label:cs":"Socha svatého Antonína v osadě Tample","P31":"http://www.wikidata.org/entity/Q179700","P31^label:cs":"Socha","P131^label:cs":"Svojek","P6736":"27329"},"geometry":{"type":"Point","coordinates":[15.46735,50.54729]}},{"type":"Feature","properties":{"label:cs":"Sousoší Kalvárie v osadě Tample","P31":"http://www.wikidata.org/entity/Q179700","P31^label:cs":"Socha","P131^label:cs":"Svojek","P6736":"27327"},"geometry":{"type":"Point","coordinates":[15.46686,50.54683]}}]}