{"type":"FeatureCollection","features":[{"type":"Feature","properties":{"label:cs":"Kříž v Nádražní ulici v Třešti","P31":"http://www.wikidata.org/entity/Q2309609","P31^label:cs":"Pamětní kříž","P131^label:cs":"Třešť","P6736":"18455"},"geometry":{"type":"Point","coordinates":[15.479,49.29587]}},{"type":"Feature","properties":{"label:cs":"Socha bohyně Eset na náměstí Svobody v Třešti","P31":"http://www.wikidata.org/entity/Q179700","P31^label:cs":"Socha","P131^label:cs":"Třešť","P6736":"18945"},"geometry":{"type":"Point","coordinates":[15.4819,49.29314]}},{"type":"Feature","properties":{"label:cs":"Dřevěná socha Pan Tau v Třešti","P31":"http://www.wikidata.org/entity/Q179700","P31^label:cs":"Socha","P131^label:cs":"Třešť","P6736":"19552"},"geometry":{"type":"Point","coordinates":[15.48315,49.29214]}},{"type":"Feature","properties":{"label:cs":"Kříž za kostelem svaté Kateřiny Sienské v Třešti","P31":"http://www.wikidata.org/entity/Q2309609","P31^label:cs":"Pamětní kříž","P131^label:cs":"Třešť","P6736":"21940"},"geometry":{"type":"Point","coordinates":[15.48288,49.29255]}},{"type":"Feature","properties":{"label:cs":"Památník Šimona Partlice v Třešti","P31":"http://www.wikidata.org/entity/Q5003624","P31^label:cs":"Památník","P131^label:cs":"Třešť","P6736":"21941"},"geometry":{"type":"Point","coordinates":[15.48461,49.2927]}},{"type":"Feature","properties":{"label:cs":"Pomník Obětem 1. světové války v Třešti","P31":"http://www.wikidata.org/entity/Q575759","P31^label:cs":"Pomník padlým","P131^label:cs":"Třešť","P6736":"21942"},"geometry":{"type":"Point","coordinates":[15.4848,49.29276]}},{"type":"Feature","properties":{"label:cs":"Socha Panny Marie Immaculaty u mostu v Třešti","P31":"http://www.wikidata.org/entity/Q179700","P31^label:cs":"Socha","P131^label:cs":"Třešť","P6736":"21943"},"geometry":{"type":"Point","coordinates":[15.4852,49.29316]}},{"type":"Feature","properties":{"label:cs":"Socha svatého Jana Nepomuckého u mostu v Třešti","P31":"http://www.wikidata.org/entity/Q179700","P31^label:cs":"Socha","P131^label:cs":"Třešť","P6736":"21944"},"geometry":{"type":"Point","coordinates":[15.48529,49.29306]}},{"type":"Feature","properties":{"label:cs":"Pomník Obětem 2. světové války v Třešti","P31":"http://www.wikidata.org/entity/Q575759","P31^label:cs":"Pomník padlým","P131^label:cs":"Třešť","P6736":"21945"},"geometry":{"type":"Point","coordinates":[15.48576,49.29357]}},{"type":"Feature","properties":{"label:cs":"Kříž u mostu v Třešti","P31":"http://www.wikidata.org/entity/Q2309609","P31^label:cs":"Pamětní kříž","P131^label:cs":"Třešť","P6736":"21948"},"geometry":{"type":"Point","coordinates":[15.48556,49.29317]}},{"type":"Feature","properties":{"label:cs":"Boží muka ve Fritzově ulici v Třešti","P31":"http://www.wikidata.org/entity/Q3395121","P31^label:cs":"Boží muka","P131^label:cs":"Třešť","P6736":"21949"},"geometry":{"type":"Point","coordinates":[15.48623,49.29341]}},{"type":"Feature","properties":{"label:cs":"Kaplička se sochou svatého Jana Nepomuckého před kostelem svatého Martina","P31":"http://www.wikidata.org/entity/Q14552192","P31^label:cs":"Kaplička","P131^label:cs":"Třešť","P6736":"21950"},"geometry":{"type":"Point","coordinates":[15.48691,49.29345]}},{"type":"Feature","properties":{"label:cs":"Boží muka vedle kostela svatého Martina v Třešti","P31":"http://www.wikidata.org/entity/Q3395121","P31^label:cs":"Boží muka","P131^label:cs":"Třešť","P6736":"21951"},"geometry":{"type":"Point","coordinates":[15.48739,49.29349]}},{"type":"Feature","properties":{"label:cs":"Boží muka v Havlíčkově ulici v Třešti","P31":"http://www.wikidata.org/entity/Q3395121","P31^label:cs":"Boží muka","P131^label:cs":"Třešť","P6736":"22751"},"geometry":{"type":"Point","coordinates":[15.47349,49.29603]}},{"type":"Feature","properties":{"label:cs":"Sloup s obrazem Panny Marie u hřbitova v Třešti","P31":"http://www.wikidata.org/entity/Q4817","P31^label:cs":"Sloup","P131^label:cs":"Třešť","P6736":"26250"},"geometry":{"type":"Point","coordinates":[15.48941,49.29245]}},{"type":"Feature","properties":{"label:cs":"Kříž u kostela svatého Martina v Třešti","P31":"http://www.wikidata.org/entity/Q2309609","P31^label:cs":"Pamětní kříž","P131^label:cs":"Třešť","P6736":"26251"},"geometry":{"type":"Point","coordinates":[15.48772,49.29353]}},{"type":"Feature","properties":{"label:cs":"Kříž na křížové cestě v Třešti - 1. Zastavení","P31":"http://www.wikidata.org/entity/Q2309609","P31^label:cs":"Pamětní kříž","P131^label:cs":"Třešť","P6736":"26254"},"geometry":{"type":"Point","coordinates":[15.48956,49.29298]}},{"type":"Feature","properties":{"label:cs":"Kříž na křížové cestě v Třešti - 2. Zastavení","P31":"http://www.wikidata.org/entity/Q2309609","P31^label:cs":"Pamětní kříž","P131^label:cs":"Třešť","P6736":"26255"},"geometry":{"type":"Point","coordinates":[15.48939,49.29215]}},{"type":"Feature","properties":{"label:cs":"Kříž na křížové cestě v Třešti - 3. Zastavení","P31":"http://www.wikidata.org/entity/Q2309609","P31^label:cs":"Pamětní kříž","P131^label:cs":"Třešť","P6736":"26256"},"geometry":{"type":"Point","coordinates":[15.48942,49.292]}},{"type":"Feature","properties":{"label:cs":"Kříž na křížové cestě v Třešti - 4. Zastavení","P31":"http://www.wikidata.org/entity/Q2309609","P31^label:cs":"Pamětní kříž","P131^label:cs":"Třešť","P6736":"26257"},"geometry":{"type":"Point","coordinates":[15.48957,49.29177]}},{"type":"Feature","properties":{"label:cs":"Kříž na křížové cestě v Třešti - 5. Zastavení","P31":"http://www.wikidata.org/entity/Q2309609","P31^label:cs":"Pamětní kříž","P131^label:cs":"Třešť","P6736":"26258"},"geometry":{"type":"Point","coordinates":[15.48979,49.29144]}},{"type":"Feature","properties":{"label:cs":"Kříž na křížové cestě v Třešti - 6. Zastavení","P31":"http://www.wikidata.org/entity/Q2309609","P31^label:cs":"Pamětní kříž","P131^label:cs":"Třešť","P6736":"26259"},"geometry":{"type":"Point","coordinates":[15.49001,49.29118]}},{"type":"Feature","properties":{"label:cs":"Kříž na křížové cestě v Třešti - 7. Zastavení","P31":"http://www.wikidata.org/entity/Q2309609","P31^label:cs":"Pamětní kříž","P131^label:cs":"Třešť","P6736":"26260"},"geometry":{"type":"Point","coordinates":[15.49052,49.29077]}},{"type":"Feature","properties":{"label:cs":"Reliéf svatého Judy Tadeáše na průčelí kaplanky v Třešti","P31":"http://www.wikidata.org/entity/Q245117","P31^label:cs":"Reliéf","P131^label:cs":"Třešť","P6736":"26293"},"geometry":{"type":"Point","coordinates":[15.48667,49.29337]}},{"type":"Feature","properties":{"label:cs":"Hřbitovní kaple v Třešti","P31":"http://www.wikidata.org/entity/Q108325","P31^label:cs":"Kaple","P131^label:cs":"Třešť","P6736":"26294"},"geometry":{"type":"Point","coordinates":[15.48881,49.29151]}},{"type":"Feature","properties":{"label:cs":"Plastika Pozdrav z Třeště","P31":"http://www.wikidata.org/entity/Q12045520","P31^label:cs":"Plastika","P131^label:cs":"Třešť","P6736":"26297"},"geometry":{"type":"Point","coordinates":[15.48914,49.29176]}},{"type":"Feature","properties":{"label:cs":"Kříž v Čenkovské ulici v Třešti","P31":"http://www.wikidata.org/entity/Q2309609","P31^label:cs":"Pamětní kříž","P131^label:cs":"Třešť","P6736":"27158"},"geometry":{"type":"Point","coordinates":[15.47688,49.28837]}},{"type":"Feature","properties":{"label:cs":"Pamětni deska Franze Kafky v Třešti","P31":"http://www.wikidata.org/entity/Q721747","P31^label:cs":"Pamětní deska","P131^label:cs":"Třešť","P6736":"33873"},"geometry":{"type":"Point","coordinates":[15.48348,49.29281]}},{"type":"Feature","properties":{"label:cs":"Kašna před zámkem v Třešti","P31":"http://www.wikidata.org/entity/Q12029081","P31^label:cs":"Kašna","P131^label:cs":"Třešť","P6736":"33874"},"geometry":{"type":"Point","coordinates":[15.48685,49.29463]}},{"type":"Feature","properties":{"label:cs":"Sochy na portálu zámku v Třešti","P31":"http://www.wikidata.org/entity/Q179700","P31^label:cs":"Socha","P131^label:cs":"Třešť","P6736":"33875"},"geometry":{"type":"Point","coordinates":[15.48712,49.29464]}},{"type":"Feature","properties":{"label:cs":"Socha vojáka vpravo na bráně zámku v Třešti","P31":"http://www.wikidata.org/entity/Q179700","P31^label:cs":"Socha","P131^label:cs":"Třešť","P6736":"33876"},"geometry":{"type":"Point","coordinates":[15.4865,49.29489]}},{"type":"Feature","properties":{"label:cs":"Socha vojáka vlevo na bráně zámku v Třešti","P31":"http://www.wikidata.org/entity/Q179700","P31^label:cs":"Socha","P131^label:cs":"Třešť","P6736":"33877"},"geometry":{"type":"Point","coordinates":[15.48648,49.29497]}},{"type":"Feature","properties":{"label:cs":"Plastika Brána do vesmíru v zámeckém parku v Třešti","P31":"http://www.wikidata.org/entity/Q12045520","P31^label:cs":"Plastika","P131^label:cs":"Třešť","P6736":"33878"},"geometry":{"type":"Point","coordinates":[15.48783,49.29521]}},{"type":"Feature","properties":{"label:cs":"Třešťský betlém v Třešti","P31":"http://www.wikidata.org/entity/Q179700","P31^label:cs":"Socha","P131^label:cs":"Třešť","P6736":"33879"},"geometry":{"type":"Point","coordinates":[15.48539,49.29291]}},{"type":"Feature","properties":{"label:cs":"Kříž v ulici V Kaštanech v Třešti","P31":"http://www.wikidata.org/entity/Q2309609","P31^label:cs":"Pamětní kříž","P131^label:cs":"Třešť","P6736":"33880"},"geometry":{"type":"Point","coordinates":[15.48541,49.2959]}},{"type":"Feature","properties":{"label:cs":"Kříž na farním dvoře v Třešti","P31":"http://www.wikidata.org/entity/Q2309609","P31^label:cs":"Pamětní kříž","P131^label:cs":"Třešť","P6736":"33882"},"geometry":{"type":"Point","coordinates":[15.48669,49.29352]}},{"type":"Feature","properties":{"label:cs":"Kříž před kostelem svaté Kateřiny Sienské v Třešti","P31":"http://www.wikidata.org/entity/Q2309609","P31^label:cs":"Pamětní kříž","P131^label:cs":"Třešť","P6736":"33883"},"geometry":{"type":"Point","coordinates":[15.48333,49.29237]}},{"type":"Feature","properties":{"label:cs":"Boží muka před kostelem svaté Kateřiny Sienské v Třešti","P31":"http://www.wikidata.org/entity/Q3395121","P31^label:cs":"Boží muka","P131^label:cs":"Třešť","P6736":"33884"},"geometry":{"type":"Point","coordinates":[15.48325,49.29237]}},{"type":"Feature","properties":{"label:cs":"Pamětní deska Jiřího Johna v Třešti","P31":"http://www.wikidata.org/entity/Q721747","P31^label:cs":"Pamětní deska","P131^label:cs":"Třešť","P6736":"33885"},"geometry":{"type":"Point","coordinates":[15.4834,49.29071]}},{"type":"Feature","properties":{"label:cs":"Sluneční hodiny na náměstí T. G. Masaryka v Třešti","P31":"http://www.wikidata.org/entity/Q376","P31^label:cs":"Hodiny","P131^label:cs":"Třešť","P6736":"33886"},"geometry":{"type":"Point","coordinates":[15.48296,49.29134]}},{"type":"Feature","properties":{"label:cs":"Pamětní deska obětem 2. světové války v Třešti","P31":"http://www.wikidata.org/entity/Q721747","P31^label:cs":"Pamětní deska","P131^label:cs":"Třešť","P6736":"33891"},"geometry":{"type":"Point","coordinates":[15.48343,49.29026]}},{"type":"Feature","properties":{"label:cs":"Plastika před obchodním domem v Třešti","P31":"http://www.wikidata.org/entity/Q12045520","P31^label:cs":"Plastika","P131^label:cs":"Třešť","P6736":"33892"},"geometry":{"type":"Point","coordinates":[15.4831,49.29029]}}]}