{"type":"FeatureCollection","features":[{"type":"Feature","properties":{"label:cs":"Kříž u silnice východně od Ježené","P31":"http://www.wikidata.org/entity/Q2309609","P31^label:cs":"Pamětní kříž","P131^label:cs":"Ježená","P6736":"11505"},"geometry":{"type":"Point","coordinates":[15.4727,49.41869]}},{"type":"Feature","properties":{"label:cs":"Křížový kámen u silnice do Jiřína","P31":"http://www.wikidata.org/entity/Q38411643","P31^label:cs":"Křížový kámen","P131^label:cs":"Vyskytná nad Jihlavou","P6736":"16038"},"geometry":{"type":"Point","coordinates":[15.47836,49.42366]}},{"type":"Feature","properties":{"label:cs":"Kříž na kraji lesa Prátenpuš","P31":"http://www.wikidata.org/entity/Q2309609","P31^label:cs":"Pamětní kříž","P131^label:cs":"Vyskytná nad Jihlavou","P6736":"16072"},"geometry":{"type":"Point","coordinates":[15.48895,49.42013]}},{"type":"Feature","properties":{"label:cs":"Kříž u cesty z Ježené ke kapli svatého Antonína","P31":"http://www.wikidata.org/entity/Q2309609","P31^label:cs":"Pamětní kříž","P131^label:cs":"Vyskytná nad Jihlavou","P6736":"16059"},"geometry":{"type":"Point","coordinates":[15.47796,49.41388]}},{"type":"Feature","properties":{"label:cs":"Kříž u cesty ke kapli svatého Antonína","P31":"http://www.wikidata.org/entity/Q2309609","P31^label:cs":"Pamětní kříž","P131^label:cs":"Vyskytná nad Jihlavou","P6736":"13106"},"geometry":{"type":"Point","coordinates":[15.48925,49.41111]}},{"type":"Feature","properties":{"label:cs":"Kříž východně od Ježené","P31":"http://www.wikidata.org/entity/Q2309609","P31^label:cs":"Pamětní kříž","P131^label:cs":"Vyskytná nad Jihlavou","P6736":"13019"},"geometry":{"type":"Point","coordinates":[15.48307,49.42043]}},{"type":"Feature","properties":{"label:cs":"Kaple svatého Antonína nad Rounkem","P31":"http://www.wikidata.org/entity/Q108325","P31^label:cs":"Kaple","P131^label:cs":"Vyskytná nad Jihlavou","P6736":"12481"},"geometry":{"type":"Point","coordinates":[15.48755,49.41175]}}]}