{"type":"FeatureCollection","features":[{"type":"Feature","properties":{"label:cs":"Boží muka v Havlíčkově ulici v Třešti","P31":"Q3395121","P31^label:cs":"Boží muka","P131^label:cs":"Třešť","P6736":"22751"},"geometry":{"type":"Point","coordinates":[15.47349,49.29603]}},{"type":"Feature","properties":{"label:cs":"Boží muka vedle kostela sv. Martina v Třešti","P31":"Q3395121","P31^label:cs":"Boží muka","P131^label:cs":"Třešť","P6736":"21951"},"geometry":{"type":"Point","coordinates":[15.48739,49.29349]}},{"type":"Feature","properties":{"label:cs":"Kaplička se sochou svatého Jana Nepomuckého před kostelem sv. Martina","P31":"Q14552192","P31^label:cs":"Kaplička","P131^label:cs":"Třešť","P6736":"21950"},"geometry":{"type":"Point","coordinates":[15.48691,49.29345]}},{"type":"Feature","properties":{"label:cs":"Boží muka ve Fritzově ulici v Třešti","P31":"Q3395121","P31^label:cs":"Boží muka","P131^label:cs":"Třešť","P6736":"21949"},"geometry":{"type":"Point","coordinates":[15.48623,49.29341]}},{"type":"Feature","properties":{"label:cs":"Kříž u mostu v Třešti","P31":"Q2309609","P31^label:cs":"Pamětní kříž","P131^label:cs":"Třešť","P6736":"21948"},"geometry":{"type":"Point","coordinates":[15.48556,49.29317]}},{"type":"Feature","properties":{"label:cs":"Pomník Obětem 2. světové války v Třešti","P31":"Q575759","P31^label:cs":"Pomník padlým","P131^label:cs":"Třešť","P6736":"21945"},"geometry":{"type":"Point","coordinates":[15.48576,49.29357]}},{"type":"Feature","properties":{"label:cs":"Socha sv. Jana Nepomuckého u mostu v Třešti","P31":"Q179700","P31^label:cs":"Socha","P131^label:cs":"Třešť","P6736":"21944"},"geometry":{"type":"Point","coordinates":[15.48529,49.29306]}},{"type":"Feature","properties":{"label:cs":"Socha Panny Marie Immaculaty u mostu v Třešti","P31":"Q179700","P31^label:cs":"Socha","P131^label:cs":"Třešť","P6736":"21943"},"geometry":{"type":"Point","coordinates":[15.4852,49.29316]}},{"type":"Feature","properties":{"label:cs":"Pomník Obětem 1. světové války v Třešti","P31":"Q575759","P31^label:cs":"Pomník padlým","P131^label:cs":"Třešť","P6736":"21942"},"geometry":{"type":"Point","coordinates":[15.4848,49.29276]}},{"type":"Feature","properties":{"label:cs":"Památník Šimona Partlice v Třešti","P31":"Q5003624","P31^label:cs":"Památník","P131^label:cs":"Třešť","P6736":"21941"},"geometry":{"type":"Point","coordinates":[15.48461,49.2927]}},{"type":"Feature","properties":{"label:cs":"Kříž za kostelem sv. Kateřiny Sienské v Třešti","P31":"Q2309609","P31^label:cs":"Pamětní kříž","P131^label:cs":"Třešť","P6736":"21940"},"geometry":{"type":"Point","coordinates":[15.48288,49.29255]}},{"type":"Feature","properties":{"label:cs":"Dřevěná socha Pan Tau v Třešti","P31":"Q179700","P31^label:cs":"Socha","P131^label:cs":"Třešť","P6736":"19552"},"geometry":{"type":"Point","coordinates":[15.48315,49.29214]}},{"type":"Feature","properties":{"label:cs":"Socha bohyně Eset na náměstí Svobody v Třešti","P31":"Q179700","P31^label:cs":"Socha","P131^label:cs":"Třešť","P6736":"18945"},"geometry":{"type":"Point","coordinates":[15.4819,49.29314]}},{"type":"Feature","properties":{"label:cs":"Kříž v Nádražní ulici v Třešti","P31":"Q2309609","P31^label:cs":"Pamětní kříž","P131^label:cs":"Třešť","P6736":"18455"},"geometry":{"type":"Point","coordinates":[15.479,49.29587]}}]}