{"type":"FeatureCollection","features":[{"type":"Feature","properties":{"label:cs":"Kříž u polní cesty severně od samoty Skalka","P31":"http://www.wikidata.org/entity/Q2309609","P31^label:cs":"Pamětní kříž","P131^label:cs":"Skorkov","P6736":"27534"},"geometry":{"type":"Point","coordinates":[15.49674,49.49899]}},{"type":"Feature","properties":{"label:cs":"Kříž u samoty Skalka","P31":"http://www.wikidata.org/entity/Q2309609","P31^label:cs":"Pamětní kříž","P131^label:cs":"Skorkov","P6736":"27533"},"geometry":{"type":"Point","coordinates":[15.49734,49.49783]}},{"type":"Feature","properties":{"label:cs":"Výklenková kaplička při cestě ke kapli Andělů strážných u Úsobí","P31":"http://www.wikidata.org/entity/Q14552192","P31^label:cs":"Kaplička","P131^label:cs":"Úsobí","P6736":"41378"},"geometry":{"type":"Point","coordinates":[15.50427,49.51034]}},{"type":"Feature","properties":{"label:cs":"Kříž svatého Huberta u kaple Andělů strážných u Úsobí","P31":"http://www.wikidata.org/entity/Q2309609","P31^label:cs":"Pamětní kříž","P131^label:cs":"Úsobí","P6736":"41375"},"geometry":{"type":"Point","coordinates":[15.50559,49.50568]}},{"type":"Feature","properties":{"label:cs":"Kovový kříž u kaple Andělů strážných u Úsobí","P31":"http://www.wikidata.org/entity/Q2309609","P31^label:cs":"Pamětní kříž","P131^label:cs":"Úsobí","P6736":"41373"},"geometry":{"type":"Point","coordinates":[15.50587,49.50591]}},{"type":"Feature","properties":{"label:cs":"Kaple Andělů strážných u Úsobí","P31":"http://www.wikidata.org/entity/Q108325","P31^label:cs":"Kaple","P131^label:cs":"Úsobí","P6736":"41371"},"geometry":{"type":"Point","coordinates":[15.50627,49.50597]}},{"type":"Feature","properties":{"label:cs":"Kříž nad rybníkem Horní Sklárna v Úsobí","P31":"http://www.wikidata.org/entity/Q2309609","P31^label:cs":"Pamětní kříž","P131^label:cs":"Úsobí","P6736":"27398"},"geometry":{"type":"Point","coordinates":[15.49532,49.50906]}}]}