{"type":"FeatureCollection","features":[{"type":"Feature","properties":{"label:cs":"Pamětní desky padlým na kapličce nad pramenem svaté Anny u Dobrohostova","P31":"http://www.wikidata.org/entity/Q721747","P31^label:cs":"Pamětní deska","P131^label:cs":"Lípa","P6736":"41536"},"geometry":{"type":"Point","coordinates":[15.50215,49.53548]}},{"type":"Feature","properties":{"label:cs":"Kaplička nad pramenem svaté Anny u Dobrohostova","P31":"http://www.wikidata.org/entity/Q14552192","P31^label:cs":"Kaplička","P131^label:cs":"Lípa","P6736":"41535"},"geometry":{"type":"Point","coordinates":[15.50215,49.53548]}},{"type":"Feature","properties":{"label:cs":"Kaple svaté Anny u Dobrohostova","P31":"http://www.wikidata.org/entity/Q108325","P31^label:cs":"Kaple","P131^label:cs":"Lípa","P6736":"41534"},"geometry":{"type":"Point","coordinates":[15.50227,49.53559]}},{"type":"Feature","properties":{"label:cs":"Kříž u kaple svaté Anny u Dobrohostova","P31":"http://www.wikidata.org/entity/Q2309609","P31^label:cs":"Pamětní kříž","P131^label:cs":"Lípa","P6736":"41533"},"geometry":{"type":"Point","coordinates":[15.50211,49.53544]}},{"type":"Feature","properties":{"label:cs":"Kříž u polní cesty severně od Chválkova","P31":"http://www.wikidata.org/entity/Q2309609","P31^label:cs":"Pamětní kříž","P131^label:cs":"Lípa","P6736":"41385"},"geometry":{"type":"Point","coordinates":[15.50669,49.53192]}},{"type":"Feature","properties":{"label:cs":"Kříž u domu č. 19 ve Chválkově","P31":"http://www.wikidata.org/entity/Q2309609","P31^label:cs":"Pamětní kříž","P131^label:cs":"Lípa","P6736":"41383"},"geometry":{"type":"Point","coordinates":[15.50915,49.53014]}},{"type":"Feature","properties":{"label:cs":"Kaplička ve Chválkově","P31":"http://www.wikidata.org/entity/Q14552192","P31^label:cs":"Kaplička","P131^label:cs":"Lípa","P6736":"41381"},"geometry":{"type":"Point","coordinates":[15.50902,49.52895]}},{"type":"Feature","properties":{"label:cs":"Socha svatého Jana Nepomuckého ve Chválkově","P31":"http://www.wikidata.org/entity/Q179700","P31^label:cs":"Socha","P131^label:cs":"Lípa","P6736":"41380"},"geometry":{"type":"Point","coordinates":[15.50894,49.5289]}}]}