{"type":"FeatureCollection","features":[{"type":"Feature","properties":{"label:cs":"Kříž na cestě mezi Popicemi a Vílancem","P31":"http://www.wikidata.org/entity/Q2309609","P31^label:cs":"Pamětní kříž","P131^label:cs":"Jihlava","P6736":"36564"},"geometry":{"type":"Point","coordinates":[15.55235,49.34666]}},{"type":"Feature","properties":{"label:cs":"Kříž u kaple Panny Marie v Popicích","P31":"http://www.wikidata.org/entity/Q2309609","P31^label:cs":"Pamětní kříž","P131^label:cs":"Jihlava","P6736":"36563"},"geometry":{"type":"Point","coordinates":[15.54133,49.35064]}},{"type":"Feature","properties":{"label:cs":"Kaple Panny Marie v Popicích","P31":"http://www.wikidata.org/entity/Q108325","P31^label:cs":"Kaple","P131^label:cs":"Jihlava","P6736":"36562"},"geometry":{"type":"Point","coordinates":[15.54127,49.35065]}},{"type":"Feature","properties":{"label:cs":"Kříž u domu čp. 20 v Popicích","P31":"http://www.wikidata.org/entity/Q2309609","P31^label:cs":"Pamětní kříž","P131^label:cs":"Jihlava","P6736":"36561"},"geometry":{"type":"Point","coordinates":[15.54387,49.3513]}},{"type":"Feature","properties":{"label:cs":"Kříž v západní části Popic","P31":"http://www.wikidata.org/entity/Q2309609","P31^label:cs":"Pamětní kříž","P131^label:cs":"Jihlava","P6736":"36559"},"geometry":{"type":"Point","coordinates":[15.5386,49.35081]}},{"type":"Feature","properties":{"label:cs":"Kříž v jižní části Popic","P31":"http://www.wikidata.org/entity/Q2309609","P31^label:cs":"Pamětní kříž","P131^label:cs":"Jihlava","P6736":"36558"},"geometry":{"type":"Point","coordinates":[15.54193,49.34843]}}]}