{"type":"FeatureCollection","features":[{"type":"Feature","properties":{"label:cs":"Pamětní deska Karla Havlíčka Borovského na domě Rozkošská 2340 v Havlíčkově Brodě","P31":"http://www.wikidata.org/entity/Q721747","P31^label:cs":"Pamětní deska","P131^label:cs":"Havlíčkův Brod","P6736":"41653"},"geometry":{"type":"Point","coordinates":[15.5556,49.61478]}},{"type":"Feature","properties":{"label:cs":"Kaple v Perknově","P31":"http://www.wikidata.org/entity/Q108325","P31^label:cs":"Kaple","P131^label:cs":"Havlíčkův Brod","P6736":"41672"},"geometry":{"type":"Point","coordinates":[15.54364,49.61753]}},{"type":"Feature","properties":{"label:cs":"Kříž u křižovatky polních cest severovýchodně od Perknova","P31":"http://www.wikidata.org/entity/Q2309609","P31^label:cs":"Pamětní kříž","P131^label:cs":"Havlíčkův Brod","P6736":"41671"},"geometry":{"type":"Point","coordinates":[15.54756,49.62029]}},{"type":"Feature","properties":{"label:cs":"Kříž v Mlýnské ulici v Perknově","P31":"http://www.wikidata.org/entity/Q2309609","P31^label:cs":"Pamětní kříž","P131^label:cs":"Havlíčkův Brod","P6736":"41670"},"geometry":{"type":"Point","coordinates":[15.54414,49.61948]}},{"type":"Feature","properties":{"label:cs":"Kříž v Perknovské ulici v Perknově","P31":"http://www.wikidata.org/entity/Q2309609","P31^label:cs":"Pamětní kříž","P131^label:cs":"Havlíčkův Brod","P6736":"41669"},"geometry":{"type":"Point","coordinates":[15.55001,49.61509]}}]}