{"type":"FeatureCollection","features":[{"type":"Feature","properties":{"label:cs":"Pamětní deska Otokara Březiny na budově úřadu městyse v Nové Říši","P31":"Q721747","P31^label:cs":"Pamětní deska","P131^label:cs":"Nová Říše","P6736":"21080"},"geometry":{"type":"Point","coordinates":[15.56077,49.14044]}},{"type":"Feature","properties":{"label:cs":"Kříž u sýpky v Nové Říši","P31":"Q2309609","P31^label:cs":"Pamětní kříž","P131^label:cs":"Nová Říše","P6736":"19338"},"geometry":{"type":"Point","coordinates":[15.5629,49.14223]}},{"type":"Feature","properties":{"label:cs":"Socha sv. Jana Nepomuckého před kostelem sv. Petra a Pavla v Nové Říši","P31":"Q179700","P31^label:cs":"Socha","P131^label:cs":"Nová Říše","P6736":"19272"},"geometry":{"type":"Point","coordinates":[15.56446,49.13889]}},{"type":"Feature","properties":{"label:cs":"Kříž před kostelem sv. Petra a Pavla v Nové Říši","P31":"Q2309609","P31^label:cs":"Pamětní kříž","P131^label:cs":"Nová Říše","P6736":"19270"},"geometry":{"type":"Point","coordinates":[15.56468,49.13898]}},{"type":"Feature","properties":{"label:cs":"Pamětní deska Jana Nováka v Nové Říši","P31":"Q721747","P31^label:cs":"Pamětní deska","P131^label:cs":"Nová Říše","P6736":"19269"},"geometry":{"type":"Point","coordinates":[15.56326,49.13974]}},{"type":"Feature","properties":{"label:cs":"Socha sv. Floriána v Nové Říši","P31":"Q179700","P31^label:cs":"Socha","P131^label:cs":"Nová Říše","P6736":"19267"},"geometry":{"type":"Point","coordinates":[15.56244,49.13978]}},{"type":"Feature","properties":{"label:cs":"Pomník padlým v Nové Říši II","P31":"Q575759","P31^label:cs":"Pomník padlým","P131^label:cs":"Nová Říše","P6736":"9497"},"geometry":{"type":"Point","coordinates":[15.56437,49.13903]}},{"type":"Feature","properties":{"label:cs":"Pomník padlým v Nové Říši","P31":"Q575759","P31^label:cs":"Pomník padlým","P131^label:cs":"Nová Říše","P6736":"9492"},"geometry":{"type":"Point","coordinates":[15.56289,49.13959]}}]}