{"type":"FeatureCollection","features":[{"type":"Feature","properties":{"label:cs":"Zvonička v Tupesech","P31":"Q10861631","P31^label:cs":"Zvonička","P131^label:cs":"Přelouč","P6736":"14757"},"geometry":{"type":"Point","coordinates":[15.57051,49.99494]}},{"type":"Feature","properties":{"label:cs":"Kříž v Tupesech","P31":"Q2309609","P31^label:cs":"Pamětní kříž","P131^label:cs":"Přelouč","P6736":"14756"},"geometry":{"type":"Point","coordinates":[15.57048,49.99492]}},{"type":"Feature","properties":{"label:cs":"Pomník padlým v Tupesech","P31":"Q575759","P31^label:cs":"Pomník padlým","P131^label:cs":"Přelouč","P6736":"14755"},"geometry":{"type":"Point","coordinates":[15.56794,49.99528]}},{"type":"Feature","properties":{"label:cs":"Kříž na okraji lesa a louky východně od Brlohu","P31":"Q2309609","P31^label:cs":"Pamětní kříž","P131^label:cs":"Brloh","P6736":"14752"},"geometry":{"type":"Point","coordinates":[15.56122,49.99566]}},{"type":"Feature","properties":{"label:cs":"Zvonička v Brlohu","P31":"Q10861631","P31^label:cs":"Zvonička","P131^label:cs":"Brloh","P6736":"14751"},"geometry":{"type":"Point","coordinates":[15.55746,50.00022]}},{"type":"Feature","properties":{"label:cs":"Kříž v Brlohu","P31":"Q2309609","P31^label:cs":"Pamětní kříž","P131^label:cs":"Brloh","P6736":"14750"},"geometry":{"type":"Point","coordinates":[15.55743,50.00024]}},{"type":"Feature","properties":{"label:cs":"Pomník padlým v Brlohu","P31":"Q575759","P31^label:cs":"Pomník padlým","P131^label:cs":"Brloh","P6736":"14749"},"geometry":{"type":"Point","coordinates":[15.55736,50.00019]}}]}