{"type":"FeatureCollection","features":[{"type":"Feature","properties":{"label:cs":"Plastika Tu a Tam Radomíra Dvořáka ve Smetanových sadech","P31":"Q12045520","P31^label:cs":"Plastika","P131^label:cs":"Jihlava","P6736":"20929"},"geometry":{"type":"Point","coordinates":[15.58465,49.39795]}},{"type":"Feature","properties":{"label:cs":"Plastika Disk Roberta Vlasáka ve Smetanových sadech","P31":"Q12045520","P31^label:cs":"Plastika","P131^label:cs":"Jihlava","P6736":"20928"},"geometry":{"type":"Point","coordinates":[15.58438,49.39759]}},{"type":"Feature","properties":{"label:cs":"Pomník Obětem komunismu v Tyršově ulici","P31":"Q575759","P31^label:cs":"Pomník padlým","P131^label:cs":"Jihlava","P6736":"20926"},"geometry":{"type":"Point","coordinates":[15.58342,49.39903]}},{"type":"Feature","properties":{"label:cs":"Památník na sochu T. G. Masaryka v ulici Jana Masaryka před gymnáziem","P31":"Q5003624","P31^label:cs":"Památník","P131^label:cs":"Jihlava","P6736":"20925"},"geometry":{"type":"Point","coordinates":[15.58628,49.39804]}},{"type":"Feature","properties":{"label:cs":"Socha T.G.Masaryka v ulici Jana Masaryka u kina Dukla","P31":"Q179700","P31^label:cs":"Socha","P131^label:cs":"Jihlava","P6736":"20924"},"geometry":{"type":"Point","coordinates":[15.58667,49.39777]}},{"type":"Feature","properties":{"label:cs":"Památník vojákům Rudé armády na Náměstí Svobody v Jihlavě","P31":"Q5003624","P31^label:cs":"Památník","P131^label:cs":"Jihlava","P6736":"20923"},"geometry":{"type":"Point","coordinates":[15.5895,49.39976]}},{"type":"Feature","properties":{"label:cs":"Kalvárie před kostelem sv. Jana Křtitele na Jánském kopečku v Jihlavě","P31":"Q2309609","P31^label:cs":"Pamětní kříž","P131^label:cs":"Jihlava","P6736":"18915"},"geometry":{"type":"Point","coordinates":[15.59002,49.40769]}},{"type":"Feature","properties":{"label:cs":"Kříž za kostelem sv. Jana Křtitele na Jánském kopečku v Jihlavě","P31":"Q2309609","P31^label:cs":"Pamětní kříž","P131^label:cs":"Jihlava","P6736":"18914"},"geometry":{"type":"Point","coordinates":[15.59078,49.40776]}},{"type":"Feature","properties":{"label:cs":"Boží muka u kostela sv. Jana Křtitele","P31":"Q3395121","P31^label:cs":"Boží muka","P131^label:cs":"Jihlava","P6736":"18913"},"geometry":{"type":"Point","coordinates":[15.5909,49.40788]}},{"type":"Feature","properties":{"label:cs":"Arménský kříž před kostelem svatého Ducha","P31":"Q2309609","P31^label:cs":"Pamětní kříž","P131^label:cs":"Jihlava","P6736":"16024"},"geometry":{"type":"Point","coordinates":[15.58447,49.39734]}},{"type":"Feature","properties":{"label:cs":"Boží muka v Jihlavě na rohu ulic Třebízského a Havlíčkovy","P31":"Q3395121","P31^label:cs":"Boží muka","P131^label:cs":"Jihlava","P6736":"12237"},"geometry":{"type":"Point","coordinates":[15.58768,49.4039]}},{"type":"Feature","properties":{"label:cs":"Kříž v Jihlavě v Třebízského ulici","P31":"Q2309609","P31^label:cs":"Pamětní kříž","P131^label:cs":"Jihlava","P6736":"12099"},"geometry":{"type":"Point","coordinates":[15.58957,49.4032]}},{"type":"Feature","properties":{"label:cs":"Památník královské přísahy v Jihlavě","P31":"Q5003624","P31^label:cs":"Památník","P131^label:cs":"Jihlava","P6736":"9377"},"geometry":{"type":"Point","coordinates":[15.58584,49.4065]}}]}