{"type":"FeatureCollection","features":[{"type":"Feature","properties":{"label:cs":"Památník 17. listopadu 1989 v Jihlavě","P31":"http://www.wikidata.org/entity/Q5003624","P31^label:cs":"Památník","P131^label:cs":"Jihlava","P6736":"36829"},"geometry":{"type":"Point","coordinates":[15.57982,49.40669]}},{"type":"Feature","properties":{"label:cs":"Socha svatého Jana Nepomuckého na Okružní ulici v Jihlavě","P31":"http://www.wikidata.org/entity/Q179700","P31^label:cs":"Socha","P131^label:cs":"Jihlava","P6736":"39591"},"geometry":{"type":"Point","coordinates":[15.59354,49.40548]}},{"type":"Feature","properties":{"label:cs":"Pamětní deska nad vchodem kostela svatého Ducha v Jihlavě","P31":"http://www.wikidata.org/entity/Q721747","P31^label:cs":"Pamětní deska","P131^label:cs":"Jihlava","P6736":"36806"},"geometry":{"type":"Point","coordinates":[15.58465,49.39732]}},{"type":"Feature","properties":{"label:cs":"Plastika ve Smetanových sadech","P31":"http://www.wikidata.org/entity/Q12045520","P31^label:cs":"Plastika","P131^label:cs":"Jihlava","P6736":"36805"},"geometry":{"type":"Point","coordinates":[15.58432,49.39708]}},{"type":"Feature","properties":{"label:cs":"Dřevěná plastika ve Smetanových sadech","P31":"http://www.wikidata.org/entity/Q12045520","P31^label:cs":"Plastika","P131^label:cs":"Jihlava","P6736":"36804"},"geometry":{"type":"Point","coordinates":[15.58515,49.39778]}},{"type":"Feature","properties":{"label:cs":"Kovová plastika v Tolstého ulici v Jihlavě","P31":"http://www.wikidata.org/entity/Q12045520","P31^label:cs":"Plastika","P131^label:cs":"Jihlava","P6736":"36803"},"geometry":{"type":"Point","coordinates":[15.58468,49.39902]}},{"type":"Feature","properties":{"label:cs":"Kaple svatého Karla Boromejského v Jihlavě","P31":"http://www.wikidata.org/entity/Q108325","P31^label:cs":"Kaple","P131^label:cs":"Jihlava","P6736":"36802"},"geometry":{"type":"Point","coordinates":[15.5911,49.39864]}},{"type":"Feature","properties":{"label:cs":"Pamětní deska obětem totalitních režimů v Jihlavě","P31":"http://www.wikidata.org/entity/Q721747","P31^label:cs":"Pamětní deska","P131^label:cs":"Jihlava","P6736":"36787"},"geometry":{"type":"Point","coordinates":[15.59167,49.39672]}},{"type":"Feature","properties":{"label:cs":"Pamětní deska Bohumila Dvořáčka v Jihlavě","P31":"http://www.wikidata.org/entity/Q721747","P31^label:cs":"Pamětní deska","P131^label:cs":"Jihlava","P6736":"36786"},"geometry":{"type":"Point","coordinates":[15.58961,49.39671]}},{"type":"Feature","properties":{"label:cs":"Pamětní deska Karla Kryla v Jihlavě","P31":"http://www.wikidata.org/entity/Q721747","P31^label:cs":"Pamětní deska","P131^label:cs":"Jihlava","P6736":"36784"},"geometry":{"type":"Point","coordinates":[15.58783,49.39992]}},{"type":"Feature","properties":{"label:cs":"Strom Svobody v Jihlavě","P31":"http://www.wikidata.org/entity/Q5003624","P31^label:cs":"Památník","P131^label:cs":"Jihlava","P6736":"36783"},"geometry":{"type":"Point","coordinates":[15.58585,49.40316]}},{"type":"Feature","properties":{"label:cs":"Strom Milénia v Jihlavě","P31":"http://www.wikidata.org/entity/Q5003624","P31^label:cs":"Památník","P131^label:cs":"Jihlava","P6736":"36782"},"geometry":{"type":"Point","coordinates":[15.58605,49.40315]}},{"type":"Feature","properties":{"label:cs":"Pamětní deska Martina Slavka na domě Masarykovo náměstí 110/64 v Jihlavě","P31":"http://www.wikidata.org/entity/Q721747","P31^label:cs":"Pamětní deska","P131^label:cs":"Jihlava","P6736":"34099"},"geometry":{"type":"Point","coordinates":[15.59062,49.39676]}},{"type":"Feature","properties":{"label:cs":"Pamětní deska Leopoda Fritze na domě Legionářů 1578/6 v Jihlavě","P31":"http://www.wikidata.org/entity/Q721747","P31^label:cs":"Pamětní deska","P131^label:cs":"Jihlava","P6736":"34098"},"geometry":{"type":"Point","coordinates":[15.58692,49.39923]}},{"type":"Feature","properties":{"label:cs":"Socha Panny Marie na Tolstého ulici v Jihlavě","P31":"http://www.wikidata.org/entity/Q179700","P31^label:cs":"Socha","P131^label:cs":"Jihlava","P6736":"34097"},"geometry":{"type":"Point","coordinates":[15.58534,49.39958]}},{"type":"Feature","properties":{"label:cs":"Plastika Tu a Tam Radomíra Dvořáka ve Smetanových sadech","P31":"http://www.wikidata.org/entity/Q12045520","P31^label:cs":"Plastika","P131^label:cs":"Jihlava","P6736":"20929"},"geometry":{"type":"Point","coordinates":[15.58465,49.39795]}},{"type":"Feature","properties":{"label:cs":"Plastika Disk Roberta Vlasáka ve Smetanových sadech","P31":"http://www.wikidata.org/entity/Q12045520","P31^label:cs":"Plastika","P131^label:cs":"Jihlava","P6736":"20928"},"geometry":{"type":"Point","coordinates":[15.58438,49.39759]}},{"type":"Feature","properties":{"label:cs":"Pomník Obětem komunismu v Tyršově ulici","P31":"http://www.wikidata.org/entity/Q575759","P31^label:cs":"Pomník padlým","P131^label:cs":"Jihlava","P6736":"20926"},"geometry":{"type":"Point","coordinates":[15.58342,49.39903]}},{"type":"Feature","properties":{"label:cs":"Památník na sochu T. G. Masaryka v ulici Jana Masaryka před gymnáziem","P31":"http://www.wikidata.org/entity/Q5003624","P31^label:cs":"Památník","P131^label:cs":"Jihlava","P6736":"20925"},"geometry":{"type":"Point","coordinates":[15.58628,49.39804]}},{"type":"Feature","properties":{"label:cs":"Socha T. G. Masaryka v ulici Jana Masaryka u kina Dukla","P31":"http://www.wikidata.org/entity/Q179700","P31^label:cs":"Socha","P131^label:cs":"Jihlava","P6736":"20924"},"geometry":{"type":"Point","coordinates":[15.58667,49.39777]}},{"type":"Feature","properties":{"label:cs":"Památník vojákům Rudé armády na Náměstí Svobody v Jihlavě","P31":"http://www.wikidata.org/entity/Q5003624","P31^label:cs":"Památník","P131^label:cs":"Jihlava","P6736":"20923"},"geometry":{"type":"Point","coordinates":[15.5895,49.39976]}},{"type":"Feature","properties":{"label:cs":"Kalvárie před kostelem svatého Jana Křtitele na Jánském kopečku v Jihlavě","P31":"http://www.wikidata.org/entity/Q2309609","P31^label:cs":"Pamětní kříž","P131^label:cs":"Jihlava","P6736":"18915"},"geometry":{"type":"Point","coordinates":[15.59002,49.40769]}},{"type":"Feature","properties":{"label:cs":"Kříž za kostelem svatého Jana Křtitele na Jánském kopečku v Jihlavě","P31":"http://www.wikidata.org/entity/Q2309609","P31^label:cs":"Pamětní kříž","P131^label:cs":"Jihlava","P6736":"18914"},"geometry":{"type":"Point","coordinates":[15.59078,49.40776]}},{"type":"Feature","properties":{"label:cs":"Boží muka u kostela svatého Jana Křtitele","P31":"http://www.wikidata.org/entity/Q3395121","P31^label:cs":"Boží muka","P131^label:cs":"Jihlava","P6736":"18913"},"geometry":{"type":"Point","coordinates":[15.5909,49.40788]}},{"type":"Feature","properties":{"label:cs":"Arménský kříž před kostelem svatého Ducha","P31":"http://www.wikidata.org/entity/Q2309609","P31^label:cs":"Pamětní kříž","P131^label:cs":"Jihlava","P6736":"16024"},"geometry":{"type":"Point","coordinates":[15.58447,49.39734]}},{"type":"Feature","properties":{"label:cs":"Boží muka v Jihlavě na rohu ulic Třebízského a Havlíčkovy","P31":"http://www.wikidata.org/entity/Q3395121","P31^label:cs":"Boží muka","P131^label:cs":"Jihlava","P6736":"12237"},"geometry":{"type":"Point","coordinates":[15.58768,49.4039]}},{"type":"Feature","properties":{"label:cs":"Kříž v Jihlavě v Třebízského ulici","P31":"http://www.wikidata.org/entity/Q2309609","P31^label:cs":"Pamětní kříž","P131^label:cs":"Jihlava","P6736":"12099"},"geometry":{"type":"Point","coordinates":[15.58957,49.4032]}},{"type":"Feature","properties":{"label:cs":"Památník královské přísahy v Jihlavě","P31":"http://www.wikidata.org/entity/Q5003624","P31^label:cs":"Památník","P131^label:cs":"Jihlava","P6736":"9377"},"geometry":{"type":"Point","coordinates":[15.58584,49.4065]}}]}