{"type":"FeatureCollection","features":[{"type":"Feature","properties":{"label:cs":"Kříž v Rosicích v lokalitě U lípy","P31":"http://www.wikidata.org/entity/Q2309609","P31^label:cs":"Pamětní kříž","P131^label:cs":"Cerekvička-Rosice","P6736":"36670"},"geometry":{"type":"Point","coordinates":[15.60362,49.3388]}},{"type":"Feature","properties":{"label:cs":"Boží muka v Rosicích","P31":"http://www.wikidata.org/entity/Q3395121","P31^label:cs":"Boží muka","P131^label:cs":"Cerekvička-Rosice","P6736":"36669"},"geometry":{"type":"Point","coordinates":[15.60936,49.33539]}},{"type":"Feature","properties":{"label:cs":"Kříž u kaple v Rosicích","P31":"http://www.wikidata.org/entity/Q2309609","P31^label:cs":"Pamětní kříž","P131^label:cs":"Cerekvička-Rosice","P6736":"36668"},"geometry":{"type":"Point","coordinates":[15.61276,49.33249]}},{"type":"Feature","properties":{"label:cs":"Kaple v Rosicích","P31":"http://www.wikidata.org/entity/Q108325","P31^label:cs":"Kaple","P131^label:cs":"Cerekvička-Rosice","P6736":"36667"},"geometry":{"type":"Point","coordinates":[15.6128,49.33246]}},{"type":"Feature","properties":{"label:cs":"Kříž na jižním okraji Rosic","P31":"http://www.wikidata.org/entity/Q2309609","P31^label:cs":"Pamětní kříž","P131^label:cs":"Cerekvička-Rosice","P6736":"36666"},"geometry":{"type":"Point","coordinates":[15.61456,49.33096]}},{"type":"Feature","properties":{"label:cs":"Kříž západně od Rosic","P31":"http://www.wikidata.org/entity/Q2309609","P31^label:cs":"Pamětní kříž","P131^label:cs":"Cerekvička-Rosice","P6736":"36665"},"geometry":{"type":"Point","coordinates":[15.6061,49.33121]}}]}