{"type":"FeatureCollection","features":[{"type":"Feature","properties":{"label:cs":"Kříž v Dachovech","P31":"http://www.wikidata.org/entity/Q2309609","P31^label:cs":"Pamětní kříž","P131^label:cs":"Hořice","P6736":"31066"},"geometry":{"type":"Point","coordinates":[15.63865,50.38483]}},{"type":"Feature","properties":{"label:cs":"Pomník Jana Maláta v Dachovech","P31":"http://www.wikidata.org/entity/Q4989906","P31^label:cs":"Pomník","P131^label:cs":"Hořice","P6736":"31067"},"geometry":{"type":"Point","coordinates":[15.63745,50.38426]}},{"type":"Feature","properties":{"label:cs":"Deska s reliéfem Nejsvětější Trojice u silnice severně od Hořic","P31":"http://www.wikidata.org/entity/Q245117","P31^label:cs":"Reliéf","P131^label:cs":"Hořice","P6736":"31068"},"geometry":{"type":"Point","coordinates":[15.64055,50.37884]}},{"type":"Feature","properties":{"label:cs":"Reliéf vpravo od vchodu Masarykovy věže samostatnosti v Hořicích","P31":"http://www.wikidata.org/entity/Q245117","P31^label:cs":"Reliéf","P131^label:cs":"Hořice","P6736":"31094"},"geometry":{"type":"Point","coordinates":[15.63893,50.37749]}},{"type":"Feature","properties":{"label:cs":"Reliéf vlevo od vchodu Masarykovy věže samostatnosti v Hořicích","P31":"http://www.wikidata.org/entity/Q245117","P31^label:cs":"Reliéf","P131^label:cs":"Hořice","P6736":"31095"},"geometry":{"type":"Point","coordinates":[15.63866,50.37751]}},{"type":"Feature","properties":{"label:cs":"Sousoší legionářů u Masarykovy věže samostatnosti v Hořicích","P31":"http://www.wikidata.org/entity/Q179700","P31^label:cs":"Socha","P131^label:cs":"Hořice","P6736":"31096"},"geometry":{"type":"Point","coordinates":[15.63874,50.3773]}},{"type":"Feature","properties":{"label:cs":"Kaple Panny Marie Hlohové v Hořicích","P31":"http://www.wikidata.org/entity/Q108325","P31^label:cs":"Kaple","P131^label:cs":"Hořice","P6736":"31097"},"geometry":{"type":"Point","coordinates":[15.63562,50.37813]}},{"type":"Feature","properties":{"label:cs":"Pamětní deska na kapli Panny Marie Hlohové v Hořicích","P31":"http://www.wikidata.org/entity/Q721747","P31^label:cs":"Pamětní deska","P131^label:cs":"Hořice","P6736":"31098"},"geometry":{"type":"Point","coordinates":[15.63562,50.37813]}},{"type":"Feature","properties":{"label:cs":"Socha motocyklového závodníka v Hořicích","P31":"http://www.wikidata.org/entity/Q179700","P31^label:cs":"Socha","P131^label:cs":"Hořice","P6736":"31101"},"geometry":{"type":"Point","coordinates":[15.64055,50.37761]}},{"type":"Feature","properties":{"label:cs":"Pomník Marii a Iljovi Zachovalovým v Hořicích","P31":"http://www.wikidata.org/entity/Q4989906","P31^label:cs":"Pomník","P131^label:cs":"Hořice","P6736":"31102"},"geometry":{"type":"Point","coordinates":[15.64039,50.37746]}}]}