{"type":"FeatureCollection","features":[{"type":"Feature","properties":{"label:cs":"Kaplička u silnice západně od Puklice","P31":"http://www.wikidata.org/entity/Q14552192","P31^label:cs":"Kaplička","P131^label:cs":"Puklice","P6736":"37037"},"geometry":{"type":"Point","coordinates":[15.63812,49.35984]}},{"type":"Feature","properties":{"label:cs":"Kříž v poli západně od Studének","P31":"http://www.wikidata.org/entity/Q2309609","P31^label:cs":"Pamětní kříž","P131^label:cs":"Puklice","P6736":"37036"},"geometry":{"type":"Point","coordinates":[15.62499,49.36275]}},{"type":"Feature","properties":{"label:cs":"Kříž u kaple ve Studénkách","P31":"http://www.wikidata.org/entity/Q2309609","P31^label:cs":"Pamětní kříž","P131^label:cs":"Puklice","P6736":"37035"},"geometry":{"type":"Point","coordinates":[15.63608,49.36621]}},{"type":"Feature","properties":{"label:cs":"Kaple svatých Petra a Pavla ve Studénkách","P31":"http://www.wikidata.org/entity/Q108325","P31^label:cs":"Kaple","P131^label:cs":"Puklice","P6736":"37034"},"geometry":{"type":"Point","coordinates":[15.63616,49.36621]}},{"type":"Feature","properties":{"label:cs":"Kříž na severozápadním okraji Studének","P31":"http://www.wikidata.org/entity/Q2309609","P31^label:cs":"Pamětní kříž","P131^label:cs":"Puklice","P6736":"37033"},"geometry":{"type":"Point","coordinates":[15.63359,49.36616]}},{"type":"Feature","properties":{"label:cs":"Boží muka u silnice severozápadně od Studének","P31":"http://www.wikidata.org/entity/Q3395121","P31^label:cs":"Boží muka","P131^label:cs":"Puklice","P6736":"37032"},"geometry":{"type":"Point","coordinates":[15.63178,49.36763]}}]}