{"type":"FeatureCollection","features":[{"type":"Feature","properties":{"label:cs":"Kříž u kaple Narození Panny Marie v Kosově","P31":"http://www.wikidata.org/entity/Q2309609","P31^label:cs":"Pamětní kříž","P131^label:cs":"Jihlava","P6736":"36778"},"geometry":{"type":"Point","coordinates":[15.63453,49.38726]}},{"type":"Feature","properties":{"label:cs":"Kaple Narození Panny Marie v Kosově","P31":"http://www.wikidata.org/entity/Q108325","P31^label:cs":"Kaple","P131^label:cs":"Jihlava","P6736":"36777"},"geometry":{"type":"Point","coordinates":[15.63455,49.38723]}},{"type":"Feature","properties":{"label:cs":"Kříž u rozcestí v západní části Kosova","P31":"http://www.wikidata.org/entity/Q2309609","P31^label:cs":"Pamětní kříž","P131^label:cs":"Jihlava","P6736":"36773"},"geometry":{"type":"Point","coordinates":[15.6322,49.38819]}},{"type":"Feature","properties":{"label:cs":"Kříž v západní části Kosova","P31":"http://www.wikidata.org/entity/Q2309609","P31^label:cs":"Pamětní kříž","P131^label:cs":"Jihlava","P6736":"36772"},"geometry":{"type":"Point","coordinates":[15.62929,49.38862]}},{"type":"Feature","properties":{"label:cs":"Kříž u kostela Božského Srdce Páně v Malém Beranově","P31":"http://www.wikidata.org/entity/Q2309609","P31^label:cs":"Pamětní kříž","P131^label:cs":"Malý Beranov","P6736":"18976"},"geometry":{"type":"Point","coordinates":[15.63805,49.39652]}}]}