{"type":"FeatureCollection","features":[{"type":"Feature","properties":{"label:cs":"Centrální kříž na hřbitově v Puklicích","P31":"http://www.wikidata.org/entity/Q2309609","P31^label:cs":"Pamětní kříž","P131^label:cs":"Puklice","P6736":"37061"},"geometry":{"type":"Point","coordinates":[15.65487,49.36127]}},{"type":"Feature","properties":{"label:cs":"Kříž na východě Puklic","P31":"http://www.wikidata.org/entity/Q2309609","P31^label:cs":"Pamětní kříž","P131^label:cs":"Puklice","P6736":"37060"},"geometry":{"type":"Point","coordinates":[15.65842,49.3598]}},{"type":"Feature","properties":{"label:cs":"Kříž na jihovýchodě Puklic","P31":"http://www.wikidata.org/entity/Q2309609","P31^label:cs":"Pamětní kříž","P131^label:cs":"Puklice","P6736":"37059"},"geometry":{"type":"Point","coordinates":[15.65574,49.35753]}},{"type":"Feature","properties":{"label:cs":"Pamětní lípa - památník 700. výročí Puklic","P31":"http://www.wikidata.org/entity/Q5003624","P31^label:cs":"Památník","P131^label:cs":"Puklice","P6736":"37058"},"geometry":{"type":"Point","coordinates":[15.65226,49.35932]}},{"type":"Feature","properties":{"label:cs":"Socha svatého Jana Nepomuckého v Puklicích","P31":"http://www.wikidata.org/entity/Q179700","P31^label:cs":"Socha","P131^label:cs":"Puklice","P6736":"37057"},"geometry":{"type":"Point","coordinates":[15.65236,49.35933]}},{"type":"Feature","properties":{"label:cs":"Kříž na návsi v Puklicích","P31":"http://www.wikidata.org/entity/Q2309609","P31^label:cs":"Pamětní kříž","P131^label:cs":"Puklice","P6736":"37040"},"geometry":{"type":"Point","coordinates":[15.65227,49.35949]}},{"type":"Feature","properties":{"label:cs":"Kříž u domu čp. 169 v Puklicích","P31":"http://www.wikidata.org/entity/Q2309609","P31^label:cs":"Pamětní kříž","P131^label:cs":"Puklice","P6736":"37039"},"geometry":{"type":"Point","coordinates":[15.65201,49.3643]}},{"type":"Feature","properties":{"label:cs":"Pomník padlým v Puklicích","P31":"http://www.wikidata.org/entity/Q575759","P31^label:cs":"Pomník padlým","P131^label:cs":"Puklice","P6736":"37038"},"geometry":{"type":"Point","coordinates":[15.65086,49.36147]}}]}