{"type":"FeatureCollection","features":[{"type":"Feature","properties":{"label:cs":"Kříž mezi obcemi Vysočany a Korolupy  I","P31":"http://www.wikidata.org/entity/Q2309609","P31^label:cs":"Pamětní kříž","P131^label:cs":"Korolupy","P6736":"19909"},"geometry":{"type":"Point","coordinates":[15.67411,48.9361]}},{"type":"Feature","properties":{"label:cs":"Kříž jižně od Oslnovic","P31":"http://www.wikidata.org/entity/Q2309609","P31^label:cs":"Pamětní kříž","P131^label:cs":"Oslnovice","P6736":"19720"},"geometry":{"type":"Point","coordinates":[15.68628,48.92767]}},{"type":"Feature","properties":{"label:cs":"Kříž západně od Oslnovic","P31":"http://www.wikidata.org/entity/Q2309609","P31^label:cs":"Pamětní kříž","P131^label:cs":"Oslnovice","P6736":"19666"},"geometry":{"type":"Point","coordinates":[15.67827,48.93114]}},{"type":"Feature","properties":{"label:cs":"Kříž severně od Oslnovic","P31":"http://www.wikidata.org/entity/Q2309609","P31^label:cs":"Pamětní kříž","P131^label:cs":"Oslnovice","P6736":"19665"},"geometry":{"type":"Point","coordinates":[15.68842,48.9351]}},{"type":"Feature","properties":{"label:cs":"Kaplička v Oslnovicích západní okraj obce","P31":"http://www.wikidata.org/entity/Q14552192","P31^label:cs":"Kaplička","P131^label:cs":"Oslnovice","P6736":"19664"},"geometry":{"type":"Point","coordinates":[15.68428,48.93312]}}]}