{"type":"FeatureCollection","features":[{"type":"Feature","properties":{"label:cs":"Smírčí kříž u kostela Nejsvětější Trojice v Hostinném","P31":"http://www.wikidata.org/entity/Q1640496","P31^label:cs":"Smírčí kříž","P131^label:cs":"Hostinné","P6736":"31025"},"geometry":{"type":"Point","coordinates":[15.72119,50.54147]}},{"type":"Feature","properties":{"label:cs":"Kříž u brány kostela Nejsvětější Trojice v Hostinném","P31":"http://www.wikidata.org/entity/Q2309609","P31^label:cs":"Pamětní kříž","P131^label:cs":"Hostinné","P6736":"31026"},"geometry":{"type":"Point","coordinates":[15.72159,50.54147]}},{"type":"Feature","properties":{"label:cs":"Socha Ignáce z Loyoly na bráně kostela Nejsvětější Trojice v Hostinném","P31":"http://www.wikidata.org/entity/Q179700","P31^label:cs":"Socha","P131^label:cs":"Hostinné","P6736":"31027"},"geometry":{"type":"Point","coordinates":[15.7216,50.54151]}},{"type":"Feature","properties":{"label:cs":"Kovový kříž před kostelem Nejsvětější Trojice v Hostinném","P31":"http://www.wikidata.org/entity/Q2309609","P31^label:cs":"Pamětní kříž","P131^label:cs":"Hostinné","P6736":"31030"},"geometry":{"type":"Point","coordinates":[15.72069,50.54162]}},{"type":"Feature","properties":{"label:cs":"Socha svaté Anny na bráně kostela Nejsvětější Trojice v Hostinném","P31":"http://www.wikidata.org/entity/Q179700","P31^label:cs":"Socha","P131^label:cs":"Hostinné","P6736":"31029"},"geometry":{"type":"Point","coordinates":[15.72163,50.54156]}},{"type":"Feature","properties":{"label:cs":"Kamenný kříž u kostela Nejsvětější Trojice v Hostinném","P31":"http://www.wikidata.org/entity/Q2309609","P31^label:cs":"Pamětní kříž","P131^label:cs":"Hostinné","P6736":"31031"},"geometry":{"type":"Point","coordinates":[15.72103,50.54177]}},{"type":"Feature","properties":{"label:cs":"Socha Krista u kostela Nejsvětější Trojice v Hostinném","P31":"http://www.wikidata.org/entity/Q179700","P31^label:cs":"Socha","P131^label:cs":"Hostinné","P6736":"31032"},"geometry":{"type":"Point","coordinates":[15.72111,50.54176]}},{"type":"Feature","properties":{"label:cs":"Socha anděla s kalichem u kostela Nejsvětější Trojice v Hostinném","P31":"http://www.wikidata.org/entity/Q179700","P31^label:cs":"Socha","P131^label:cs":"Hostinné","P6736":"31033"},"geometry":{"type":"Point","coordinates":[15.72117,50.54176]}},{"type":"Feature","properties":{"label:cs":"Socha anděla u kostela Nejsvětější Trojice v Hostinném","P31":"http://www.wikidata.org/entity/Q179700","P31^label:cs":"Socha","P131^label:cs":"Hostinné","P6736":"31034"},"geometry":{"type":"Point","coordinates":[15.72123,50.54175]}},{"type":"Feature","properties":{"label:cs":"1. zastavení křížové cesty u kostela Nejsvětější Trojice v Hostinném","P31":"http://www.wikidata.org/entity/Q14552192","P31^label:cs":"Kaplička","P131^label:cs":"Hostinné","P6736":"31049"},"geometry":{"type":"Point","coordinates":[15.72156,50.54148]}},{"type":"Feature","properties":{"label:cs":"2. zastavení křížové cesty u kostela Nejsvětější Trojice v Hostinném","P31":"http://www.wikidata.org/entity/Q14552192","P31^label:cs":"Kaplička","P131^label:cs":"Hostinné","P6736":"31050"},"geometry":{"type":"Point","coordinates":[15.72148,50.54144]}},{"type":"Feature","properties":{"label:cs":"10. zastavení křížové cesty u kostela Nejsvětější Trojice v Hostinném","P31":"http://www.wikidata.org/entity/Q14552192","P31^label:cs":"Kaplička","P131^label:cs":"Hostinné","P6736":"31058"},"geometry":{"type":"Point","coordinates":[15.72066,50.54153]}},{"type":"Feature","properties":{"label:cs":"11. zastavení křížové cesty u kostela Nejsvětější Trojice v Hostinném","P31":"http://www.wikidata.org/entity/Q14552192","P31^label:cs":"Kaplička","P131^label:cs":"Hostinné","P6736":"31059"},"geometry":{"type":"Point","coordinates":[15.72067,50.54157]}},{"type":"Feature","properties":{"label:cs":"12. zastavení křížové cesty u kostela Nejsvětější Trojice v Hostinném","P31":"http://www.wikidata.org/entity/Q14552192","P31^label:cs":"Kaplička","P131^label:cs":"Hostinné","P6736":"31060"},"geometry":{"type":"Point","coordinates":[15.72069,50.54162]}},{"type":"Feature","properties":{"label:cs":"13. zastavení křížové cesty u kostela Nejsvětější Trojice v Hostinném","P31":"http://www.wikidata.org/entity/Q14552192","P31^label:cs":"Kaplička","P131^label:cs":"Hostinné","P6736":"31061"},"geometry":{"type":"Point","coordinates":[15.72071,50.54166]}},{"type":"Feature","properties":{"label:cs":"14. zastavení křížové cesty u kostela Nejsvětější Trojice v Hostinném","P31":"http://www.wikidata.org/entity/Q14552192","P31^label:cs":"Kaplička","P131^label:cs":"Hostinné","P6736":"31062"},"geometry":{"type":"Point","coordinates":[15.72075,50.54172]}}]}