{"type":"FeatureCollection","features":[{"type":"Feature","properties":{"label:cs":"Pomník padlým z rakouského 61.pěšího pluku v bitvě 1866 u silnice z Čistěvsi do Mlékojed","P31":"http://www.wikidata.org/entity/Q575759","P31^label:cs":"Pomník padlým","P131^label:cs":"Čistěves","P6736":"16520"},"geometry":{"type":"Point","coordinates":[15.73736,50.29195]}},{"type":"Feature","properties":{"label:cs":"Pomník poručíka Franze Arthura padlého v bitvě 1866 u silnice z Čistěvsi do Mlékojed","P31":"http://www.wikidata.org/entity/Q575759","P31^label:cs":"Pomník padlým","P131^label:cs":"Čistěves","P6736":"16519"},"geometry":{"type":"Point","coordinates":[15.7336,50.29145]}},{"type":"Feature","properties":{"label:cs":"Pomníky padlým z 6.uherského pěšího pluku v bitvě 1866 u silnice z Čistěvsi do Mlékojed","P31":"http://www.wikidata.org/entity/Q575759","P31^label:cs":"Pomník padlým","P131^label:cs":"Čistěves","P6736":"16518"},"geometry":{"type":"Point","coordinates":[15.7336,50.29154]}},{"type":"Feature","properties":{"label:cs":"Pomník pruského vojáka Richarda Wieganda padlého v bitvě 1866 v lese Svíb u Čistěvsi","P31":"http://www.wikidata.org/entity/Q575759","P31^label:cs":"Pomník padlým","P131^label:cs":"Čistěves","P6736":"16516"},"geometry":{"type":"Point","coordinates":[15.73273,50.29433]}},{"type":"Feature","properties":{"label:cs":"Pomník plukovníka Carla Poeckha padlého v bitvě 1866 v lese Svíb u Čistěvsi","P31":"http://www.wikidata.org/entity/Q575759","P31^label:cs":"Pomník padlým","P131^label:cs":"Čistěves","P6736":"16515"},"geometry":{"type":"Point","coordinates":[15.73254,50.29509]}},{"type":"Feature","properties":{"label:cs":"Pomník nadporučíka Edmunda z Uhle padlého v bitvě 1866 v lese Svíb u Máslojed","P31":"http://www.wikidata.org/entity/Q575759","P31^label:cs":"Pomník padlým","P131^label:cs":"Máslojedy","P6736":"16514"},"geometry":{"type":"Point","coordinates":[15.73253,50.29542]}},{"type":"Feature","properties":{"label:cs":"Pomník padlým z rakouského 51.pěšího pluku v bitvě 1866 v lese Svíb u Máslojed","P31":"http://www.wikidata.org/entity/Q575759","P31^label:cs":"Pomník padlým","P131^label:cs":"Máslojedy","P6736":"16484"},"geometry":{"type":"Point","coordinates":[15.73822,50.29738]}},{"type":"Feature","properties":{"label:cs":"Pomník padlým z rakouského 30.praporu polních myslivců v bitvě 1866 v lese Svíb u Máslojed","P31":"http://www.wikidata.org/entity/Q575759","P31^label:cs":"Pomník padlým","P131^label:cs":"Máslojedy","P6736":"16482"},"geometry":{"type":"Point","coordinates":[15.74079,50.29729]}},{"type":"Feature","properties":{"label:cs":"Pomník padlému pruskému nadporučíkovi Leopoldu Schmidtovi v bitvě 1866 v lese Svíb u Máslojed","P31":"http://www.wikidata.org/entity/Q575759","P31^label:cs":"Pomník padlým","P131^label:cs":"Máslojedy","P6736":"16480"},"geometry":{"type":"Point","coordinates":[15.74217,50.29711]}},{"type":"Feature","properties":{"label:cs":"Pomník padlým z rakouského 67.pěšího pluku v bitvě 1866 ve východním cípu lesa Svíb u Máslojed","P31":"http://www.wikidata.org/entity/Q575759","P31^label:cs":"Pomník padlým","P131^label:cs":"Máslojedy","P6736":"16473"},"geometry":{"type":"Point","coordinates":[15.7452,50.29648]}},{"type":"Feature","properties":{"label:cs":"Pomník padlým z rakouského 11.praporu polních myslivců v bitvě 1866 ve východním cípu lesa Svíb u Máslojed","P31":"http://www.wikidata.org/entity/Q575759","P31^label:cs":"Pomník padlým","P131^label:cs":"Máslojedy","P6736":"16472"},"geometry":{"type":"Point","coordinates":[15.74527,50.29654]}},{"type":"Feature","properties":{"label:cs":"Pomník u místa pohřbených padlých rakouských a pruských vojáků v bitvě 1866 v lese Svíb u Máslojed","P31":"http://www.wikidata.org/entity/Q575759","P31^label:cs":"Pomník padlým","P131^label:cs":"Máslojedy","P6736":"16471"},"geometry":{"type":"Point","coordinates":[15.74509,50.29619]}},{"type":"Feature","properties":{"label:cs":"Pomník padlým z rakouského 13.praporu polních myslivců v bitvě 1866 v lese Svíb u Máslojed","P31":"http://www.wikidata.org/entity/Q575759","P31^label:cs":"Pomník padlým","P131^label:cs":"Máslojedy","P6736":"16463"},"geometry":{"type":"Point","coordinates":[15.74461,50.29489]}},{"type":"Feature","properties":{"label:cs":"Pomník padlým z rakouského 26.pěšího pluku v bitvě 1866 v lese Svíb u Čistěvsi","P31":"http://www.wikidata.org/entity/Q575759","P31^label:cs":"Pomník padlým","P131^label:cs":"Čistěves","P6736":"16458"},"geometry":{"type":"Point","coordinates":[15.74286,50.29366]}},{"type":"Feature","properties":{"label:cs":"Pomník padlým 400 rakouským a pruským vojákům v bitvě 1866 v lese Svíb u Máslojed","P31":"http://www.wikidata.org/entity/Q575759","P31^label:cs":"Pomník padlým","P131^label:cs":"Máslojedy","P6736":"16457"},"geometry":{"type":"Point","coordinates":[15.74168,50.29386]}},{"type":"Feature","properties":{"label:cs":"Pomník padlým z pruského 4.magdeburského pěšího pluku v bitvě 1866 v lese Svíb u Čistěvsi","P31":"http://www.wikidata.org/entity/Q575759","P31^label:cs":"Pomník padlým","P131^label:cs":"Čistěves","P6736":"16456"},"geometry":{"type":"Point","coordinates":[15.73518,50.29448]}},{"type":"Feature","properties":{"label:cs":"Pomník rakouského 8. praporu polních myslivců u Čistěvsi","P31":"http://www.wikidata.org/entity/Q5003624","P31^label:cs":"Památník","P131^label:cs":"Čistěves","P6736":"9275"},"geometry":{"type":"Point","coordinates":[15.73268,50.29433]}}]}