{"type":"FeatureCollection","features":[{"type":"Feature","properties":{"label:cs":"Švédský kříž v Sobíňově","P31":"http://www.wikidata.org/entity/Q2309609","P31^label:cs":"Pamětní kříž","P131^label:cs":"Sobíňov","P6736":"34090"},"geometry":{"type":"Point","coordinates":[15.76882,49.70257]}},{"type":"Feature","properties":{"label:cs":"Památník 20. výročí turistických pochodů v Sobíňově","P31":"http://www.wikidata.org/entity/Q5003624","P31^label:cs":"Památník","P131^label:cs":"Sobíňov","P6736":"34089"},"geometry":{"type":"Point","coordinates":[15.7663,49.70082]}},{"type":"Feature","properties":{"label:cs":"Památník vzniku Československa v Sobíňově","P31":"http://www.wikidata.org/entity/Q5003624","P31^label:cs":"Památník","P131^label:cs":"Sobíňov","P6736":"34087"},"geometry":{"type":"Point","coordinates":[15.76958,49.69879]}},{"type":"Feature","properties":{"label:cs":"Kříž u hřiště v Sobíňově","P31":"http://www.wikidata.org/entity/Q2309609","P31^label:cs":"Pamětní kříž","P131^label:cs":"Sobíňov","P6736":"34086"},"geometry":{"type":"Point","coordinates":[15.76515,49.69913]}},{"type":"Feature","properties":{"label:cs":"Pamětní deska nad vstupem kostela v Sobíňově","P31":"http://www.wikidata.org/entity/Q721747","P31^label:cs":"Pamětní deska","P131^label:cs":"Sobíňov","P6736":"34085"},"geometry":{"type":"Point","coordinates":[15.75764,49.69787]}},{"type":"Feature","properties":{"label:cs":"Kříž s pamětní destičkou na hřbitově u kostela v Sobíňově","P31":"http://www.wikidata.org/entity/Q2309609","P31^label:cs":"Pamětní kříž","P131^label:cs":"Sobíňov","P6736":"34084"},"geometry":{"type":"Point","coordinates":[15.75769,49.69795]}},{"type":"Feature","properties":{"label:cs":"Kaple na hřbitově u kostela v Sobíňově","P31":"http://www.wikidata.org/entity/Q14552192","P31^label:cs":"Kaplička","P131^label:cs":"Sobíňov","P6736":"34083"},"geometry":{"type":"Point","coordinates":[15.7575,49.69795]}},{"type":"Feature","properties":{"label:cs":"Památník 17. listopadu 1989 na hřbitově u kostela v Sobíňově","P31":"http://www.wikidata.org/entity/Q5003624","P31^label:cs":"Památník","P131^label:cs":"Sobíňov","P6736":"34082"},"geometry":{"type":"Point","coordinates":[15.75758,49.69791]}},{"type":"Feature","properties":{"label:cs":"Pamětní deska pohřbeným na hřbitově u kostela v Sobíňově","P31":"http://www.wikidata.org/entity/Q721747","P31^label:cs":"Pamětní deska","P131^label:cs":"Sobíňov","P6736":"34081"},"geometry":{"type":"Point","coordinates":[15.75791,49.6982]}},{"type":"Feature","properties":{"label:cs":"Kříž před kostelem v Sobíňově","P31":"http://www.wikidata.org/entity/Q2309609","P31^label:cs":"Pamětní kříž","P131^label:cs":"Sobíňov","P6736":"34080"},"geometry":{"type":"Point","coordinates":[15.75807,49.6982]}},{"type":"Feature","properties":{"label:cs":"Kříž Jakuba Fichmanse v Sobíňově","P31":"http://www.wikidata.org/entity/Q2309609","P31^label:cs":"Pamětní kříž","P131^label:cs":"Sobíňov","P6736":"34079"},"geometry":{"type":"Point","coordinates":[15.7607,49.69859]}},{"type":"Feature","properties":{"label:cs":"Pomník padlým v 1. světové válce v Sobíňově","P31":"http://www.wikidata.org/entity/Q575759","P31^label:cs":"Pomník padlým","P131^label:cs":"Sobíňov","P6736":"34078"},"geometry":{"type":"Point","coordinates":[15.76104,49.69851]}},{"type":"Feature","properties":{"label:cs":"Kříž na novém hřbitově v Sobíňově","P31":"http://www.wikidata.org/entity/Q2309609","P31^label:cs":"Pamětní kříž","P131^label:cs":"Sobíňov","P6736":"34077"},"geometry":{"type":"Point","coordinates":[15.76104,49.69939]}},{"type":"Feature","properties":{"label:cs":"Hraniční kámen u hřbitova v Sobíňově","P31":"http://www.wikidata.org/entity/Q921099","P31^label:cs":"Hraniční kámen","P131^label:cs":"Sobíňov","P6736":"34076"},"geometry":{"type":"Point","coordinates":[15.7618,49.6987]}},{"type":"Feature","properties":{"label:cs":"Kříž u evangelického hřbitova v Sobíňově","P31":"http://www.wikidata.org/entity/Q2309609","P31^label:cs":"Pamětní kříž","P131^label:cs":"Sobíňov","P6736":"34075"},"geometry":{"type":"Point","coordinates":[15.76162,49.69852]}},{"type":"Feature","properties":{"label:cs":"Pomník obětem 2. světové války v Sobíňově","P31":"http://www.wikidata.org/entity/Q575759","P31^label:cs":"Pomník padlým","P131^label:cs":"Sobíňov","P6736":"34074"},"geometry":{"type":"Point","coordinates":[15.76242,49.69873]}}]}