{"type":"FeatureCollection","features":[{"type":"Feature","properties":{"label:cs":"Památník vítězství nad fašismem ve Věžnici","P31":"http://www.wikidata.org/entity/Q4989906","P31^label:cs":"Pomník","P131^label:cs":"Věžnice","P6736":"34429"},"geometry":{"type":"Point","coordinates":[15.76385,49.40354]}},{"type":"Feature","properties":{"label:cs":"Pomník 10. výročí založení Československa ve Věžnici","P31":"http://www.wikidata.org/entity/Q4989906","P31^label:cs":"Pomník","P131^label:cs":"Věžnice","P6736":"34428"},"geometry":{"type":"Point","coordinates":[15.76378,49.40357]}},{"type":"Feature","properties":{"label:cs":"Památník milénia ve Věžnici","P31":"http://www.wikidata.org/entity/Q5003624","P31^label:cs":"Památník","P131^label:cs":"Věžnice","P6736":"19557"},"geometry":{"type":"Point","coordinates":[15.76033,49.40718]}},{"type":"Feature","properties":{"label:cs":"Zvonička ve Věžnici","P31":"http://www.wikidata.org/entity/Q10861631","P31^label:cs":"Zvonička","P131^label:cs":"Věžnice","P6736":"19556"},"geometry":{"type":"Point","coordinates":[15.76018,49.4071]}},{"type":"Feature","properties":{"label:cs":"Sousoší svatého Jana Nepomuckého a Panny Marie ve Věžnici","P31":"http://www.wikidata.org/entity/Q179700","P31^label:cs":"Socha","P131^label:cs":"Věžnice","P6736":"19555"},"geometry":{"type":"Point","coordinates":[15.75927,49.40683]}}]}