{"type":"FeatureCollection","features":[{"type":"Feature","properties":{"label:cs":"Památník bratranců Veverkových v Pardubicích","P31":"http://www.wikidata.org/entity/Q5003624","P31^label:cs":"Památník","P131^label:cs":"Pardubice","P6736":"9344"},"geometry":{"type":"Point","coordinates":[15.77144,50.03507]}},{"type":"Feature","properties":{"label:cs":"Socha Jana Pernera u hlavního nádraží v Pardubicích","P31":"http://www.wikidata.org/entity/Q179700","P31^label:cs":"Socha","P131^label:cs":"Pardubice","P6736":"19369"},"geometry":{"type":"Point","coordinates":[15.75727,50.03265]}},{"type":"Feature","properties":{"label:cs":"Pomník prvního vzletu Jana Kašpara na náměstí Dukelských hrdinů v Pardubicích","P31":"http://www.wikidata.org/entity/Q4989906","P31^label:cs":"Pomník","P131^label:cs":"Pardubice","P6736":"19371"},"geometry":{"type":"Point","coordinates":[15.75895,50.02319]}},{"type":"Feature","properties":{"label:cs":"Socha svatého Jana Nepomuckého v Pardubicích před kostelem svatého Jana Křtitele","P31":"http://www.wikidata.org/entity/Q179700","P31^label:cs":"Socha","P131^label:cs":"Pardubice","P6736":"14096"},"geometry":{"type":"Point","coordinates":[15.77128,50.03595]}},{"type":"Feature","properties":{"label:cs":"Plastika Chemik v Pardubicích na Palackého třídě","P31":"http://www.wikidata.org/entity/Q12045520","P31^label:cs":"Plastika","P131^label:cs":"Pardubice","P6736":"14564"},"geometry":{"type":"Point","coordinates":[15.76705,50.03564]}},{"type":"Feature","properties":{"label:cs":"Pomník Tomáše Garrigue Masaryka v Pardubicích na náměstí Československých legií","P31":"http://www.wikidata.org/entity/Q4989906","P31^label:cs":"Pomník","P131^label:cs":"Pardubice","P6736":"14565"},"geometry":{"type":"Point","coordinates":[15.76754,50.0342]}},{"type":"Feature","properties":{"label:cs":"Socha Panny Marie Karlovské v Pardubicích u kostela svatého Jana Křtitele","P31":"http://www.wikidata.org/entity/Q179700","P31^label:cs":"Socha","P131^label:cs":"Pardubice","P6736":"14566"},"geometry":{"type":"Point","coordinates":[15.77111,50.03565]}},{"type":"Feature","properties":{"label:cs":"Pomník československým letcům a parašutistům na náměstí Dukelských hrdinů v Pardubicích","P31":"http://www.wikidata.org/entity/Q4989906","P31^label:cs":"Pomník","P131^label:cs":"Pardubice","P6736":"19370"},"geometry":{"type":"Point","coordinates":[15.7588,50.02474]}},{"type":"Feature","properties":{"label:cs":"Pomník padlým na Zborovském náměstí v Pardubicích","P31":"http://www.wikidata.org/entity/Q575759","P31^label:cs":"Pomník padlým","P131^label:cs":"Pardubice","P6736":"19372"},"geometry":{"type":"Point","coordinates":[15.77197,50.02223]}},{"type":"Feature","properties":{"label:cs":"Kaple svatého Václava u školy v Kašparově ulici v Pardubicích","P31":"http://www.wikidata.org/entity/Q108325","P31^label:cs":"Kaple","P131^label:cs":"Pardubice","P6736":"19373"},"geometry":{"type":"Point","coordinates":[15.77044,50.02195]}}]}