{"type":"FeatureCollection","features":[{"type":"Feature","properties":{"label:cs":"Pamětní kříž západně od Chotěborek","P31":"http://www.wikidata.org/entity/Q2309609","P31^label:cs":"Pamětní kříž","P131^label:cs":"Vilantice","P6736":"34756"},"geometry":{"type":"Point","coordinates":[15.78364,50.36052]}},{"type":"Feature","properties":{"label:cs":"Pamětní deska v Chotěborkách","P31":"http://www.wikidata.org/entity/Q721747","P31^label:cs":"Pamětní deska","P131^label:cs":"Vilantice","P6736":"34755"},"geometry":{"type":"Point","coordinates":[15.78815,50.35994]}},{"type":"Feature","properties":{"label:cs":"Sloup se sochou Jana Nepomuckého v Chotěborkách","P31":"http://www.wikidata.org/entity/Q4817","P31^label:cs":"Sloup","P131^label:cs":"Vilantice","P6736":"34754"},"geometry":{"type":"Point","coordinates":[15.78849,50.35993]}},{"type":"Feature","properties":{"label:cs":"Socha Ježíše Krista v Chotěborkách","P31":"http://www.wikidata.org/entity/Q179700","P31^label:cs":"Socha","P131^label:cs":"Vilantice","P6736":"34753"},"geometry":{"type":"Point","coordinates":[15.78903,50.3601]}},{"type":"Feature","properties":{"label:cs":"Pamětní kříž v Chotěborkách","P31":"http://www.wikidata.org/entity/Q2309609","P31^label:cs":"Pamětní kříž","P131^label:cs":"Vilantice","P6736":"34751"},"geometry":{"type":"Point","coordinates":[15.78892,50.35988]}}]}