{"type":"FeatureCollection","features":[{"type":"Feature","properties":{"label:cs":"Kříž při zaniklé cestě do Řehořova severně od Kamenice","P31":"http://www.wikidata.org/entity/Q2309609","P31^label:cs":"Pamětní kříž","P131^label:cs":"Kamenice","P6736":"42104"},"geometry":{"type":"Point","coordinates":[15.78705,49.37337]}},{"type":"Feature","properties":{"label:cs":"Výklenková kaplička v Kamenici","P31":"http://www.wikidata.org/entity/Q14552192","P31^label:cs":"Kaplička","P131^label:cs":"Kamenice","P6736":"42088"},"geometry":{"type":"Point","coordinates":[15.78005,49.36845]}},{"type":"Feature","properties":{"label:cs":"Kříž u cesty od nového hřbitova v Kamenici","P31":"http://www.wikidata.org/entity/Q2309609","P31^label:cs":"Pamětní kříž","P131^label:cs":"Kamenice","P6736":"42082"},"geometry":{"type":"Point","coordinates":[15.79201,49.3684]}},{"type":"Feature","properties":{"label:cs":"Kříž u domu č. 352 v Kamenici","P31":"http://www.wikidata.org/entity/Q2309609","P31^label:cs":"Pamětní kříž","P131^label:cs":"Kamenice","P6736":"42043"},"geometry":{"type":"Point","coordinates":[15.77843,49.36831]}},{"type":"Feature","properties":{"label:cs":"Kříž u kaple svatého Jana Nepomuckého v Kameničce","P31":"http://www.wikidata.org/entity/Q2309609","P31^label:cs":"Pamětní kříž","P131^label:cs":"Kamenice","P6736":"42092"},"geometry":{"type":"Point","coordinates":[15.79734,49.37108]}},{"type":"Feature","properties":{"label:cs":"Kaple svatého Jana Nepomuckého v Kameničce","P31":"http://www.wikidata.org/entity/Q2309609","P31^label:cs":"Pamětní kříž","P131^label:cs":"Kamenice","P6736":"42091"},"geometry":{"type":"Point","coordinates":[15.79728,49.3711]}},{"type":"Feature","properties":{"label:cs":"Kříž u silnice mezi Kamenicí a Kameničkou","P31":"http://www.wikidata.org/entity/Q2309609","P31^label:cs":"Pamětní kříž","P131^label:cs":"Kamenice","P6736":"42090"},"geometry":{"type":"Point","coordinates":[15.79408,49.36954]}}]}