{"type":"FeatureCollection","features":[{"type":"Feature","properties":{"label:cs":"Kříž Josefa Nováčka v Kameničce","P31":"http://www.wikidata.org/entity/Q2309609","P31^label:cs":"Pamětní kříž","P131^label:cs":"Kamenice","P6736":"42103"},"geometry":{"type":"Point","coordinates":[15.80483,49.37131]}},{"type":"Feature","properties":{"label:cs":"Kříž u silnice na východním okraji Kameničky","P31":"http://www.wikidata.org/entity/Q2309609","P31^label:cs":"Pamětní kříž","P131^label:cs":"Kamenice","P6736":"42102"},"geometry":{"type":"Point","coordinates":[15.81013,49.37412]}},{"type":"Feature","properties":{"label:cs":"Pamětní kříž katolického sjezdu v roce 1935 v Kameničce","P31":"http://www.wikidata.org/entity/Q2309609","P31^label:cs":"Pamětní kříž","P131^label:cs":"Kamenice","P6736":"42101"},"geometry":{"type":"Point","coordinates":[15.8079,49.37463]}},{"type":"Feature","properties":{"label:cs":"Kříž při cestě k lesu Březina v Kameničce","P31":"http://www.wikidata.org/entity/Q2309609","P31^label:cs":"Pamětní kříž","P131^label:cs":"Kamenice","P6736":"42100"},"geometry":{"type":"Point","coordinates":[15.8121,49.37537]}},{"type":"Feature","properties":{"label:cs":"Kříž v jihovýchodním cípu lesa Březina v Kameničce","P31":"http://www.wikidata.org/entity/Q2309609","P31^label:cs":"Pamětní kříž","P131^label:cs":"Kamenice","P6736":"42099"},"geometry":{"type":"Point","coordinates":[15.81871,49.37584]}},{"type":"Feature","properties":{"label:cs":"Kříž v jihozápadním cípu lesa Březina v Kameničce","P31":"http://www.wikidata.org/entity/Q2309609","P31^label:cs":"Pamětní kříž","P131^label:cs":"Kamenice","P6736":"42098"},"geometry":{"type":"Point","coordinates":[15.81478,49.37549]}},{"type":"Feature","properties":{"label:cs":"Kříž Františka Dočekala v Kameničce","P31":"http://www.wikidata.org/entity/Q2309609","P31^label:cs":"Pamětní kříž","P131^label:cs":"Kamenice","P6736":"42097"},"geometry":{"type":"Point","coordinates":[15.81356,49.37335]}},{"type":"Feature","properties":{"label:cs":"Kříž rodiny Masterovy v Kameničce","P31":"http://www.wikidata.org/entity/Q2309609","P31^label:cs":"Pamětní kříž","P131^label:cs":"Kamenice","P6736":"42096"},"geometry":{"type":"Point","coordinates":[15.8038,49.37579]}},{"type":"Feature","properties":{"label:cs":"Kříž Jana Jonáše v Kameničce","P31":"http://www.wikidata.org/entity/Q2309609","P31^label:cs":"Pamětní kříž","P131^label:cs":"Kamenice","P6736":"42095"},"geometry":{"type":"Point","coordinates":[15.80373,49.37347]}},{"type":"Feature","properties":{"label:cs":"Zvonička na návsi v Kameničce","P31":"http://www.wikidata.org/entity/Q10861631","P31^label:cs":"Zvonička","P131^label:cs":"Kamenice","P6736":"42094"},"geometry":{"type":"Point","coordinates":[15.80297,49.37266]}},{"type":"Feature","properties":{"label:cs":"Kříž na návsi v Kameničce","P31":"http://www.wikidata.org/entity/Q2309609","P31^label:cs":"Pamětní kříž","P131^label:cs":"Kamenice","P6736":"42093"},"geometry":{"type":"Point","coordinates":[15.80295,49.37267]}}]}