{"type":"FeatureCollection","features":[{"type":"Feature","properties":{"label:cs":"Kaple v Úhřeticích","P31":"http://www.wikidata.org/entity/Q108325","P31^label:cs":"Kaple","P131^label:cs":"Úhřetice","P6736":"21007"},"geometry":{"type":"Point","coordinates":[15.86671,49.97913]}},{"type":"Feature","properties":{"label:cs":"Pomník padlým v Úhřeticích","P31":"http://www.wikidata.org/entity/Q575759","P31^label:cs":"Pomník padlým","P131^label:cs":"Úhřetice","P6736":"21006"},"geometry":{"type":"Point","coordinates":[15.86697,49.97844]}},{"type":"Feature","properties":{"label:cs":"Kříž v Úhřeticích jihozápadní okraj obce","P31":"http://www.wikidata.org/entity/Q2309609","P31^label:cs":"Pamětní kříž","P131^label:cs":"Úhřetice","P6736":"21005"},"geometry":{"type":"Point","coordinates":[15.86813,49.97654]}},{"type":"Feature","properties":{"label:cs":"Socha svatého Jeronýma ve Vejvanovcích na stěně zvonice","P31":"http://www.wikidata.org/entity/Q179700","P31^label:cs":"Socha","P131^label:cs":"Vejvanovice","P6736":"21004"},"geometry":{"type":"Point","coordinates":[15.87718,49.97046]}},{"type":"Feature","properties":{"label:cs":"Kříž ve Vejvanovicích u kostela","P31":"http://www.wikidata.org/entity/Q2309609","P31^label:cs":"Pamětní kříž","P131^label:cs":"Vejvanovice","P6736":"21003"},"geometry":{"type":"Point","coordinates":[15.87795,49.97016]}},{"type":"Feature","properties":{"label:cs":"Kaplička ve Vejvanovicích u kostela","P31":"http://www.wikidata.org/entity/Q14552192","P31^label:cs":"Kaplička","P131^label:cs":"Vejvanovice","P6736":"21002"},"geometry":{"type":"Point","coordinates":[15.87839,49.97009]}}]}