{"type":"FeatureCollection","features":[{"type":"Feature","properties":{"label:cs":"Plastika Růže u polikliniky ve Vltavínské ulici v Třebíči","P31":"http://www.wikidata.org/entity/Q12045520","P31^label:cs":"Plastika","P131^label:cs":"Třebíč","P6736":"38874"},"geometry":{"type":"Point","coordinates":[15.87926,49.20413]}},{"type":"Feature","properties":{"label:cs":"Kříž v ulici Svatopluka Čecha v Třebíči","P31":"http://www.wikidata.org/entity/Q2309609","P31^label:cs":"Pamětní kříž","P131^label:cs":"Třebíč","P6736":"38872"},"geometry":{"type":"Point","coordinates":[15.8807,49.20963]}},{"type":"Feature","properties":{"label:cs":"Pamětní deska Josefu Vaňkovi v Třebíči","P31":"http://www.wikidata.org/entity/Q721747","P31^label:cs":"Pamětní deska","P131^label:cs":"Třebíč","P6736":"38866"},"geometry":{"type":"Point","coordinates":[15.88441,49.21016]}},{"type":"Feature","properties":{"label:cs":"Památník osvobození Třebíče na Znojemské ulici","P31":"http://www.wikidata.org/entity/Q5003624","P31^label:cs":"Památník","P131^label:cs":"Třebíč","P6736":"38865"},"geometry":{"type":"Point","coordinates":[15.88478,49.20987]}},{"type":"Feature","properties":{"label:cs":"Boží muka na Znojemské ulici v Třebíči","P31":"http://www.wikidata.org/entity/Q3395121","P31^label:cs":"Boží muka","P131^label:cs":"Třebíč","P6736":"38863"},"geometry":{"type":"Point","coordinates":[15.8861,49.20807]}},{"type":"Feature","properties":{"label:cs":"Kovářský kámen na Znojemské ulici v Třebíči","P31":"http://www.wikidata.org/entity/Q38411643","P31^label:cs":"Křížový kámen","P131^label:cs":"Třebíč","P6736":"38861"},"geometry":{"type":"Point","coordinates":[15.88603,49.20808]}},{"type":"Feature","properties":{"label:cs":"Plastika na Znojemské ulici v Třebíči","P31":"http://www.wikidata.org/entity/Q12045520","P31^label:cs":"Plastika","P131^label:cs":"Třebíč","P6736":"38656"},"geometry":{"type":"Point","coordinates":[15.8862,49.20762]}},{"type":"Feature","properties":{"label:cs":"Sousoší Rodina na Václavském náměstí v Třebíči","P31":"http://www.wikidata.org/entity/Q179700","P31^label:cs":"Socha","P131^label:cs":"Třebíč","P6736":"38654"},"geometry":{"type":"Point","coordinates":[15.87957,49.20704]}},{"type":"Feature","properties":{"label:cs":"Pomník obětem komunistické totality na Václavském náměstí v Třebíči","P31":"http://www.wikidata.org/entity/Q4989906","P31^label:cs":"Pomník","P131^label:cs":"Třebíč","P6736":"38653"},"geometry":{"type":"Point","coordinates":[15.87992,49.20751]}},{"type":"Feature","properties":{"label:cs":"Kaplička na Václavském náměstí v Třebíči","P31":"http://www.wikidata.org/entity/Q14552192","P31^label:cs":"Kaplička","P131^label:cs":"Třebíč","P6736":"38652"},"geometry":{"type":"Point","coordinates":[15.88004,49.20785]}},{"type":"Feature","properties":{"label:cs":"Kaplička v Libušině údolí v Třebíči","P31":"http://www.wikidata.org/entity/Q14552192","P31^label:cs":"Kaplička","P131^label:cs":"Třebíč","P6736":"38580"},"geometry":{"type":"Point","coordinates":[15.86917,49.20734]}},{"type":"Feature","properties":{"label:cs":"Tři kříže na Strážné hoře západně od kaple svatého Jana Nepomuckého v Třebíči","P31":"http://www.wikidata.org/entity/Q2309609","P31^label:cs":"Pamětní kříž","P131^label:cs":"Třebíč","P6736":"29331"},"geometry":{"type":"Point","coordinates":[15.87327,49.20974]}},{"type":"Feature","properties":{"label:cs":"Kaple svatého Jana Nepomuckého v Třebíči","P31":"http://www.wikidata.org/entity/Q108325","P31^label:cs":"Kaple","P131^label:cs":"Třebíč","P6736":"28939"},"geometry":{"type":"Point","coordinates":[15.87363,49.20972]}}]}