{"type":"FeatureCollection","features":[{"type":"Feature","properties":{"label:cs":"Kříž v Brněnské ulici v Třebíči","P31":"http://www.wikidata.org/entity/Q2309609","P31^label:cs":"Pamětní kříž","P131^label:cs":"Třebíč","P6736":"38634"},"geometry":{"type":"Point","coordinates":[15.8996,49.21662]}},{"type":"Feature","properties":{"label:cs":"Kříž v ulici Branka v Třebíči","P31":"http://www.wikidata.org/entity/Q2309609","P31^label:cs":"Pamětní kříž","P131^label:cs":"Třebíč","P6736":"38633"},"geometry":{"type":"Point","coordinates":[15.89137,49.2173]}},{"type":"Feature","properties":{"label:cs":"Podezdívka bývalé šibenice u sídliště Nové Dvory","P31":"http://www.wikidata.org/entity/?","P31^label:cs":"Něco jiného","P131^label:cs":"Třebíč","P6736":"38631"},"geometry":{"type":"Point","coordinates":[15.90027,49.21938]}},{"type":"Feature","properties":{"label:cs":"Keramická plastika v atriu obchodního střediska na sídlišti Nové Dvory","P31":"http://www.wikidata.org/entity/Q12045520","P31^label:cs":"Plastika","P131^label:cs":"Třebíč","P6736":"38630"},"geometry":{"type":"Point","coordinates":[15.89234,49.21876]}},{"type":"Feature","properties":{"label:cs":"Boží muka nad Novými Dvory","P31":"http://www.wikidata.org/entity/Q3395121","P31^label:cs":"Boží muka","P131^label:cs":"Třebíč","P6736":"38629"},"geometry":{"type":"Point","coordinates":[15.89845,49.22285]}},{"type":"Feature","properties":{"label:cs":"Kříž v Křížové ulici v Třebíči","P31":"http://www.wikidata.org/entity/Q2309609","P31^label:cs":"Pamětní kříž","P131^label:cs":"Třebíč","P6736":"38593"},"geometry":{"type":"Point","coordinates":[15.88902,49.21516]}},{"type":"Feature","properties":{"label:cs":"Kaple svatých Petra a Pavla v Třebíči","P31":"http://www.wikidata.org/entity/Q14552192","P31^label:cs":"Kaplička","P131^label:cs":"Třebíč","P6736":"38591"},"geometry":{"type":"Point","coordinates":[15.88723,49.21418]}}]}