{"type":"FeatureCollection","features":[{"type":"Feature","properties":{"label:cs":"Pomník železničářů u nádraží v Jaroměři","P31":"http://www.wikidata.org/entity/Q4989906","P31^label:cs":"Pomník","P131^label:cs":"Jaroměř","P6736":"42223"},"geometry":{"type":"Point","coordinates":[15.9091,50.34215]}},{"type":"Feature","properties":{"label:cs":"Smírčí kříž v Josefově","P31":"http://www.wikidata.org/entity/Q1640496","P31^label:cs":"Smírčí kříž","P131^label:cs":"Jaroměř","P6736":"42227"},"geometry":{"type":"Point","coordinates":[15.91531,50.33613]}},{"type":"Feature","properties":{"label:cs":"Pomník Emanuela Merty nad pevností Josefov","P31":"http://www.wikidata.org/entity/Q4989906","P31^label:cs":"Pomník","P131^label:cs":"Jaroměř","P6736":"42226"},"geometry":{"type":"Point","coordinates":[15.92319,50.33905]}},{"type":"Feature","properties":{"label:cs":"Obelisk knížete Karla de Ligne v Josefově","P31":"http://www.wikidata.org/entity/Q4989906","P31^label:cs":"Pomník","P131^label:cs":"Jaroměř","P6736":"42225"},"geometry":{"type":"Point","coordinates":[15.91663,50.33673]}},{"type":"Feature","properties":{"label:cs":"Socha císaře Josefa II před městským muzeem v Josefově","P31":"http://www.wikidata.org/entity/Q179700","P31^label:cs":"Socha","P131^label:cs":"Jaroměř","P6736":"25795"},"geometry":{"type":"Point","coordinates":[15.92626,50.33775]}}]}