{"type":"FeatureCollection","features":[{"type":"Feature","properties":{"label:cs":"Památník Adolfa Švadlenky v Blížňovicích u kostela svatého Vojtěcha","P31":"http://www.wikidata.org/entity/Q5003624","P31^label:cs":"Památník","P131^label:cs":"Hrochův Týnec","P6736":"27515"},"geometry":{"type":"Point","coordinates":[15.95119,49.95367]}},{"type":"Feature","properties":{"label:cs":"Pomník padlým v 1 světové válce v Blížňovicích u kostela svatého Vojtěcha","P31":"http://www.wikidata.org/entity/Q575759","P31^label:cs":"Pomník padlým","P131^label:cs":"Hrochův Týnec","P6736":"27514"},"geometry":{"type":"Point","coordinates":[15.95113,49.95369]}},{"type":"Feature","properties":{"label:cs":"Kříž v Čankovicích","P31":"http://www.wikidata.org/entity/Q2309609","P31^label:cs":"Pamětní kříž","P131^label:cs":"Čankovice","P6736":"27510"},"geometry":{"type":"Point","coordinates":[15.93635,49.96313]}},{"type":"Feature","properties":{"label:cs":"Pomník padlým v 1 světové válce v Čankovicích","P31":"http://www.wikidata.org/entity/Q575759","P31^label:cs":"Pomník padlým","P131^label:cs":"Čankovice","P6736":"21070"},"geometry":{"type":"Point","coordinates":[15.93871,49.96472]}},{"type":"Feature","properties":{"label:cs":"Kaple Proměnění Páně v Čankovicích","P31":"http://www.wikidata.org/entity/Q108325","P31^label:cs":"Kaple","P131^label:cs":"Čankovice","P6736":"21069"},"geometry":{"type":"Point","coordinates":[15.93744,49.96349]}}]}