{"type":"FeatureCollection","features":[{"type":"Feature","properties":{"label:cs":"Kříž u severního okraje Hnanic","P31":"http://www.wikidata.org/entity/Q2309609","P31^label:cs":"Pamětní kříž","P131^label:cs":"Hnanice","P6736":"26238"},"geometry":{"type":"Point","coordinates":[15.99252,48.80038]}},{"type":"Feature","properties":{"label:cs":"Kaplička svatého Urbana severně od Hnanic","P31":"http://www.wikidata.org/entity/Q14552192","P31^label:cs":"Kaplička","P131^label:cs":"Hnanice","P6736":"26239"},"geometry":{"type":"Point","coordinates":[15.98952,48.80162]}},{"type":"Feature","properties":{"label:cs":"Pomník obětem fašizmu v Hnanicích u hřbitova","P31":"http://www.wikidata.org/entity/Q4989906","P31^label:cs":"Pomník","P131^label:cs":"Hnanice","P6736":"26240"},"geometry":{"type":"Point","coordinates":[15.98897,48.7981]}},{"type":"Feature","properties":{"label:cs":"Sloup se sochou panny Marie v Hnanicích za kostelem","P31":"http://www.wikidata.org/entity/Q4817","P31^label:cs":"Sloup","P131^label:cs":"Hnanice","P6736":"26241"},"geometry":{"type":"Point","coordinates":[15.98724,48.79765]}},{"type":"Feature","properties":{"label:cs":"Kříž v Hnanicích vedle kostela svatého Wolfganga","P31":"http://www.wikidata.org/entity/Q2309609","P31^label:cs":"Pamětní kříž","P131^label:cs":"Hnanice","P6736":"26242"},"geometry":{"type":"Point","coordinates":[15.98754,48.79748]}},{"type":"Feature","properties":{"label:cs":"Boží muka v Hnanicích vedle kostela svatého Wolfganga","P31":"http://www.wikidata.org/entity/Q3395121","P31^label:cs":"Boží muka","P131^label:cs":"Hnanice","P6736":"26243"},"geometry":{"type":"Point","coordinates":[15.98783,48.79719]}},{"type":"Feature","properties":{"label:cs":"Kaplička svaté Anny u jižního okraje Hnanic","P31":"http://www.wikidata.org/entity/Q14552192","P31^label:cs":"Kaplička","P131^label:cs":"Hnanice","P6736":"26244"},"geometry":{"type":"Point","coordinates":[15.9858,48.79561]}}]}