{"type":"FeatureCollection","features":[{"type":"Feature","properties":{"label:cs":"Heldův pomník v Třebechovicích pod Orebem","P31":"http://www.wikidata.org/entity/Q4989906","P31^label:cs":"Pomník","P131^label:cs":"Třebechovice pod Orebem","P6736":"21793"},"geometry":{"type":"Point","coordinates":[15.98554,50.20124]}},{"type":"Feature","properties":{"label:cs":"Pomník padlým v Třebechovicích pod Orebem","P31":"http://www.wikidata.org/entity/Q575759","P31^label:cs":"Pomník padlým","P131^label:cs":"Třebechovice pod Orebem","P6736":"21794"},"geometry":{"type":"Point","coordinates":[15.98719,50.20082]}},{"type":"Feature","properties":{"label:cs":"Pomník Bratrstva orebského a sirotčího na Masarykově náměstí v Třebechovicích pod Orebem","P31":"http://www.wikidata.org/entity/Q4989906","P31^label:cs":"Pomník","P131^label:cs":"Třebechovice pod Orebem","P6736":"21795"},"geometry":{"type":"Point","coordinates":[15.99247,50.20078]}},{"type":"Feature","properties":{"label:cs":"Kašna na Masarykově náměstí v Třebechovicích pod Orebem","P31":"http://www.wikidata.org/entity/Q12029081","P31^label:cs":"Kašna","P131^label:cs":"Třebechovice pod Orebem","P6736":"21796"},"geometry":{"type":"Point","coordinates":[15.99308,50.20076]}},{"type":"Feature","properties":{"label:cs":"Mariánský sloup na Masarykově náměstí v Třebechovicích pod Orebem","P31":"http://www.wikidata.org/entity/Q4817","P31^label:cs":"Sloup","P131^label:cs":"Třebechovice pod Orebem","P6736":"21797"},"geometry":{"type":"Point","coordinates":[15.99355,50.20075]}},{"type":"Feature","properties":{"label:cs":"Socha Nejsvětější Trojice na Masarykově náměstí v Třebechovicích pod Orebem","P31":"http://www.wikidata.org/entity/Q179700","P31^label:cs":"Socha","P131^label:cs":"Třebechovice pod Orebem","P6736":"21798"},"geometry":{"type":"Point","coordinates":[15.99366,50.20108]}},{"type":"Feature","properties":{"label:cs":"Socha lva na Masarykově náměstí v Třebechovicích pod Orebem","P31":"http://www.wikidata.org/entity/Q179700","P31^label:cs":"Socha","P131^label:cs":"Třebechovice pod Orebem","P6736":"21799"},"geometry":{"type":"Point","coordinates":[15.99343,50.20102]}},{"type":"Feature","properties":{"label:cs":"Meteorologický sloup na Masarykově náměstí v Třebechovicích pod Orebem","P31":"http://www.wikidata.org/entity/Q4817","P31^label:cs":"Sloup","P131^label:cs":"Třebechovice pod Orebem","P6736":"21800"},"geometry":{"type":"Point","coordinates":[15.99296,50.201]}},{"type":"Feature","properties":{"label:cs":"Socha poutníka u muzea betlémů v Třebechovicích pod Orebem","P31":"http://www.wikidata.org/entity/Q179700","P31^label:cs":"Socha","P131^label:cs":"Třebechovice pod Orebem","P6736":"21801"},"geometry":{"type":"Point","coordinates":[15.99396,50.20116]}},{"type":"Feature","properties":{"label:cs":"Kříž u kostela svatého Ondřeje v Třebechovicích pod Orebem","P31":"http://www.wikidata.org/entity/Q2309609","P31^label:cs":"Pamětní kříž","P131^label:cs":"Třebechovice pod Orebem","P6736":"21802"},"geometry":{"type":"Point","coordinates":[15.9952,50.20096]}},{"type":"Feature","properties":{"label:cs":"Kříž u hřbitova v Třebechovicích pod Orebem","P31":"http://www.wikidata.org/entity/Q2309609","P31^label:cs":"Pamětní kříž","P131^label:cs":"Třebechovice pod Orebem","P6736":"21805"},"geometry":{"type":"Point","coordinates":[15.99121,50.20302]}}]}