{"type":"FeatureCollection","features":[{"type":"Feature","properties":{"label:cs":"Sousoší Piety západně od Šatova u cesty do Hnanic","P31":"http://www.wikidata.org/entity/Q179700","P31^label:cs":"Socha","P131^label:cs":"Šatov","P6736":"26237"},"geometry":{"type":"Point","coordinates":[15.99742,48.79865]}},{"type":"Feature","properties":{"label:cs":"Sloup se sochou panny Marie v Šatově u hřbitova","P31":"http://www.wikidata.org/entity/Q4817","P31^label:cs":"Sloup","P131^label:cs":"Šatov","P6736":"26236"},"geometry":{"type":"Point","coordinates":[16.00057,48.79647]}},{"type":"Feature","properties":{"label:cs":"Sousoší Piety v Šatově u kostela","P31":"http://www.wikidata.org/entity/Q179700","P31^label:cs":"Socha","P131^label:cs":"Šatov","P6736":"25915"},"geometry":{"type":"Point","coordinates":[16.00774,48.79416]}},{"type":"Feature","properties":{"label:cs":"Socha svatého Floriána v jižní části Šatova","P31":"http://www.wikidata.org/entity/Q179700","P31^label:cs":"Socha","P131^label:cs":"Šatov","P6736":"25914"},"geometry":{"type":"Point","coordinates":[16.0101,48.79241]}},{"type":"Feature","properties":{"label:cs":"Sloup se sochou Panny Marie v Šatově","P31":"http://www.wikidata.org/entity/Q4817","P31^label:cs":"Sloup","P131^label:cs":"Šatov","P6736":"25913"},"geometry":{"type":"Point","coordinates":[16.01669,48.79272]}},{"type":"Feature","properties":{"label:cs":"Kaplička na severním okraji Šatova","P31":"http://www.wikidata.org/entity/Q14552192","P31^label:cs":"Kaplička","P131^label:cs":"Šatov","P6736":"25911"},"geometry":{"type":"Point","coordinates":[16.0071,48.79865]}},{"type":"Feature","properties":{"label:cs":"Boží muka v severní části Šatova","P31":"http://www.wikidata.org/entity/Q3395121","P31^label:cs":"Boží muka","P131^label:cs":"Šatov","P6736":"25910"},"geometry":{"type":"Point","coordinates":[16.00723,48.79527]}},{"type":"Feature","properties":{"label:cs":"Pomník padlým v 1 světové válce v Šatově u kostela","P31":"http://www.wikidata.org/entity/Q575759","P31^label:cs":"Pomník padlým","P131^label:cs":"Šatov","P6736":"25909"},"geometry":{"type":"Point","coordinates":[16.0077,48.79407]}},{"type":"Feature","properties":{"label:cs":"Sloup se sochou svatého Šebestiána v Šatově u kostela","P31":"http://www.wikidata.org/entity/Q4817","P31^label:cs":"Sloup","P131^label:cs":"Šatov","P6736":"25908"},"geometry":{"type":"Point","coordinates":[16.0073,48.79417]}},{"type":"Feature","properties":{"label:cs":"Sloup se sousoším Nejsvětější trojice v Šatově u kostela","P31":"http://www.wikidata.org/entity/Q4817","P31^label:cs":"Sloup","P131^label:cs":"Šatov","P6736":"25907"},"geometry":{"type":"Point","coordinates":[16.00695,48.7944]}},{"type":"Feature","properties":{"label:cs":"Soch svatého Jana Nepomuckého v Šatově u kostela","P31":"http://www.wikidata.org/entity/Q179700","P31^label:cs":"Socha","P131^label:cs":"Šatov","P6736":"25906"},"geometry":{"type":"Point","coordinates":[16.00659,48.79456]}}]}