{"type":"FeatureCollection","features":[{"type":"Feature","properties":{"label:cs":"Výklenková kaplička severně od Popic","P31":"http://www.wikidata.org/entity/Q14552192","P31^label:cs":"Kaplička","P131^label:cs":"Znojmo","P6736":"31171"},"geometry":{"type":"Point","coordinates":[16.017,48.82611]}},{"type":"Feature","properties":{"label:cs":"Boží muka v Popicích","P31":"http://www.wikidata.org/entity/Q3395121","P31^label:cs":"Boží muka","P131^label:cs":"Znojmo","P6736":"31170"},"geometry":{"type":"Point","coordinates":[16.01621,48.82386]}},{"type":"Feature","properties":{"label:cs":"Socha svatého Floriána v Popicích","P31":"http://www.wikidata.org/entity/Q179700","P31^label:cs":"Socha","P131^label:cs":"Znojmo","P6736":"31169"},"geometry":{"type":"Point","coordinates":[16.01523,48.82141]}},{"type":"Feature","properties":{"label:cs":"Centrální kříž na hřbitově v Popicích","P31":"http://www.wikidata.org/entity/Q2309609","P31^label:cs":"Pamětní kříž","P131^label:cs":"Znojmo","P6736":"31168"},"geometry":{"type":"Point","coordinates":[16.01502,48.82195]}},{"type":"Feature","properties":{"label:cs":"Socha svatého Jana Nepomuckého pod Popickým vrchem","P31":"http://www.wikidata.org/entity/Q179700","P31^label:cs":"Socha","P131^label:cs":"Znojmo","P6736":"31167"},"geometry":{"type":"Point","coordinates":[16.01789,48.82806]}}]}