{"type":"FeatureCollection","features":[{"type":"Feature","properties":{"label:cs":"Kříž u kostela v Havraníkách","P31":"http://www.wikidata.org/entity/Q2309609","P31^label:cs":"Pamětní kříž","P131^label:cs":"Havraníky","P6736":"31182"},"geometry":{"type":"Point","coordinates":[16.00822,48.81153]}},{"type":"Feature","properties":{"label:cs":"Sousoší Loučení Krista s Pannou Marií v Havraníkách","P31":"http://www.wikidata.org/entity/Q179700","P31^label:cs":"Socha","P131^label:cs":"Havraníky","P6736":"31181"},"geometry":{"type":"Point","coordinates":[16.00841,48.81147]}},{"type":"Feature","properties":{"label:cs":"Pomník padlým v Havraníkách","P31":"http://www.wikidata.org/entity/Q575759","P31^label:cs":"Pomník padlým","P131^label:cs":"Havraníky","P6736":"31180"},"geometry":{"type":"Point","coordinates":[16.00839,48.81127]}},{"type":"Feature","properties":{"label:cs":"Boží muka na návsi před kostelem v Havraníkách","P31":"http://www.wikidata.org/entity/Q3395121","P31^label:cs":"Boží muka","P131^label:cs":"Havraníky","P6736":"31179"},"geometry":{"type":"Point","coordinates":[16.00801,48.81158]}},{"type":"Feature","properties":{"label:cs":"Boží muka na návsi za kostelem v Havraníkách","P31":"http://www.wikidata.org/entity/Q3395121","P31^label:cs":"Boží muka","P131^label:cs":"Havraníky","P6736":"31178"},"geometry":{"type":"Point","coordinates":[16.00849,48.81115]}},{"type":"Feature","properties":{"label:cs":"Socha svatého Floriána v Havraníkách","P31":"http://www.wikidata.org/entity/Q179700","P31^label:cs":"Socha","P131^label:cs":"Havraníky","P6736":"31177"},"geometry":{"type":"Point","coordinates":[16.00918,48.81052]}},{"type":"Feature","properties":{"label:cs":"Kašna v Havraníkách","P31":"http://www.wikidata.org/entity/Q12029081","P31^label:cs":"Kašna","P131^label:cs":"Havraníky","P6736":"31176"},"geometry":{"type":"Point","coordinates":[16.00994,48.80941]}},{"type":"Feature","properties":{"label:cs":"Platzerova boží muka mezi Popicemi a Havraníky","P31":"http://www.wikidata.org/entity/Q3395121","P31^label:cs":"Boží muka","P131^label:cs":"Havraníky","P6736":"31175"},"geometry":{"type":"Point","coordinates":[16.00988,48.8172]}},{"type":"Feature","properties":{"label:cs":"Kříž u kaple Panny Marie Bolestné v Popicích","P31":"http://www.wikidata.org/entity/Q2309609","P31^label:cs":"Pamětní kříž","P131^label:cs":"Znojmo","P6736":"31174"},"geometry":{"type":"Point","coordinates":[16.01149,48.81958]}},{"type":"Feature","properties":{"label:cs":"Kaple Panny Marie Bolestné v Popicích","P31":"http://www.wikidata.org/entity/Q108325","P31^label:cs":"Kaple","P131^label:cs":"Znojmo","P6736":"31173"},"geometry":{"type":"Point","coordinates":[16.01167,48.81965]}},{"type":"Feature","properties":{"label:cs":"Socha svatého Antonína Paduánského v Popicích","P31":"http://www.wikidata.org/entity/Q179700","P31^label:cs":"Socha","P131^label:cs":"Znojmo","P6736":"31172"},"geometry":{"type":"Point","coordinates":[16.01241,48.82094]}}]}