{"type":"FeatureCollection","features":[{"type":"Feature","properties":{"label:cs":"Sluneční hodiny v Luži na náměstí","P31":"http://www.wikidata.org/entity/Q376","P31^label:cs":"Hodiny","P131^label:cs":"Luže","P6736":"21407"},"geometry":{"type":"Point","coordinates":[16.02831,49.89372]}},{"type":"Feature","properties":{"label:cs":"Pamětní kříž v Luži","P31":"http://www.wikidata.org/entity/Q2309609","P31^label:cs":"Pamětní kříž","P131^label:cs":"Luže","P6736":"32368"},"geometry":{"type":"Point","coordinates":[16.02904,49.88658]}},{"type":"Feature","properties":{"label:cs":"Pamětní kříž v Luži u kostela panny Marie","P31":"http://www.wikidata.org/entity/Q2309609","P31^label:cs":"Pamětní kříž","P131^label:cs":"Luže","P6736":"32369"},"geometry":{"type":"Point","coordinates":[16.0301,49.89069]}},{"type":"Feature","properties":{"label:cs":"Socha v Luži u kostela svatého Bartoloměje","P31":"http://www.wikidata.org/entity/Q179700","P31^label:cs":"Socha","P131^label:cs":"Luže","P6736":"32370"},"geometry":{"type":"Point","coordinates":[16.03036,49.8944]}},{"type":"Feature","properties":{"label:cs":"Kaple svatého Jana Nepomuckého v Košumberku","P31":"http://www.wikidata.org/entity/Q108325","P31^label:cs":"Kaple","P131^label:cs":"Luže","P6736":"32375"},"geometry":{"type":"Point","coordinates":[16.03373,49.88657]}},{"type":"Feature","properties":{"label:cs":"Morový sloup se sochou svatého Jana Nepomuckého v Luži","P31":"http://www.wikidata.org/entity/Q4817","P31^label:cs":"Sloup","P131^label:cs":"Luže","P6736":"32377"},"geometry":{"type":"Point","coordinates":[16.02856,49.89308]}}]}