{"type":"FeatureCollection","features":[{"type":"Feature","properties":{"label:cs":"Pamětní deska Jaromíra Nečase na domě Nečasova 31 v Novém Městě na Moravě","P31":"http://www.wikidata.org/entity/Q721747","P31^label:cs":"Pamětní deska","P131^label:cs":"Nové Město na Moravě","P6736":"26024"},"geometry":{"type":"Point","coordinates":[16.07278,49.55957]}},{"type":"Feature","properties":{"label:cs":"Pamětní deska Haně Brady na domě Vratislavovo náměstí 13 v Novém Městě na Moravě","P31":"http://www.wikidata.org/entity/Q721747","P31^label:cs":"Pamětní deska","P131^label:cs":"Nové Město na Moravě","P6736":"26023"},"geometry":{"type":"Point","coordinates":[16.07368,49.56028]}},{"type":"Feature","properties":{"label:cs":"Kříž u cesty poblíž Horního Dvora","P31":"http://www.wikidata.org/entity/Q2309609","P31^label:cs":"Pamětní kříž","P131^label:cs":"Nové Město na Moravě","P6736":"26022"},"geometry":{"type":"Point","coordinates":[16.07975,49.55625]}},{"type":"Feature","properties":{"label:cs":"Socha Žena s klasy v areálu nemocnice v Novém Městě na Moravě","P31":"http://www.wikidata.org/entity/Q179700","P31^label:cs":"Socha","P131^label:cs":"Nové Město na Moravě","P6736":"26020"},"geometry":{"type":"Point","coordinates":[16.06234,49.56169]}},{"type":"Feature","properties":{"label:cs":"Mečový kříž ve Žďárské ulici u prodejny COOP v Novém Městě na Moravě","P31":"http://www.wikidata.org/entity/Q2309609","P31^label:cs":"Pamětní kříž","P131^label:cs":"Nové Město na Moravě","P6736":"26019"},"geometry":{"type":"Point","coordinates":[16.06608,49.56194]}},{"type":"Feature","properties":{"label:cs":"Kříž ve Žďárské ulici pod nemocnicí v Novém Městě na Moravě","P31":"http://www.wikidata.org/entity/Q2309609","P31^label:cs":"Pamětní kříž","P131^label:cs":"Nové Město na Moravě","P6736":"26018"},"geometry":{"type":"Point","coordinates":[16.06561,49.56214]}},{"type":"Feature","properties":{"label:cs":"Pamětní deska Antonína Beranovského na domě Žďárská 84 v Novém Městě na Moravě","P31":"http://www.wikidata.org/entity/Q721747","P31^label:cs":"Pamětní deska","P131^label:cs":"Nové Město na Moravě","P6736":"26017"},"geometry":{"type":"Point","coordinates":[16.06936,49.56199]}},{"type":"Feature","properties":{"label:cs":"Pamětní deska Karla Němce na domě Žďárská 40 v Novém Městě na Moravě","P31":"http://www.wikidata.org/entity/Q721747","P31^label:cs":"Pamětní deska","P131^label:cs":"Nové Město na Moravě","P6736":"26016"},"geometry":{"type":"Point","coordinates":[16.07183,49.56054]}},{"type":"Feature","properties":{"label:cs":"Kaplička v Jánské ulici v Novém Městě na Moravě","P31":"http://www.wikidata.org/entity/Q14552192","P31^label:cs":"Kaplička","P131^label:cs":"Nové Město na Moravě","P6736":"26015"},"geometry":{"type":"Point","coordinates":[16.07492,49.55859]}},{"type":"Feature","properties":{"label:cs":"Kříž na rozcestí ulic Nečasova a Petrovická v Novém Městě na Moravě","P31":"http://www.wikidata.org/entity/Q2309609","P31^label:cs":"Pamětní kříž","P131^label:cs":"Nové Město na Moravě","P6736":"26014"},"geometry":{"type":"Point","coordinates":[16.07313,49.55731]}},{"type":"Feature","properties":{"label:cs":"Pamětní deska Vincence Makovského na domě Vratislavovo náměstí 11 v Novém Městě na Moravě","P31":"http://www.wikidata.org/entity/Q721747","P31^label:cs":"Pamětní deska","P131^label:cs":"Nové Město na Moravě","P6736":"26013"},"geometry":{"type":"Point","coordinates":[16.07404,49.56059]}},{"type":"Feature","properties":{"label:cs":"Pamětní deska obětem 2. světové války na domě Komenského náměstí 3 v Novém Městě na Moravě","P31":"http://www.wikidata.org/entity/Q721747","P31^label:cs":"Pamětní deska","P131^label:cs":"Nové Město na Moravě","P6736":"26012"},"geometry":{"type":"Point","coordinates":[16.07573,49.56218]}},{"type":"Feature","properties":{"label:cs":"Pomník Josefa Svítila v ulici Malá v Novém Městě na Moravě","P31":"http://www.wikidata.org/entity/Q4989906","P31^label:cs":"Pomník","P131^label:cs":"Nové Město na Moravě","P6736":"26011"},"geometry":{"type":"Point","coordinates":[16.078,49.56494]}},{"type":"Feature","properties":{"label:cs":"Kamenná plastika sedící ženy v Smetanově ulici v Novém Městě na Moravě","P31":"http://www.wikidata.org/entity/Q12045520","P31^label:cs":"Plastika","P131^label:cs":"Nové Město na Moravě","P6736":"26010"},"geometry":{"type":"Point","coordinates":[16.07633,49.56676]}},{"type":"Feature","properties":{"label:cs":"Kříž na rozcestí ulic Křičkova a Masarykova v Novém Městě na Moravě","P31":"http://www.wikidata.org/entity/Q2309609","P31^label:cs":"Pamětní kříž","P131^label:cs":"Nové Město na Moravě","P6736":"26009"},"geometry":{"type":"Point","coordinates":[16.07978,49.56588]}},{"type":"Feature","properties":{"label:cs":"Pomník výročí samostatnosti Československa v Masarykově ulici v Novém Městě na Moravě","P31":"http://www.wikidata.org/entity/Q4989906","P31^label:cs":"Pomník","P131^label:cs":"Nové Město na Moravě","P6736":"26008"},"geometry":{"type":"Point","coordinates":[16.07825,49.56422]}},{"type":"Feature","properties":{"label:cs":"Kovová plastika Nehmatatelná postava na Komenského náměstí v Novém Městě na Moravě","P31":"http://www.wikidata.org/entity/Q12045520","P31^label:cs":"Plastika","P131^label:cs":"Nové Město na Moravě","P6736":"26007"},"geometry":{"type":"Point","coordinates":[16.07628,49.56274]}},{"type":"Feature","properties":{"label:cs":"Pomník Jana Amose Komenského na Komenského náměstí v Novém Městě na Moravě","P31":"http://www.wikidata.org/entity/Q4989906","P31^label:cs":"Pomník","P131^label:cs":"Nové Město na Moravě","P6736":"26001"},"geometry":{"type":"Point","coordinates":[16.07594,49.56295]}},{"type":"Feature","properties":{"label:cs":"Socha Jana Husa v parku u evangelického kostela v Novém Městě na Moravě","P31":"http://www.wikidata.org/entity/Q179700","P31^label:cs":"Socha","P131^label:cs":"Nové Město na Moravě","P6736":"26000"},"geometry":{"type":"Point","coordinates":[16.07582,49.56332]}},{"type":"Feature","properties":{"label:cs":"Památník setkání Nových Měst 2010 u Kulturního domu v Novém Městě na Moravě","P31":"http://www.wikidata.org/entity/Q5003624","P31^label:cs":"Památník","P131^label:cs":"Nové Město na Moravě","P6736":"25999"},"geometry":{"type":"Point","coordinates":[16.07419,49.56392]}},{"type":"Feature","properties":{"label:cs":"Pomník Leandra Čecha u Gymnázia Vincence Makovského v Novém Městě na Moravě","P31":"http://www.wikidata.org/entity/Q4989906","P31^label:cs":"Pomník","P131^label:cs":"Nové Město na Moravě","P6736":"25998"},"geometry":{"type":"Point","coordinates":[16.07255,49.56345]}},{"type":"Feature","properties":{"label:cs":"Betonová plastika svatého Floriána u hasičárny v Školní ulici v Novém Městě na Moravě","P31":"http://www.wikidata.org/entity/Q12045520","P31^label:cs":"Plastika","P131^label:cs":"Nové Město na Moravě","P6736":"25997"},"geometry":{"type":"Point","coordinates":[16.07391,49.5629]}},{"type":"Feature","properties":{"label:cs":"Pomník padlým vojínům na Vratislavově náměstí v Novém Městě na Moravě","P31":"http://www.wikidata.org/entity/Q575759","P31^label:cs":"Pomník padlým","P131^label:cs":"Nové Město na Moravě","P6736":"25996"},"geometry":{"type":"Point","coordinates":[16.07545,49.56203]}},{"type":"Feature","properties":{"label:cs":"Masarykův pomník před školou na Vratislavově náměstí v Novém Městě na Moravě","P31":"http://www.wikidata.org/entity/Q4989906","P31^label:cs":"Pomník","P131^label:cs":"Nové Město na Moravě","P6736":"25995"},"geometry":{"type":"Point","coordinates":[16.07457,49.5622]}},{"type":"Feature","properties":{"label:cs":"Pamětní deska Janu Štursovi na domě Vratislavovo náměstí 122 v Novém Městě na Moravě","P31":"http://www.wikidata.org/entity/Q721747","P31^label:cs":"Pamětní deska","P131^label:cs":"Nové Město na Moravě","P6736":"25994"},"geometry":{"type":"Point","coordinates":[16.0741,49.56198]}},{"type":"Feature","properties":{"label:cs":"Socha Raněný na Vratislavově náměstí v Novém Městě na Moravě","P31":"http://www.wikidata.org/entity/Q179700","P31^label:cs":"Socha","P131^label:cs":"Nové Město na Moravě","P6736":"25993"},"geometry":{"type":"Point","coordinates":[16.07409,49.56186]}},{"type":"Feature","properties":{"label:cs":"Kašna u sloupu svaté Anny v Novém Městě na Moravě","P31":"http://www.wikidata.org/entity/Q12029081","P31^label:cs":"Kašna","P131^label:cs":"Nové Město na Moravě","P6736":"25992"},"geometry":{"type":"Point","coordinates":[16.07491,49.56188]}},{"type":"Feature","properties":{"label:cs":"Sloup svaté Anny na Vratislavově náměstí v Novém Městě na Moravě","P31":"http://www.wikidata.org/entity/Q4817","P31^label:cs":"Sloup","P131^label:cs":"Nové Město na Moravě","P6736":"25991"},"geometry":{"type":"Point","coordinates":[16.07487,49.56193]}},{"type":"Feature","properties":{"label:cs":"Socha svatého Jana Nepomuckého u zdi kostela svaté Kunhuty v Novém Městě na Moravě","P31":"http://www.wikidata.org/entity/Q179700","P31^label:cs":"Socha","P131^label:cs":"Nové Město na Moravě","P6736":"25990"},"geometry":{"type":"Point","coordinates":[16.07463,49.56146]}},{"type":"Feature","properties":{"label:cs":"Kříže u východní zdi kostela svaté Kunhuty v Novém Městě na Moravě","P31":"http://www.wikidata.org/entity/Q2309609","P31^label:cs":"Pamětní kříž","P131^label:cs":"Nové Město na Moravě","P6736":"25989"},"geometry":{"type":"Point","coordinates":[16.07458,49.56141]}},{"type":"Feature","properties":{"label:cs":"Socha Krista u jižní zdi kostela svaté Kunhuty v Novém Městě na Moravě","P31":"http://www.wikidata.org/entity/Q179700","P31^label:cs":"Socha","P131^label:cs":"Nové Město na Moravě","P6736":"25988"},"geometry":{"type":"Point","coordinates":[16.07422,49.56136]}},{"type":"Feature","properties":{"label:cs":"Kříže u jižní zdi kostela svaté Kunhuty v Novém Městě na Moravě","P31":"http://www.wikidata.org/entity/Q2309609","P31^label:cs":"Pamětní kříž","P131^label:cs":"Nové Město na Moravě","P6736":"25987"},"geometry":{"type":"Point","coordinates":[16.07439,49.56135]}},{"type":"Feature","properties":{"label:cs":"Pamětní deska Ivana Sekaniny na domě Vratislavovo náměstí 119 v Novém Městě na Moravě","P31":"http://www.wikidata.org/entity/Q721747","P31^label:cs":"Pamětní deska","P131^label:cs":"Nové Město na Moravě","P6736":"25986"},"geometry":{"type":"Point","coordinates":[16.07379,49.56152]}},{"type":"Feature","properties":{"label:cs":"Kašna se sochou Vratislava z Pernštejna na Vratislavově náměstí v Novém Městě na Moravě","P31":"http://www.wikidata.org/entity/Q12029081","P31^label:cs":"Kašna","P131^label:cs":"Nové Město na Moravě","P6736":"25985"},"geometry":{"type":"Point","coordinates":[16.07406,49.56106]}},{"type":"Feature","properties":{"label:cs":"Pamětní deska bratrů Německých na domě Palackého náměstí 34 v Novém Městě na Moravě","P31":"http://www.wikidata.org/entity/Q721747","P31^label:cs":"Pamětní deska","P131^label:cs":"Nové Město na Moravě","P6736":"25984"},"geometry":{"type":"Point","coordinates":[16.07257,49.56015]}},{"type":"Feature","properties":{"label:cs":"Pomník Františka Palackého na Palackého náměstí v Novém Městě na Moravě","P31":"http://www.wikidata.org/entity/Q4989906","P31^label:cs":"Pomník","P131^label:cs":"Nové Město na Moravě","P6736":"25983"},"geometry":{"type":"Point","coordinates":[16.07298,49.56021]}},{"type":"Feature","properties":{"label:cs":"Kašna se sochou Píseň hor na Palackého náměstí v Novém Městě na Moravě","P31":"http://www.wikidata.org/entity/Q12029081","P31^label:cs":"Kašna","P131^label:cs":"Nové Město na Moravě","P6736":"25982"},"geometry":{"type":"Point","coordinates":[16.07298,49.55999]}}]}