{"type":"FeatureCollection","features":[{"type":"Feature","properties":{"label:cs":"Kříž v Týništi nad Orlicí v Okružní ulici","P31":"http://www.wikidata.org/entity/Q2309609","P31^label:cs":"Pamětní kříž","P131^label:cs":"Týniště nad Orlicí","P6736":"36036"},"geometry":{"type":"Point","coordinates":[16.08256,50.15427]}},{"type":"Feature","properties":{"label:cs":"Socha u obřadní síně v Týništi nad Orlicí","P31":"http://www.wikidata.org/entity/Q179700","P31^label:cs":"Socha","P131^label:cs":"Týniště nad Orlicí","P6736":"34519"},"geometry":{"type":"Point","coordinates":[16.06829,50.15612]}},{"type":"Feature","properties":{"label:cs":"Pamětní kříž v Týništi nad Orlicí","P31":"http://www.wikidata.org/entity/Q2309609","P31^label:cs":"Pamětní kříž","P131^label:cs":"Týniště nad Orlicí","P6736":"34518"},"geometry":{"type":"Point","coordinates":[16.06834,50.15536]}},{"type":"Feature","properties":{"label:cs":"Socha v Týništi nad Orlicí","P31":"http://www.wikidata.org/entity/Q179700","P31^label:cs":"Socha","P131^label:cs":"Týniště nad Orlicí","P6736":"34381"},"geometry":{"type":"Point","coordinates":[16.08368,50.1548]}},{"type":"Feature","properties":{"label:cs":"Pomník padlým v Týništi nad Orlicí","P31":"http://www.wikidata.org/entity/Q575759","P31^label:cs":"Pomník padlým","P131^label:cs":"Týniště nad Orlicí","P6736":"34379"},"geometry":{"type":"Point","coordinates":[16.07418,50.1493]}}]}