{"type":"FeatureCollection","features":[{"type":"Feature","properties":{"label:cs":"Socha Panny Marie s malým Ježiškem v Budislavi u Litomyšle místní část Kamenné Sedliště","P31":"http://www.wikidata.org/entity/Q179700","P31^label:cs":"Socha","P131^label:cs":"Budislav","P6736":"36223"},"geometry":{"type":"Point","coordinates":[16.16765,49.79703]}},{"type":"Feature","properties":{"label:cs":"Dřevěný kříž v Budislavi u Litomyšle místní část Kamenné Sedliště","P31":"http://www.wikidata.org/entity/Q2309609","P31^label:cs":"Pamětní kříž","P131^label:cs":"Budislav","P6736":"36222"},"geometry":{"type":"Point","coordinates":[16.168,49.79692]}},{"type":"Feature","properties":{"label:cs":"Kříž v Budislavi místní část Kamenné Sedliště","P31":"http://www.wikidata.org/entity/Q2309609","P31^label:cs":"Pamětní kříž","P131^label:cs":"Budislav","P6736":"36221"},"geometry":{"type":"Point","coordinates":[16.1718,49.79676]}},{"type":"Feature","properties":{"label:cs":"Pomník padlým v Budislavi","P31":"http://www.wikidata.org/entity/Q575759","P31^label:cs":"Pomník padlým","P131^label:cs":"Budislav","P6736":"21397"},"geometry":{"type":"Point","coordinates":[16.17079,49.80315]}},{"type":"Feature","properties":{"label:cs":"Plastika za kostelem Boží lásky v Budislavi","P31":"http://www.wikidata.org/entity/Q12045520","P31^label:cs":"Plastika","P131^label:cs":"Budislav","P6736":"12273"},"geometry":{"type":"Point","coordinates":[16.16844,49.80279]}}]}