{"type":"FeatureCollection","features":[{"type":"Feature","properties":{"label:cs":"Pamětní deska Václava Ždímala v Heřmanově","P31":"http://www.wikidata.org/entity/Q721747","P31^label:cs":"Pamětní deska","P131^label:cs":"Heřmanov","P6736":"34267"},"geometry":{"type":"Point","coordinates":[16.1818,49.3793]}},{"type":"Feature","properties":{"label:cs":"Centrální kříž na hřbitově v Heřmanově","P31":"http://www.wikidata.org/entity/Q2309609","P31^label:cs":"Pamětní kříž","P131^label:cs":"Heřmanov","P6736":"34265"},"geometry":{"type":"Point","coordinates":[16.18388,49.38057]}},{"type":"Feature","properties":{"label:cs":"Kříž u domu č.p. 6 v Heřmanově","P31":"http://www.wikidata.org/entity/Q2309609","P31^label:cs":"Pamětní kříž","P131^label:cs":"Heřmanov","P6736":"34264"},"geometry":{"type":"Point","coordinates":[16.18321,49.38099]}},{"type":"Feature","properties":{"label:cs":"Kříže u kostela svatého Mikuláše v Heřmanově","P31":"http://www.wikidata.org/entity/Q2309609","P31^label:cs":"Pamětní kříž","P131^label:cs":"Heřmanov","P6736":"34263"},"geometry":{"type":"Point","coordinates":[16.18209,49.38012]}},{"type":"Feature","properties":{"label:cs":"Kamenná křtitelnice u kostela svatého Mikuláše v Heřmanově","P31":"http://www.wikidata.org/entity/?","P31^label:cs":"Něco jiného","P131^label:cs":"Heřmanov","P6736":"34262"},"geometry":{"type":"Point","coordinates":[16.18198,49.3801]}}]}