{"type":"FeatureCollection","features":[{"type":"Feature","properties":{"label:cs":"Sloup se sochou Panny Marie v Kostelci nad Orlicí","P31":"http://www.wikidata.org/entity/Q4817","P31^label:cs":"Sloup","P131^label:cs":"Kostelec nad Orlicí","P6736":"9317"},"geometry":{"type":"Point","coordinates":[16.21276,50.12267]}},{"type":"Feature","properties":{"label:cs":"Sloup se sousoším Nejsvětější Trojice v Kostelci nad Orlicí","P31":"http://www.wikidata.org/entity/Q4817","P31^label:cs":"Sloup","P131^label:cs":"Kostelec nad Orlicí","P6736":"9318"},"geometry":{"type":"Point","coordinates":[16.21192,50.12284]}},{"type":"Feature","properties":{"label:cs":"Památník s prasaty u Kostelce nad Orlicí","P31":"http://www.wikidata.org/entity/Q5003624","P31^label:cs":"Památník","P131^label:cs":"Kostelec nad Orlicí","P6736":"21230"},"geometry":{"type":"Point","coordinates":[16.19853,50.12458]}},{"type":"Feature","properties":{"label:cs":"Kašna u Nového zámku v Kostelci nad Orlicí","P31":"http://www.wikidata.org/entity/Q12029081","P31^label:cs":"Kašna","P131^label:cs":"Kostelec nad Orlicí","P6736":"21816"},"geometry":{"type":"Point","coordinates":[16.20012,50.12252]}},{"type":"Feature","properties":{"label:cs":"Kaplička svatého Antonína Paduánského v Komenského ulici v Kostelci nad Orlicí","P31":"http://www.wikidata.org/entity/Q14552192","P31^label:cs":"Kaplička","P131^label:cs":"Kostelec nad Orlicí","P6736":"21817"},"geometry":{"type":"Point","coordinates":[16.20205,50.12444]}},{"type":"Feature","properties":{"label:cs":"Pomník padlým v Kostelci nad Orlicí","P31":"http://www.wikidata.org/entity/Q575759","P31^label:cs":"Pomník padlým","P131^label:cs":"Kostelec nad Orlicí","P6736":"21818"},"geometry":{"type":"Point","coordinates":[16.21045,50.12395]}},{"type":"Feature","properties":{"label:cs":"Meteorologický sloup na Palackého náměstí v Kostelci nad Orlicí","P31":"http://www.wikidata.org/entity/Q4817","P31^label:cs":"Sloup","P131^label:cs":"Kostelec nad Orlicí","P6736":"21819"},"geometry":{"type":"Point","coordinates":[16.21204,50.12264]}},{"type":"Feature","properties":{"label:cs":"Kříž u zdi kostela svatého Jiří v Kostelci nad Orlicí","P31":"http://www.wikidata.org/entity/Q2309609","P31^label:cs":"Pamětní kříž","P131^label:cs":"Kostelec nad Orlicí","P6736":"21820"},"geometry":{"type":"Point","coordinates":[16.21384,50.12181]}},{"type":"Feature","properties":{"label:cs":"Pomník Františka Zoubka na Jiráskově náměstí v Kostelci nad Orlicí","P31":"http://www.wikidata.org/entity/Q4989906","P31^label:cs":"Pomník","P131^label:cs":"Kostelec nad Orlicí","P6736":"21821"},"geometry":{"type":"Point","coordinates":[16.21382,50.12217]}},{"type":"Feature","properties":{"label:cs":"Socha svatého Antonína Paduánského v Žofínské ulici v Kostelci nad Orlicí","P31":"http://www.wikidata.org/entity/Q179700","P31^label:cs":"Socha","P131^label:cs":"Kostelec nad Orlicí","P6736":"21822"},"geometry":{"type":"Point","coordinates":[16.21264,50.12106]}},{"type":"Feature","properties":{"label:cs":"Kříž v Husově ulici v Kostelci nad Orlicí","P31":"http://www.wikidata.org/entity/Q2309609","P31^label:cs":"Pamětní kříž","P131^label:cs":"Kostelec nad Orlicí","P6736":"21823"},"geometry":{"type":"Point","coordinates":[16.20998,50.12127]}},{"type":"Feature","properties":{"label:cs":"Sousoší svatých Floriána, Antonína Paduánského a Jana Křtitele v ulici Příkopy v Kostelci nad Orlicí","P31":"http://www.wikidata.org/entity/Q179700","P31^label:cs":"Socha","P131^label:cs":"Kostelec nad Orlicí","P6736":"21825"},"geometry":{"type":"Point","coordinates":[16.21518,50.12321]}},{"type":"Feature","properties":{"label:cs":"Kašna na Palackého náměstí v Kostelci nad Orlicí","P31":"http://www.wikidata.org/entity/Q12029081","P31^label:cs":"Kašna","P131^label:cs":"Kostelec nad Orlicí","P6736":"21826"},"geometry":{"type":"Point","coordinates":[16.21225,50.12278]}}]}