{"type":"FeatureCollection","features":[{"type":"Feature","properties":{"label:cs":"Socha Panny Marie s Ježíškem v Polici nad Metují vedle kláštera","P31":"http://www.wikidata.org/entity/Q179700","P31^label:cs":"Socha","P131^label:cs":"Police nad Metují","P6736":"26627"},"geometry":{"type":"Point","coordinates":[16.23499,50.538]}},{"type":"Feature","properties":{"label:cs":"Boží muka ve Velké Ledhuji na křižovatce ulic Jiráskova a Hvězdecká","P31":"http://www.wikidata.org/entity/Q3395121","P31^label:cs":"Boží muka","P131^label:cs":"Police nad Metují","P6736":"26599"},"geometry":{"type":"Point","coordinates":[16.23731,50.53793]}},{"type":"Feature","properties":{"label:cs":"Kříž v Polici nad Metují vedle kláštera","P31":"http://www.wikidata.org/entity/Q2309609","P31^label:cs":"Pamětní kříž","P131^label:cs":"Police nad Metují","P6736":"22396"},"geometry":{"type":"Point","coordinates":[16.23442,50.53863]}},{"type":"Feature","properties":{"label:cs":"Kašna v Polici nad Metují na Masarykově náměstí","P31":"http://www.wikidata.org/entity/Q12029081","P31^label:cs":"Kašna","P131^label:cs":"Police nad Metují","P6736":"22103"},"geometry":{"type":"Point","coordinates":[16.23337,50.53655]}},{"type":"Feature","properties":{"label:cs":"Sloup Panny Marie Bolestné v Polici nad Metují na Masarykově náměstí","P31":"http://www.wikidata.org/entity/Q4817","P31^label:cs":"Sloup","P131^label:cs":"Police nad Metují","P6736":"22102"},"geometry":{"type":"Point","coordinates":[16.23339,50.53643]}},{"type":"Feature","properties":{"label:cs":"Selendrův sloup v Polici nad Metují na Komenského náměstí","P31":"http://www.wikidata.org/entity/Q4817","P31^label:cs":"Sloup","P131^label:cs":"Police nad Metují","P6736":"22101"},"geometry":{"type":"Point","coordinates":[16.23411,50.53844]}}]}