{"type":"FeatureCollection","features":[{"type":"Feature","properties":{"label:cs":"Boží muka v Chocni na Újezdské ulici","P31":"Q3395121","P31^label:cs":"Boží muka","P131^label:cs":"Choceň","P6736":"21386"},"geometry":{"type":"Point","coordinates":[16.21941,50.00317]}},{"type":"Feature","properties":{"label:cs":"Pomník četníka Václava Havrdy na Tyršově náměstí v Chocni","P31":"Q4989906","P31^label:cs":"Pomník","P131^label:cs":"Choceň","P6736":"21252"},"geometry":{"type":"Point","coordinates":[16.22429,50.00096]}},{"type":"Feature","properties":{"label:cs":"Kříž na hřbitově v Chocni","P31":"Q2309609","P31^label:cs":"Pamětní kříž","P131^label:cs":"Choceň","P6736":"14634"},"geometry":{"type":"Point","coordinates":[16.2277,50.00233]}},{"type":"Feature","properties":{"label:cs":"Kašna na Tyršově náměstí v Chocni","P31":"Q12029081","P31^label:cs":"Kašna","P131^label:cs":"Choceň","P6736":"13910"},"geometry":{"type":"Point","coordinates":[16.22412,50.0009]}},{"type":"Feature","properties":{"label:cs":"Kříž v Chocni u cesty na Hemže","P31":"Q2309609","P31^label:cs":"Pamětní kříž","P131^label:cs":"Choceň","P6736":"12170"},"geometry":{"type":"Point","coordinates":[16.22918,50.00296]}},{"type":"Feature","properties":{"label:cs":"Mariánský sloup v Chocni u cesty na Hemže","P31":"Q4817","P31^label:cs":"Sloup","P131^label:cs":"Choceň","P6736":"12074"},"geometry":{"type":"Point","coordinates":[16.22891,50.00304]}},{"type":"Feature","properties":{"label:cs":"Mariánský sloup v Chocni na náměstí","P31":"Q4817","P31^label:cs":"Sloup","P131^label:cs":"Choceň","P6736":"11944"},"geometry":{"type":"Point","coordinates":[16.22382,50.00114]}},{"type":"Feature","properties":{"label:cs":"Boží muka v Chocni na Újezdské ulici","P31":"Q3395121","P31^label:cs":"Boží muka","P131^label:cs":"Choceň","P6736":"11919"},"geometry":{"type":"Point","coordinates":[16.21885,50.00326]}},{"type":"Feature","properties":{"label:cs":"Kříž v Chocni za kostelem","P31":"Q2309609","P31^label:cs":"Pamětní kříž","P131^label:cs":"Choceň","P6736":"11776"},"geometry":{"type":"Point","coordinates":[16.22304,50.0018]}},{"type":"Feature","properties":{"label:cs":"Kříž v Chocni","P31":"Q2309609","P31^label:cs":"Pamětní kříž","P131^label:cs":"Choceň","P6736":"11775"},"geometry":{"type":"Point","coordinates":[16.22918,49.99672]}},{"type":"Feature","properties":{"label:cs":"Socha Svatého Jana Nepomuckého v Chocni","P31":"Q179700","P31^label:cs":"Socha","P131^label:cs":"Choceň","P6736":"11773"},"geometry":{"type":"Point","coordinates":[16.22226,50.00159]}},{"type":"Feature","properties":{"label:cs":"Kříž v Chocni na Záměstí","P31":"Q2309609","P31^label:cs":"Pamětní kříž","P131^label:cs":"Choceň","P6736":"11688"},"geometry":{"type":"Point","coordinates":[16.22153,50.00608]}}]}