{"type":"FeatureCollection","features":[{"type":"Feature","properties":{"label:cs":"Kříž v Lažanech u Litomyšle severně od obce","P31":"Pamětní kříž","P31^label:cs":"Pamětní kříž","P131^label:cs":"Morašice","P6736":"21684"},"geometry":{"type":"Point","coordinates":[16.23971,49.86343]}},{"type":"Feature","properties":{"label:cs":"Pomník padlým v 1 světové válce v Lažanech u Litomyšle","P31":"Pomník padlým","P31^label:cs":"Pomník padlým","P131^label:cs":"Morašice","P6736":"21674"},"geometry":{"type":"Point","coordinates":[16.24287,49.86188]}},{"type":"Feature","properties":{"label:cs":"Kříž v Lažanech u Litomyšle","P31":"Pamětní kříž","P31^label:cs":"Pamětní kříž","P131^label:cs":"Morašice","P6736":"21673"},"geometry":{"type":"Point","coordinates":[16.24322,49.86215]}},{"type":"Feature","properties":{"label:cs":"Pomník padlým v 1 světové válce v Říkovicích u Litomyšle","P31":"Pomník padlým","P31^label:cs":"Pomník padlým","P131^label:cs":"Morašice","P6736":"21672"},"geometry":{"type":"Point","coordinates":[16.25698,49.8606]}},{"type":"Feature","properties":{"label:cs":"Kaple v Říkovicích ve středu obce","P31":"Kaple","P31^label:cs":"Kaple","P131^label:cs":"Morašice","P6736":"21671"},"geometry":{"type":"Point","coordinates":[16.25711,49.86028]}},{"type":"Feature","properties":{"label:cs":"Kříž v Říkovicích u Litomyšle u kapličky","P31":"Pamětní kříž","P31^label:cs":"Pamětní kříž","P131^label:cs":"Morašice","P6736":"21670"},"geometry":{"type":"Point","coordinates":[16.25708,49.86037]}}]}