{"type":"FeatureCollection","features":[{"type":"Feature","properties":{"label:cs":"Křížový kámen ve Svatém Jiří","P31":"http://www.wikidata.org/entity/Q38411643","P31^label:cs":"Křížový kámen","P131^label:cs":"Svatý Jiří","P6736":"11728"},"geometry":{"type":"Point","coordinates":[16.27323,49.97536]}},{"type":"Feature","properties":{"label:cs":"Kříž ve Svatém Jiří","P31":"http://www.wikidata.org/entity/Q2309609","P31^label:cs":"Pamětní kříž","P131^label:cs":"Svatý Jiří","P6736":"11729"},"geometry":{"type":"Point","coordinates":[16.2751,49.97312]}},{"type":"Feature","properties":{"label:cs":"Kříž severně od Svatého Jiří","P31":"http://www.wikidata.org/entity/Q2309609","P31^label:cs":"Pamětní kříž","P131^label:cs":"Svatý Jiří","P6736":"11939"},"geometry":{"type":"Point","coordinates":[16.27747,49.9778]}},{"type":"Feature","properties":{"label:cs":"Kříž ve Svatém Jiří","P31":"http://www.wikidata.org/entity/Q2309609","P31^label:cs":"Pamětní kříž","P131^label:cs":"Svatý Jiří","P6736":"11960"},"geometry":{"type":"Point","coordinates":[16.27049,49.97279]}},{"type":"Feature","properties":{"label:cs":"Socha svatého Jana Nepomuckého ve Svatém Jiří","P31":"http://www.wikidata.org/entity/Q179700","P31^label:cs":"Socha","P131^label:cs":"Svatý Jiří","P6736":"11961"},"geometry":{"type":"Point","coordinates":[16.27039,49.97284]}},{"type":"Feature","properties":{"label:cs":"Socha Svatého Floriána ve Svatém Jiří","P31":"http://www.wikidata.org/entity/Q179700","P31^label:cs":"Socha","P131^label:cs":"Svatý Jiří","P6736":"11962"},"geometry":{"type":"Point","coordinates":[16.27024,49.97279]}}]}