{"type":"FeatureCollection","features":[{"type":"Feature","properties":{"label:cs":"Sousoší svatých Jana a Pavla u silnice 319 východně od Rychnova nad Kněžnou","P31":"Socha","P31^label:cs":"Socha","P131^label:cs":"Rychnov nad Kněžnou","P6736":"21779"},"geometry":{"type":"Point","coordinates":[16.29541,50.16476]}},{"type":"Feature","properties":{"label:cs":"Socha svatého Jana Nepomuckého v Javornické ulici v Rychnově nad Kněžnou","P31":"Socha","P31^label:cs":"Socha","P131^label:cs":"Rychnov nad Kněžnou","P6736":"21774"},"geometry":{"type":"Point","coordinates":[16.28657,50.16401]}},{"type":"Feature","properties":{"label:cs":"Kaple v Javornické ulici v Rychnově nad Kněžnou","P31":"Kaple","P31^label:cs":"Kaple","P131^label:cs":"Rychnov nad Kněžnou","P6736":"21773"},"geometry":{"type":"Point","coordinates":[16.28493,50.16396]}},{"type":"Feature","properties":{"label:cs":"Socha svatého Antonína Paduánského v Javornické ulici v Rychnově nad Kněžnou","P31":"Socha","P31^label:cs":"Socha","P131^label:cs":"Rychnov nad Kněžnou","P6736":"21772"},"geometry":{"type":"Point","coordinates":[16.28185,50.16379]}},{"type":"Feature","properties":{"label:cs":"Jungův pomník na Jungově nábřeží v Rychnově nad Kněžnou","P31":"Pomník","P31^label:cs":"Pomník","P131^label:cs":"Rychnov nad Kněžnou","P6736":"21737"},"geometry":{"type":"Point","coordinates":[16.28377,50.17195]}},{"type":"Feature","properties":{"label:cs":"Socha svaté Anny v Trčkově ulici v Rychnově nad Kněžnou","P31":"Socha","P31^label:cs":"Socha","P131^label:cs":"Rychnov nad Kněžnou","P6736":"21736"},"geometry":{"type":"Point","coordinates":[16.28276,50.17171]}}]}