{"type":"FeatureCollection","features":[{"type":"Feature","properties":{"label:cs":"Pomník padlým z války 1763 v Rychnově nad Kněžnou","P31":"http://www.wikidata.org/entity/Q575759","P31^label:cs":"Pomník padlým","P131^label:cs":"Rychnov nad Kněžnou","P6736":"36493"},"geometry":{"type":"Point","coordinates":[16.29484,50.17133]}},{"type":"Feature","properties":{"label:cs":"Zvonička v Rychnově nad Kněžnou místní část Městská Habrová","P31":"http://www.wikidata.org/entity/Q10861631","P31^label:cs":"Zvonička","P131^label:cs":"Rychnov nad Kněžnou","P6736":"35584"},"geometry":{"type":"Point","coordinates":[16.29486,50.17527]}},{"type":"Feature","properties":{"label:cs":"Kříž v Rychnově nad Kněžnou místní část Městská Habrová","P31":"http://www.wikidata.org/entity/Q2309609","P31^label:cs":"Pamětní kříž","P131^label:cs":"Rychnov nad Kněžnou","P6736":"35583"},"geometry":{"type":"Point","coordinates":[16.29485,50.17522]}},{"type":"Feature","properties":{"label:cs":"Sousoší svatých Jana a Pavla u silnice 319 východně od Rychnova nad Kněžnou","P31":"http://www.wikidata.org/entity/Q179700","P31^label:cs":"Socha","P131^label:cs":"Rychnov nad Kněžnou","P6736":"21779"},"geometry":{"type":"Point","coordinates":[16.29541,50.16476]}},{"type":"Feature","properties":{"label:cs":"Socha svatého Jana Nepomuckého v Javornické ulici v Rychnově nad Kněžnou","P31":"http://www.wikidata.org/entity/Q179700","P31^label:cs":"Socha","P131^label:cs":"Rychnov nad Kněžnou","P6736":"21774"},"geometry":{"type":"Point","coordinates":[16.28657,50.16401]}},{"type":"Feature","properties":{"label:cs":"Kaple v Javornické ulici v Rychnově nad Kněžnou","P31":"http://www.wikidata.org/entity/Q108325","P31^label:cs":"Kaple","P131^label:cs":"Rychnov nad Kněžnou","P6736":"21773"},"geometry":{"type":"Point","coordinates":[16.28493,50.16396]}},{"type":"Feature","properties":{"label:cs":"Socha svatého Antonína Paduánského v Javornické ulici v Rychnově nad Kněžnou","P31":"http://www.wikidata.org/entity/Q179700","P31^label:cs":"Socha","P131^label:cs":"Rychnov nad Kněžnou","P6736":"21772"},"geometry":{"type":"Point","coordinates":[16.28185,50.16379]}},{"type":"Feature","properties":{"label:cs":"Jungův pomník na Jungově nábřeží v Rychnově nad Kněžnou","P31":"http://www.wikidata.org/entity/Q4989906","P31^label:cs":"Pomník","P131^label:cs":"Rychnov nad Kněžnou","P6736":"21737"},"geometry":{"type":"Point","coordinates":[16.28377,50.17195]}},{"type":"Feature","properties":{"label:cs":"Socha svaté Anny v Trčkově ulici v Rychnově nad Kněžnou","P31":"http://www.wikidata.org/entity/Q179700","P31^label:cs":"Socha","P131^label:cs":"Rychnov nad Kněžnou","P6736":"21736"},"geometry":{"type":"Point","coordinates":[16.28276,50.17171]}}]}