{"type":"FeatureCollection","features":[{"type":"Feature","properties":{"label:cs":"Pomník padlým ve Sloupnici před školou","P31":"http://www.wikidata.org/entity/Q575759","P31^label:cs":"Pomník padlým","P131^label:cs":"Sloupnice","P6736":"21714"},"geometry":{"type":"Point","coordinates":[16.316,49.92152]}},{"type":"Feature","properties":{"label:cs":"Kříž ve Sloupnici u kostela sv. Mikuláše","P31":"http://www.wikidata.org/entity/Q2309609","P31^label:cs":"Pamětní kříž","P131^label:cs":"Sloupnice","P6736":"21713"},"geometry":{"type":"Point","coordinates":[16.31018,49.92115]}},{"type":"Feature","properties":{"label:cs":"Kříž ve Sloupnici u hřiště","P31":"http://www.wikidata.org/entity/Q2309609","P31^label:cs":"Pamětní kříž","P131^label:cs":"Sloupnice","P6736":"21712"},"geometry":{"type":"Point","coordinates":[16.31676,49.92244]}},{"type":"Feature","properties":{"label:cs":"Kaple ve Sloupnici","P31":"http://www.wikidata.org/entity/Q108325","P31^label:cs":"Kaple","P131^label:cs":"Sloupnice","P6736":"12205"},"geometry":{"type":"Point","coordinates":[16.30671,49.92088]}},{"type":"Feature","properties":{"label:cs":"Kříž jižně od Sloupnice","P31":"http://www.wikidata.org/entity/Q2309609","P31^label:cs":"Pamětní kříž","P131^label:cs":"Sloupnice","P6736":"12136"},"geometry":{"type":"Point","coordinates":[16.31175,49.91322]}},{"type":"Feature","properties":{"label:cs":"Socha Svatého Václava v Horní Sloupnici","P31":"http://www.wikidata.org/entity/Q179700","P31^label:cs":"Socha","P131^label:cs":"Sloupnice","P6736":"12134"},"geometry":{"type":"Point","coordinates":[16.31326,49.92133]}},{"type":"Feature","properties":{"label:cs":"Socha Svatého Josefa v Horní Sloupnici","P31":"http://www.wikidata.org/entity/Q179700","P31^label:cs":"Socha","P131^label:cs":"Sloupnice","P6736":"12133"},"geometry":{"type":"Point","coordinates":[16.31317,49.92133]}},{"type":"Feature","properties":{"label:cs":"Kaplička se sochou Svatého Jana Nepomuckého ve Sloupnici","P31":"http://www.wikidata.org/entity/Q14552192","P31^label:cs":"Kaplička","P131^label:cs":"Sloupnice","P6736":"12132"},"geometry":{"type":"Point","coordinates":[16.30882,49.92014]}},{"type":"Feature","properties":{"label:cs":"Obrázek jižně od Sloupnice","P31":"http://www.wikidata.org/entity/Q478798","P31^label:cs":"Obrázek","P131^label:cs":"Sloupnice","P6736":"12058"},"geometry":{"type":"Point","coordinates":[16.31395,49.91227]}},{"type":"Feature","properties":{"label:cs":"Kříž jižně od Sloupnice","P31":"http://www.wikidata.org/entity/Q2309609","P31^label:cs":"Pamětní kříž","P131^label:cs":"Sloupnice","P6736":"11624"},"geometry":{"type":"Point","coordinates":[16.30742,49.91555]}}]}