{"type":"FeatureCollection","features":[{"type":"Feature","properties":{"label:cs":"Sloup s Madonou z roku 1695","P31":"http://www.wikidata.org/entity/Q4817","P31^label:cs":"Sloup","P131^label:cs":"Broumov","P6736":"25608"},"geometry":{"type":"Point","coordinates":[16.35116,50.56539]}},{"type":"Feature","properties":{"label:cs":"Sloup s Broumovskou Madonou","P31":"http://www.wikidata.org/entity/Q4817","P31^label:cs":"Sloup","P131^label:cs":"Broumov","P6736":"25607"},"geometry":{"type":"Point","coordinates":[16.35652,50.56307]}},{"type":"Feature","properties":{"label:cs":"Sloup na cestě do Broumova","P31":"http://www.wikidata.org/entity/Q4817","P31^label:cs":"Sloup","P131^label:cs":"Broumov","P6736":"25301"},"geometry":{"type":"Point","coordinates":[16.35122,50.56543]}},{"type":"Feature","properties":{"label:cs":"Sloup na cestě do Broumova","P31":"http://www.wikidata.org/entity/Q4817","P31^label:cs":"Sloup","P131^label:cs":"Broumov","P6736":"25299"},"geometry":{"type":"Point","coordinates":[16.35652,50.56304]}},{"type":"Feature","properties":{"label:cs":"Socha svatého Jiřího ve Velké Vsi u Broumova na portálu statku","P31":"http://www.wikidata.org/entity/Q179700","P31^label:cs":"Socha","P131^label:cs":"Broumov","P6736":"22771"},"geometry":{"type":"Point","coordinates":[16.35522,50.56563]}},{"type":"Feature","properties":{"label:cs":"Kaplička ve Velké Vsi u Broumova","P31":"http://www.wikidata.org/entity/Q14552192","P31^label:cs":"Kaplička","P131^label:cs":"Broumov","P6736":"22770"},"geometry":{"type":"Point","coordinates":[16.35815,50.56479]}},{"type":"Feature","properties":{"label:cs":"Kříž v Martínkovicích u kostela svatého Jiří a svatého Martina","P31":"http://www.wikidata.org/entity/Q2309609","P31^label:cs":"Pamětní kříž","P131^label:cs":"Martínkovice","P6736":"22712"},"geometry":{"type":"Point","coordinates":[16.36226,50.55954]}},{"type":"Feature","properties":{"label:cs":"Kříž ve Velké Vsi u Broumova","P31":"http://www.wikidata.org/entity/Q2309609","P31^label:cs":"Pamětní kříž","P131^label:cs":"Broumov","P6736":"22590"},"geometry":{"type":"Point","coordinates":[16.35105,50.56805]}},{"type":"Feature","properties":{"label:cs":"Kříž v Martínkovicích severní okraj obce","P31":"http://www.wikidata.org/entity/Q2309609","P31^label:cs":"Pamětní kříž","P131^label:cs":"Martínkovice","P6736":"22567"},"geometry":{"type":"Point","coordinates":[16.36097,50.55986]}},{"type":"Feature","properties":{"label:cs":"Sousoší Panny Marie v Martínkovicích severní část obce","P31":"http://www.wikidata.org/entity/Q179700","P31^label:cs":"Socha","P131^label:cs":"Martínkovice","P6736":"22520"},"geometry":{"type":"Point","coordinates":[16.35942,50.55668]}},{"type":"Feature","properties":{"label:cs":"Torzo sochy v Otovicích u cesty do Martínkovic","P31":"http://www.wikidata.org/entity/Q179700","P31^label:cs":"Socha","P131^label:cs":"Otovice","P6736":"22292"},"geometry":{"type":"Point","coordinates":[16.36362,50.56126]}}]}