{"type":"FeatureCollection","features":[{"type":"Feature","properties":{"label:cs":"Pamětní kříž v Kačerově","P31":"http://www.wikidata.org/entity/Q2309609","P31^label:cs":"Pamětní kříž","P131^label:cs":"Zdobnice","P6736":"33405"},"geometry":{"type":"Point","coordinates":[16.37924,50.23226]}},{"type":"Feature","properties":{"label:cs":"Pamětní kříž v Kačerově u kostela","P31":"http://www.wikidata.org/entity/Q2309609","P31^label:cs":"Pamětní kříž","P131^label:cs":"Zdobnice","P6736":"32262"},"geometry":{"type":"Point","coordinates":[16.37827,50.23315]}},{"type":"Feature","properties":{"label:cs":"Socha v Kunčině Vsi","P31":"http://www.wikidata.org/entity/Q179700","P31^label:cs":"Socha","P131^label:cs":"Zdobnice","P6736":"34792"},"geometry":{"type":"Point","coordinates":[16.37984,50.22091]}},{"type":"Feature","properties":{"label:cs":"Pamětní kříž v Kunčině Vsi","P31":"http://www.wikidata.org/entity/Q2309609","P31^label:cs":"Pamětní kříž","P131^label:cs":"Zdobnice","P6736":"34791"},"geometry":{"type":"Point","coordinates":[16.38511,50.22136]}},{"type":"Feature","properties":{"label:cs":"Pamětní kříž v Kunčině Vsi","P31":"http://www.wikidata.org/entity/Q2309609","P31^label:cs":"Pamětní kříž","P131^label:cs":"Zdobnice","P6736":"34790"},"geometry":{"type":"Point","coordinates":[16.38647,50.22635]}},{"type":"Feature","properties":{"label:cs":"Kaple Svaté Anny v Kunčině vsi","P31":"http://www.wikidata.org/entity/Q108325","P31^label:cs":"Kaple","P131^label:cs":"Zdobnice","P6736":"33414"},"geometry":{"type":"Point","coordinates":[16.38311,50.22321]}},{"type":"Feature","properties":{"label:cs":"Pamětní kříž východně od Kunčiny vsi","P31":"http://www.wikidata.org/entity/Q2309609","P31^label:cs":"Pamětní kříž","P131^label:cs":"Zdobnice","P6736":"33404"},"geometry":{"type":"Point","coordinates":[16.39013,50.223]}}]}