{"type":"FeatureCollection","features":[{"type":"Feature","properties":{"label:cs":"Pamětní kříž se studánkou v místě bývalé kaple svaté Anny východně od Rampuše","P31":"http://www.wikidata.org/entity/Q2309609","P31^label:cs":"Pamětní kříž","P131^label:cs":"Liberk","P6736":"34869"},"geometry":{"type":"Point","coordinates":[16.38824,50.20714]}},{"type":"Feature","properties":{"label:cs":"Socha svatého Jana Nepomuckého v Rampuši","P31":"http://www.wikidata.org/entity/Q179700","P31^label:cs":"Socha","P131^label:cs":"Liberk","P6736":"33643"},"geometry":{"type":"Point","coordinates":[16.37551,50.20893]}},{"type":"Feature","properties":{"label:cs":"Socha Rampepurdy v Rampuši","P31":"http://www.wikidata.org/entity/Q179700","P31^label:cs":"Socha","P131^label:cs":"Liberk","P6736":"33642"},"geometry":{"type":"Point","coordinates":[16.37556,50.20922]}},{"type":"Feature","properties":{"label:cs":"Zvonička v Rampuši","P31":"http://www.wikidata.org/entity/Q10861631","P31^label:cs":"Zvonička","P131^label:cs":"Liberk","P6736":"33641"},"geometry":{"type":"Point","coordinates":[16.38085,50.21043]}},{"type":"Feature","properties":{"label:cs":"Kaple v Rampuši","P31":"http://www.wikidata.org/entity/Q108325","P31^label:cs":"Kaple","P131^label:cs":"Liberk","P6736":"33640"},"geometry":{"type":"Point","coordinates":[16.38065,50.21046]}},{"type":"Feature","properties":{"label:cs":"Kaple Panny Marie v Rampuši","P31":"http://www.wikidata.org/entity/Q108325","P31^label:cs":"Kaple","P131^label:cs":"Liberk","P6736":"33626"},"geometry":{"type":"Point","coordinates":[16.3732,50.20546]}},{"type":"Feature","properties":{"label:cs":"Pomník padlým v Rampuši","P31":"http://www.wikidata.org/entity/Q575759","P31^label:cs":"Pomník padlým","P131^label:cs":"Liberk","P6736":"33624"},"geometry":{"type":"Point","coordinates":[16.37324,50.20549]}}]}