{"type":"FeatureCollection","features":[{"type":"Feature","properties":{"label:cs":"Socha svatého Pavla před kostelem svatého Petra a Pavla v Hnátnici","P31":"http://www.wikidata.org/entity/Q179700","P31^label:cs":"Socha","P131^label:cs":"Hnátnice","P6736":"34950"},"geometry":{"type":"Point","coordinates":[16.44389,50.01589]}},{"type":"Feature","properties":{"label:cs":"Socha svatého Petra před kostelem svatého Petra a Pavla v Hnátnici","P31":"http://www.wikidata.org/entity/Q179700","P31^label:cs":"Socha","P131^label:cs":"Hnátnice","P6736":"34949"},"geometry":{"type":"Point","coordinates":[16.44386,50.0159]}},{"type":"Feature","properties":{"label:cs":"Kříž v Hnátnici u kostela svatého Petra a Pavla","P31":"http://www.wikidata.org/entity/Q2309609","P31^label:cs":"Pamětní kříž","P131^label:cs":"Hnátnice","P6736":"34948"},"geometry":{"type":"Point","coordinates":[16.44393,50.01594]}},{"type":"Feature","properties":{"label:cs":"Socha svatého Jana Nepomuckého v Hnátnici vedle školy","P31":"http://www.wikidata.org/entity/Q179700","P31^label:cs":"Socha","P131^label:cs":"Hnátnice","P6736":"34947"},"geometry":{"type":"Point","coordinates":[16.44436,50.01579]}},{"type":"Feature","properties":{"label:cs":"Boží muka západně od Hnátnice","P31":"http://www.wikidata.org/entity/Q3395121","P31^label:cs":"Boží muka","P131^label:cs":"Hnátnice","P6736":"25555"},"geometry":{"type":"Point","coordinates":[16.44275,50.01286]}},{"type":"Feature","properties":{"label:cs":"Boží muka v Hnátnici poblíž kostela svatého Petra a Pavla","P31":"http://www.wikidata.org/entity/Q3395121","P31^label:cs":"Boží muka","P131^label:cs":"Hnátnice","P6736":"25553"},"geometry":{"type":"Point","coordinates":[16.44313,50.01638]}},{"type":"Feature","properties":{"label:cs":"Kříž v jižní části Hnátnice","P31":"http://www.wikidata.org/entity/Q2309609","P31^label:cs":"Pamětní kříž","P131^label:cs":"Hnátnice","P6736":"12837"},"geometry":{"type":"Point","coordinates":[16.45584,50.012]}},{"type":"Feature","properties":{"label:cs":"Kříž v Hnátnici severní část III","P31":"http://www.wikidata.org/entity/Q2309609","P31^label:cs":"Pamětní kříž","P131^label:cs":"Hnátnice","P6736":"12832"},"geometry":{"type":"Point","coordinates":[16.43696,50.02145]}}]}