{"type":"FeatureCollection","features":[{"type":"Feature","properties":{"label:cs":"Kříž v České Třebové na křižovatce ulic Moravská a Zapského","P31":"http://www.wikidata.org/entity/Q2309609","P31^label:cs":"Pamětní kříž","P131^label:cs":"Česká Třebová","P6736":"21267"},"geometry":{"type":"Point","coordinates":[16.45468,49.89674]}},{"type":"Feature","properties":{"label:cs":"Kříž v České Třebové ve Slovanské ulici","P31":"http://www.wikidata.org/entity/Q2309609","P31^label:cs":"Pamětní kříž","P131^label:cs":"Česká Třebová","P6736":"17536"},"geometry":{"type":"Point","coordinates":[16.44834,49.89919]}},{"type":"Feature","properties":{"label:cs":"Pamětní kříž na ulici dr E. Beneše 2","P31":"http://www.wikidata.org/entity/Q2309609","P31^label:cs":"Pamětní kříž","P131^label:cs":"Česká Třebová","P6736":"15493"},"geometry":{"type":"Point","coordinates":[16.44179,49.90802]}},{"type":"Feature","properties":{"label:cs":"Pamětní kříž na ulici dr E. Beneše","P31":"http://www.wikidata.org/entity/Q2309609","P31^label:cs":"Pamětní kříž","P131^label:cs":"Česká Třebová","P6736":"14379"},"geometry":{"type":"Point","coordinates":[16.44283,49.90681]}},{"type":"Feature","properties":{"label:cs":"Kříž v České Třebové u jihozápadní strany kostela","P31":"http://www.wikidata.org/entity/Q2309609","P31^label:cs":"Pamětní kříž","P131^label:cs":"Česká Třebová","P6736":"12970"},"geometry":{"type":"Point","coordinates":[16.44643,49.90232]}},{"type":"Feature","properties":{"label:cs":"Kaple Panny Marie v České Třebové na Chorinově ulici","P31":"http://www.wikidata.org/entity/Q108325","P31^label:cs":"Kaple","P131^label:cs":"Česká Třebová","P6736":"12969"},"geometry":{"type":"Point","coordinates":[16.45004,49.90028]}},{"type":"Feature","properties":{"label:cs":"Socha Svaté Kateřiny v České Třebové u kostela","P31":"http://www.wikidata.org/entity/Q179700","P31^label:cs":"Socha","P131^label:cs":"Česká Třebová","P6736":"12968"},"geometry":{"type":"Point","coordinates":[16.44627,49.90271]}},{"type":"Feature","properties":{"label:cs":"Socha Svatého Jana Nepomuckého v České Třebové u kostela","P31":"http://www.wikidata.org/entity/Q179700","P31^label:cs":"Socha","P131^label:cs":"Česká Třebová","P6736":"12967"},"geometry":{"type":"Point","coordinates":[16.44616,49.90257]}},{"type":"Feature","properties":{"label:cs":"Kříž v České Třebové u severozápadní strany kostela","P31":"http://www.wikidata.org/entity/Q2309609","P31^label:cs":"Pamětní kříž","P131^label:cs":"Česká Třebová","P6736":"12966"},"geometry":{"type":"Point","coordinates":[16.4463,49.90273]}},{"type":"Feature","properties":{"label:cs":"Socha Svaté Barbory v České Třebové u kostela","P31":"http://www.wikidata.org/entity/Q179700","P31^label:cs":"Socha","P131^label:cs":"Česká Třebová","P6736":"12964"},"geometry":{"type":"Point","coordinates":[16.44618,49.90266]}},{"type":"Feature","properties":{"label:cs":"Socha Svatého Václava v České Třebové u kostela","P31":"http://www.wikidata.org/entity/Q179700","P31^label:cs":"Socha","P131^label:cs":"Česká Třebová","P6736":"12963"},"geometry":{"type":"Point","coordinates":[16.44674,49.9025]}},{"type":"Feature","properties":{"label:cs":"Kříž v České Třebové v části zvané Bezděkov","P31":"http://www.wikidata.org/entity/Q2309609","P31^label:cs":"Pamětní kříž","P131^label:cs":"Česká Třebová","P6736":"12962"},"geometry":{"type":"Point","coordinates":[16.45539,49.9013]}}]}