{"type":"FeatureCollection","features":[{"type":"Feature","properties":{"label:cs":"Kaple Matky Boží u cesty k hradu Veveří","P31":"http://www.wikidata.org/entity/Q108325","P31^label:cs":"Kaple","P131^label:cs":"Brno","P6736":"25941"},"geometry":{"type":"Point","coordinates":[16.45491,49.25549]}},{"type":"Feature","properties":{"label:cs":"Pomník na cholerovém hřbitově u Veverské Bitýšky","P31":"http://www.wikidata.org/entity/Q4989906","P31^label:cs":"Pomník","P131^label:cs":"Veverská Bítýška","P6736":"28771"},"geometry":{"type":"Point","coordinates":[16.44283,49.26688]}},{"type":"Feature","properties":{"label:cs":"Kříž na cholerovém hřbitově u Veverské Bitýšky","P31":"http://www.wikidata.org/entity/Q2309609","P31^label:cs":"Pamětní kříž","P131^label:cs":"Veverská Bítýška","P6736":"28770"},"geometry":{"type":"Point","coordinates":[16.44287,49.26689]}},{"type":"Feature","properties":{"label:cs":"Boží muka na rozcestí u silnice jižně od Veverské Bítýšky","P31":"http://www.wikidata.org/entity/Q3395121","P31^label:cs":"Boží muka","P131^label:cs":"Veverská Bítýška","P6736":"25940"},"geometry":{"type":"Point","coordinates":[16.44484,49.26035]}},{"type":"Feature","properties":{"label:cs":"Kříž u silnice jižně od Veverské Bítýšky","P31":"http://www.wikidata.org/entity/Q2309609","P31^label:cs":"Pamětní kříž","P131^label:cs":"Veverská Bítýška","P6736":"25939"},"geometry":{"type":"Point","coordinates":[16.44267,49.26189]}}]}