{"type":"FeatureCollection","features":[{"type":"Feature","properties":{"label:cs":"Kříž v Knapovci ve středu obce","P31":"http://www.wikidata.org/entity/Q2309609","P31^label:cs":"Pamětní kříž","P131^label:cs":"Ústí nad Orlicí","P6736":"21328"},"geometry":{"type":"Point","coordinates":[16.44125,49.95918]}},{"type":"Feature","properties":{"label:cs":"Torzo kříže v Knapovci","P31":"http://www.wikidata.org/entity/Q2309609","P31^label:cs":"Pamětní kříž","P131^label:cs":"Ústí nad Orlicí","P6736":"21072"},"geometry":{"type":"Point","coordinates":[16.43575,49.9624]}},{"type":"Feature","properties":{"label:cs":"Boží muka v Knapovci","P31":"http://www.wikidata.org/entity/Q3395121","P31^label:cs":"Boží muka","P131^label:cs":"Ústí nad Orlicí","P6736":"12628"},"geometry":{"type":"Point","coordinates":[16.44151,49.95738]}},{"type":"Feature","properties":{"label:cs":"Socha v Knapovci","P31":"http://www.wikidata.org/entity/Q179700","P31^label:cs":"Socha","P131^label:cs":"Ústí nad Orlicí","P6736":"12593"},"geometry":{"type":"Point","coordinates":[16.44344,49.95996]}},{"type":"Feature","properties":{"label:cs":"Boží muka v Knapovci východně od kostela","P31":"http://www.wikidata.org/entity/Q3395121","P31^label:cs":"Boží muka","P131^label:cs":"Ústí nad Orlicí","P6736":"12592"},"geometry":{"type":"Point","coordinates":[16.45225,49.95893]}},{"type":"Feature","properties":{"label:cs":"Socha Svatého Jana Nepomuckého v Knapovci","P31":"http://www.wikidata.org/entity/Q179700","P31^label:cs":"Socha","P131^label:cs":"Ústí nad Orlicí","P6736":"12591"},"geometry":{"type":"Point","coordinates":[16.45046,49.95921]}},{"type":"Feature","properties":{"label:cs":"Kříž v Knapovci před kostelem","P31":"http://www.wikidata.org/entity/Q2309609","P31^label:cs":"Pamětní kříž","P131^label:cs":"Ústí nad Orlicí","P6736":"12590"},"geometry":{"type":"Point","coordinates":[16.45018,49.95914]}},{"type":"Feature","properties":{"label:cs":"Torzo kříže v Knapovci u křižovatky na Lanškroun","P31":"http://www.wikidata.org/entity/Q2309609","P31^label:cs":"Pamětní kříž","P131^label:cs":"Ústí nad Orlicí","P6736":"12588"},"geometry":{"type":"Point","coordinates":[16.44866,49.95649]}},{"type":"Feature","properties":{"label:cs":"Boží muka v Knapovci","P31":"http://www.wikidata.org/entity/Q3395121","P31^label:cs":"Boží muka","P131^label:cs":"Ústí nad Orlicí","P6736":"12587"},"geometry":{"type":"Point","coordinates":[16.43799,49.95796]}}]}