{"type":"FeatureCollection","features":[{"type":"Feature","properties":{"label:cs":"Socha Krista Trpitele v Rokytnici v Orlických horách","P31":"http://www.wikidata.org/entity/Q179700","P31^label:cs":"Socha","P131^label:cs":"Rokytnice v Orlických horách","P6736":"36489"},"geometry":{"type":"Point","coordinates":[16.46817,50.16629]}},{"type":"Feature","properties":{"label:cs":"Kříž v Rokytnici v Orlických horách","P31":"http://www.wikidata.org/entity/Q2309609","P31^label:cs":"Pamětní kříž","P131^label:cs":"Rokytnice v Orlických horách","P6736":"35701"},"geometry":{"type":"Point","coordinates":[16.46474,50.17212]}},{"type":"Feature","properties":{"label:cs":"Socha Ježíše Krista v Rokytnici v Orlických horách","P31":"http://www.wikidata.org/entity/Q179700","P31^label:cs":"Socha","P131^label:cs":"Rokytnice v Orlických horách","P6736":"32383"},"geometry":{"type":"Point","coordinates":[16.46656,50.16886]}},{"type":"Feature","properties":{"label:cs":"Kaplička svatého Antonína Paduánského v Rokytnici v Orlických Horách na křižovatce ulic Horská a Severní","P31":"http://www.wikidata.org/entity/Q14552192","P31^label:cs":"Kaplička","P131^label:cs":"Rokytnice v Orlických horách","P6736":"27678"},"geometry":{"type":"Point","coordinates":[16.46505,50.17059]}},{"type":"Feature","properties":{"label:cs":"Kaple svaté Anny v Rokytnici v Orlických Horách","P31":"http://www.wikidata.org/entity/Q108325","P31^label:cs":"Kaple","P131^label:cs":"Rokytnice v Orlických horách","P6736":"27676"},"geometry":{"type":"Point","coordinates":[16.46222,50.16781]}},{"type":"Feature","properties":{"label:cs":"Kříž v Rokytnici v Orlických horách na náměstí Jindřicha Šimka","P31":"http://www.wikidata.org/entity/Q2309609","P31^label:cs":"Pamětní kříž","P131^label:cs":"Rokytnice v Orlických horách","P6736":"27674"},"geometry":{"type":"Point","coordinates":[16.46691,50.16555]}},{"type":"Feature","properties":{"label:cs":"Památník založení dobrovolné požární ochrany v Rokytnici v Orlických Horách","P31":"http://www.wikidata.org/entity/Q5003624","P31^label:cs":"Památník","P131^label:cs":"Rokytnice v Orlických horách","P6736":"27672"},"geometry":{"type":"Point","coordinates":[16.46682,50.16568]}},{"type":"Feature","properties":{"label:cs":"Pomník padlým v Rokytnici v Orlických horách vedle kostela Všech Svatých","P31":"http://www.wikidata.org/entity/Q575759","P31^label:cs":"Pomník padlým","P131^label:cs":"Rokytnice v Orlických horách","P6736":"27623"},"geometry":{"type":"Point","coordinates":[16.46664,50.16541]}},{"type":"Feature","properties":{"label:cs":"Kříž v Rokytnici v Orlických horách u koupaliště","P31":"http://www.wikidata.org/entity/Q2309609","P31^label:cs":"Pamětní kříž","P131^label:cs":"Rokytnice v Orlických horách","P6736":"27610"},"geometry":{"type":"Point","coordinates":[16.46721,50.16453]}},{"type":"Feature","properties":{"label:cs":"Sloup se sochou Panny Marie v Rokytnici v Orlických horách na náměstí","P31":"http://www.wikidata.org/entity/Q4817","P31^label:cs":"Sloup","P131^label:cs":"Rokytnice v Orlických horách","P6736":"27609"},"geometry":{"type":"Point","coordinates":[16.46559,50.16508]}},{"type":"Feature","properties":{"label:cs":"Kašna v Rokytnici v Orlických horách na náměstí","P31":"http://www.wikidata.org/entity/Q12029081","P31^label:cs":"Kašna","P131^label:cs":"Rokytnice v Orlických horách","P6736":"27608"},"geometry":{"type":"Point","coordinates":[16.46575,50.16506]}}]}