{"type":"FeatureCollection","features":[{"type":"Feature","properties":{"label:cs":"Pomník padlým v Kunštátu u Orlickém Záhoří","P31":"http://www.wikidata.org/entity/Q575759","P31^label:cs":"Pomník padlým","P131^label:cs":"Orlické Záhoří","P6736":"33952"},"geometry":{"type":"Point","coordinates":[16.47577,50.27779]}},{"type":"Feature","properties":{"label:cs":"Plastika v Kunštátu u Orlického Záhoří","P31":"http://www.wikidata.org/entity/Q12045520","P31^label:cs":"Plastika","P131^label:cs":"Orlické Záhoří","P6736":"33951"},"geometry":{"type":"Point","coordinates":[16.47554,50.27846]}},{"type":"Feature","properties":{"label:cs":"Pamětní deska Ignáci Preisslerovi v Kunštátu u Orlického Záhoří","P31":"http://www.wikidata.org/entity/Q721747","P31^label:cs":"Pamětní deska","P131^label:cs":"Orlické Záhoří","P6736":"33942"},"geometry":{"type":"Point","coordinates":[16.47543,50.27818]}},{"type":"Feature","properties":{"label:cs":"Socha anděla v Kunštátě u Orlického Záhoří","P31":"http://www.wikidata.org/entity/Q179700","P31^label:cs":"Socha","P131^label:cs":"Orlické Záhoří","P6736":"12854"},"geometry":{"type":"Point","coordinates":[16.46915,50.28023]}},{"type":"Feature","properties":{"label:cs":"Kříž v Kunštátě","P31":"http://www.wikidata.org/entity/Q2309609","P31^label:cs":"Pamětní kříž","P131^label:cs":"Orlické Záhoří","P6736":"12627"},"geometry":{"type":"Point","coordinates":[16.46969,50.27997]}},{"type":"Feature","properties":{"label:cs":"Kříž v Orlickém Záhoří u kostela","P31":"http://www.wikidata.org/entity/Q2309609","P31^label:cs":"Pamětní kříž","P131^label:cs":"Orlické Záhoří","P6736":"12598"},"geometry":{"type":"Point","coordinates":[16.47516,50.27843]}}]}