{"type":"FeatureCollection","features":[{"type":"Feature","properties":{"label:cs":"Kašna se sochou Svatého Floriána na náměstí Míru ve Svitavách","P31":"http://www.wikidata.org/entity/Q179700","P31^label:cs":"Socha","P131^label:cs":"Svitavy","P6736":"21258"},"geometry":{"type":"Point","coordinates":[16.4679,49.75603]}},{"type":"Feature","properties":{"label:cs":"Mariánský sloup na náměstí Míru ve Svitavách","P31":"http://www.wikidata.org/entity/Q4817","P31^label:cs":"Sloup","P131^label:cs":"Svitavy","P6736":"21257"},"geometry":{"type":"Point","coordinates":[16.4672,49.7562]}},{"type":"Feature","properties":{"label:cs":"Socha Svatého Jana Nepomuckého na Školní ulici ve Svitavách","P31":"http://www.wikidata.org/entity/Q179700","P31^label:cs":"Socha","P131^label:cs":"Svitavy","P6736":"21259"},"geometry":{"type":"Point","coordinates":[16.47385,49.75562]}},{"type":"Feature","properties":{"label:cs":"Sousoší Piety na Sokolovské ulici ve Svitavách","P31":"http://www.wikidata.org/entity/Q179700","P31^label:cs":"Socha","P131^label:cs":"Svitavy","P6736":"21255"},"geometry":{"type":"Point","coordinates":[16.46032,49.76003]}},{"type":"Feature","properties":{"label:cs":"Kříž ve Svitavách na ulici 5. května","P31":"http://www.wikidata.org/entity/Q2309609","P31^label:cs":"Pamětní kříž","P131^label:cs":"Svitavy","P6736":"21254"},"geometry":{"type":"Point","coordinates":[16.47535,49.75566]}},{"type":"Feature","properties":{"label:cs":"Kříž u Římskokatolické fary ve Svitavách na Školní ulici","P31":"http://www.wikidata.org/entity/Q2309609","P31^label:cs":"Pamětní kříž","P131^label:cs":"Svitavy","P6736":"21253"},"geometry":{"type":"Point","coordinates":[16.47411,49.75578]}}]}