{"type":"FeatureCollection","features":[{"type":"Feature","properties":{"label:cs":"Kašna v zámeckém parku v Letohradu","P31":"http://www.wikidata.org/entity/Q12029081","P31^label:cs":"Kašna","P131^label:cs":"Letohrad","P6736":"13891"},"geometry":{"type":"Point","coordinates":[16.49807,50.03509]}},{"type":"Feature","properties":{"label:cs":"Sousoší svaté Anny v Letohradě u kostela svatého Václava","P31":"http://www.wikidata.org/entity/Q179700","P31^label:cs":"Socha","P131^label:cs":"Letohrad","P6736":"16830"},"geometry":{"type":"Point","coordinates":[16.49875,50.03567]}},{"type":"Feature","properties":{"label:cs":"Kaplička v Letohradě v Ústecké ulici","P31":"http://www.wikidata.org/entity/Q14552192","P31^label:cs":"Kaplička","P131^label:cs":"Letohrad","P6736":"17062"},"geometry":{"type":"Point","coordinates":[16.49535,50.03257]}},{"type":"Feature","properties":{"label:cs":"Památník Járy Cimrmana u boční zdi zámku v Letohradu","P31":"http://www.wikidata.org/entity/Q5003624","P31^label:cs":"Památník","P131^label:cs":"Letohrad","P6736":"20100"},"geometry":{"type":"Point","coordinates":[16.50003,50.03542]}},{"type":"Feature","properties":{"label:cs":"Empírový altán v zámeckém parku v Letohradu","P31":"http://www.wikidata.org/entity/Q961082","P31^label:cs":"Altán","P131^label:cs":"Letohrad","P6736":"20101"},"geometry":{"type":"Point","coordinates":[16.49417,50.03428]}},{"type":"Feature","properties":{"label:cs":"Kaple na hřbitově v Letohradu","P31":"http://www.wikidata.org/entity/Q108325","P31^label:cs":"Kaple","P131^label:cs":"Letohrad","P6736":"20102"},"geometry":{"type":"Point","coordinates":[16.49404,50.03474]}},{"type":"Feature","properties":{"label:cs":"Kaple svatého Jana Nepomuckého na hřebeni nad Letohradem","P31":"http://www.wikidata.org/entity/Q108325","P31^label:cs":"Kaple","P131^label:cs":"Letohrad","P6736":"20103"},"geometry":{"type":"Point","coordinates":[16.492,50.03485]}},{"type":"Feature","properties":{"label:cs":"Pomník F. V. Heka u kostela svatého Václava v Letohradu","P31":"http://www.wikidata.org/entity/Q4989906","P31^label:cs":"Pomník","P131^label:cs":"Letohrad","P6736":"20104"},"geometry":{"type":"Point","coordinates":[16.49855,50.03557]}},{"type":"Feature","properties":{"label:cs":"Sousoší svaté Anny u kostela svatého Václava v Letohradu","P31":"http://www.wikidata.org/entity/Q179700","P31^label:cs":"Socha","P131^label:cs":"Letohrad","P6736":"20105"},"geometry":{"type":"Point","coordinates":[16.4987,50.03569]}},{"type":"Feature","properties":{"label:cs":"Socha Panny Marie v Letohradě v místní části Podměstí","P31":"http://www.wikidata.org/entity/Q179700","P31^label:cs":"Socha","P131^label:cs":"Letohrad","P6736":"25390"},"geometry":{"type":"Point","coordinates":[16.49833,50.03274]}},{"type":"Feature","properties":{"label:cs":"Kříž v Letohradě v ulici Ústecká","P31":"http://www.wikidata.org/entity/Q2309609","P31^label:cs":"Pamětní kříž","P131^label:cs":"Letohrad","P6736":"27604"},"geometry":{"type":"Point","coordinates":[16.49797,50.03408]}}]}