{"type":"FeatureCollection","features":[{"type":"Feature","properties":{"label:cs":"Poutní kaple Panny Marie, Matky ustavičné pomoci u Dobrouče","P31":"http://www.wikidata.org/entity/Q108325","P31^label:cs":"Kaple","P131^label:cs":"Dolní Dobrouč","P6736":"36231"},"geometry":{"type":"Point","coordinates":[16.48599,49.98113]}},{"type":"Feature","properties":{"label:cs":"Sloup se sochou Panny Marie u Dolní Dobrouče","P31":"http://www.wikidata.org/entity/Q4817","P31^label:cs":"Sloup","P131^label:cs":"Dolní Dobrouč","P6736":"36230"},"geometry":{"type":"Point","coordinates":[16.48597,49.98103]}},{"type":"Feature","properties":{"label:cs":"Sousoší Nejsvětější Trojice v Dolní Dobrouči vedle kostela svatého Mikuláše","P31":"http://www.wikidata.org/entity/Q179700","P31^label:cs":"Socha","P131^label:cs":"Dolní Dobrouč","P6736":"26942"},"geometry":{"type":"Point","coordinates":[16.49792,49.99276]}},{"type":"Feature","properties":{"label:cs":"Kříž v Dolní Dobrouči vedle kostela svatého Mikuláše","P31":"http://www.wikidata.org/entity/Q2309609","P31^label:cs":"Pamětní kříž","P131^label:cs":"Dolní Dobrouč","P6736":"26941"},"geometry":{"type":"Point","coordinates":[16.49808,49.99245]}},{"type":"Feature","properties":{"label:cs":"Pomník padlým v Dolní Dobrouči poblíž obecního úřadu","P31":"http://www.wikidata.org/entity/Q575759","P31^label:cs":"Pomník padlým","P131^label:cs":"Dolní Dobrouč","P6736":"26940"},"geometry":{"type":"Point","coordinates":[16.4973,49.99309]}},{"type":"Feature","properties":{"label:cs":"Socha Panny Marie v Dolní Dobrouči u obecního úřadu","P31":"http://www.wikidata.org/entity/Q179700","P31^label:cs":"Socha","P131^label:cs":"Dolní Dobrouč","P6736":"26939"},"geometry":{"type":"Point","coordinates":[16.49724,49.99351]}},{"type":"Feature","properties":{"label:cs":"Hartlův kříž západně od Dolní Dobrouče","P31":"http://www.wikidata.org/entity/Q2309609","P31^label:cs":"Pamětní kříž","P131^label:cs":"Dolní Dobrouč","P6736":"26767"},"geometry":{"type":"Point","coordinates":[16.49453,49.99]}},{"type":"Feature","properties":{"label:cs":"Kříž v Dolní Dobrouči naproti fotbalovému hřišti","P31":"http://www.wikidata.org/entity/Q2309609","P31^label:cs":"Pamětní kříž","P131^label:cs":"Dolní Dobrouč","P6736":"25400"},"geometry":{"type":"Point","coordinates":[16.5014,49.99329]}},{"type":"Feature","properties":{"label:cs":"Socha Panny Marie jihozápadně od Dolní Dobrouče","P31":"http://www.wikidata.org/entity/Q179700","P31^label:cs":"Socha","P131^label:cs":"Dolní Dobrouč","P6736":"24561"},"geometry":{"type":"Point","coordinates":[16.49622,49.98472]}},{"type":"Feature","properties":{"label:cs":"Socha svatého Jana Nepomuckého v Dolní Dobrouči","P31":"http://www.wikidata.org/entity/Q179700","P31^label:cs":"Socha","P131^label:cs":"Dolní Dobrouč","P6736":"14987"},"geometry":{"type":"Point","coordinates":[16.50045,49.98681]}}]}