{"type":"FeatureCollection","features":[{"type":"Feature","properties":{"label:cs":"Kříž u severního okraje Horní Dobrouče","P31":"http://www.wikidata.org/entity/Q2309609","P31^label:cs":"Pamětní kříž","P131^label:cs":"Dolní Dobrouč","P6736":"26926"},"geometry":{"type":"Point","coordinates":[16.50162,49.97392]}},{"type":"Feature","properties":{"label:cs":"Kříž v Horní Dobrouči u kostela svatého Jana Křtitele","P31":"http://www.wikidata.org/entity/Q2309609","P31^label:cs":"Pamětní kříž","P131^label:cs":"Dolní Dobrouč","P6736":"26923"},"geometry":{"type":"Point","coordinates":[16.51378,49.9667]}},{"type":"Feature","properties":{"label:cs":"Sousoší Nanebevzetí Panny Marie v Horní Dobrouči poblíž kostela svatého Jana Křtitele","P31":"http://www.wikidata.org/entity/Q179700","P31^label:cs":"Socha","P131^label:cs":"Dolní Dobrouč","P6736":"26922"},"geometry":{"type":"Point","coordinates":[16.51274,49.96694]}},{"type":"Feature","properties":{"label:cs":"Socha svatého Jana Nepomuckého v Horní Dobrouči poblíž kostela svatého Jana Křtitele","P31":"http://www.wikidata.org/entity/Q179700","P31^label:cs":"Socha","P131^label:cs":"Dolní Dobrouč","P6736":"26921"},"geometry":{"type":"Point","coordinates":[16.51245,49.96713]}},{"type":"Feature","properties":{"label:cs":"Kříž v Horní Dobrouči u hřbitova","P31":"http://www.wikidata.org/entity/Q2309609","P31^label:cs":"Pamětní kříž","P131^label:cs":"Dolní Dobrouč","P6736":"26920"},"geometry":{"type":"Point","coordinates":[16.51143,49.96814]}}]}