{"type":"FeatureCollection","features":[{"type":"Feature","properties":{"label:cs":"Kříž u kostela Nejsvětější Trojice v Klášterci nad Orlicí","P31":"http://www.wikidata.org/entity/Q2309609","P31^label:cs":"Pamětní kříž","P131^label:cs":"Klášterec nad Orlicí","P6736":"37930"},"geometry":{"type":"Point","coordinates":[16.55333,50.1115]}},{"type":"Feature","properties":{"label:cs":"Mariánský sloup v Klášterci nad Orlicí u mostu přes Divokou Orlici","P31":"http://www.wikidata.org/entity/Q4817","P31^label:cs":"Sloup","P131^label:cs":"Klášterec nad Orlicí","P6736":"37929"},"geometry":{"type":"Point","coordinates":[16.55448,50.11159]}},{"type":"Feature","properties":{"label:cs":"Socha Ježíše Krista v Klášterci nad Orlicí","P31":"http://www.wikidata.org/entity/Q179700","P31^label:cs":"Socha","P131^label:cs":"Klášterec nad Orlicí","P6736":"34828"},"geometry":{"type":"Point","coordinates":[16.5559,50.11891]}},{"type":"Feature","properties":{"label:cs":"Obrázek v Klášterci nad Orlicí","P31":"http://www.wikidata.org/entity/Q478798","P31^label:cs":"Obrázek","P131^label:cs":"Klášterec nad Orlicí","P6736":"34827"},"geometry":{"type":"Point","coordinates":[16.55582,50.11551]}},{"type":"Feature","properties":{"label:cs":"Obrázek v severní části Klášterce nad Orlicí","P31":"http://www.wikidata.org/entity/Q478798","P31^label:cs":"Obrázek","P131^label:cs":"Klášterec nad Orlicí","P6736":"33497"},"geometry":{"type":"Point","coordinates":[16.55295,50.11371]}},{"type":"Feature","properties":{"label:cs":"Socha Ježiše Krista v Klášterci nad Orlicí místní část Nad Kasárnami","P31":"http://www.wikidata.org/entity/Q179700","P31^label:cs":"Socha","P131^label:cs":"Klášterec nad Orlicí","P6736":"33496"},"geometry":{"type":"Point","coordinates":[16.549,50.11765]}},{"type":"Feature","properties":{"label:cs":"Obrázek severozápadně od Klášterce nad Orlicí","P31":"http://www.wikidata.org/entity/Q478798","P31^label:cs":"Obrázek","P131^label:cs":"Klášterec nad Orlicí","P6736":"33495"},"geometry":{"type":"Point","coordinates":[16.54622,50.11448]}},{"type":"Feature","properties":{"label:cs":"Kříž jižně od Zbudova III","P31":"http://www.wikidata.org/entity/Q2309609","P31^label:cs":"Pamětní kříž","P131^label:cs":"Klášterec nad Orlicí","P6736":"33487"},"geometry":{"type":"Point","coordinates":[16.54794,50.10869]}},{"type":"Feature","properties":{"label:cs":"Socha Panny Marie ve Zbudově","P31":"http://www.wikidata.org/entity/Q179700","P31^label:cs":"Socha","P131^label:cs":"Klášterec nad Orlicí","P6736":"33481"},"geometry":{"type":"Point","coordinates":[16.54813,50.11005]}},{"type":"Feature","properties":{"label:cs":"Obrázek jižně od Klášterce nad Orlicí","P31":"http://www.wikidata.org/entity/Q478798","P31^label:cs":"Obrázek","P131^label:cs":"Klášterec nad Orlicí","P6736":"27689"},"geometry":{"type":"Point","coordinates":[16.55955,50.1078]}},{"type":"Feature","properties":{"label:cs":"Kříž v jižní části Klášterce nad Orlicí","P31":"http://www.wikidata.org/entity/Q2309609","P31^label:cs":"Pamětní kříž","P131^label:cs":"Klášterec nad Orlicí","P6736":"27628"},"geometry":{"type":"Point","coordinates":[16.55832,50.10888]}}]}