{"type":"FeatureCollection","features":[{"type":"Feature","properties":{"label:cs":"Kříž v jižní části Klášterce nad Orlicí","P31":"http://www.wikidata.org/entity/Q2309609","P31^label:cs":"Pamětní kříž","P131^label:cs":"Klášterec nad Orlicí","P6736":"27628"},"geometry":{"type":"Point","coordinates":[16.55832,50.10888]}},{"type":"Feature","properties":{"label:cs":"Obrázek jižně od Klášterce nad Orlicí","P31":"http://www.wikidata.org/entity/Q478798","P31^label:cs":"Obrázek","P131^label:cs":"Klášterec nad Orlicí","P6736":"27689"},"geometry":{"type":"Point","coordinates":[16.55955,50.1078]}},{"type":"Feature","properties":{"label:cs":"Socha Panny Marie ve Zbudově","P31":"http://www.wikidata.org/entity/Q179700","P31^label:cs":"Socha","P131^label:cs":"Klášterec nad Orlicí","P6736":"33481"},"geometry":{"type":"Point","coordinates":[16.54813,50.11005]}},{"type":"Feature","properties":{"label:cs":"Kříž jižně od Zbudova III","P31":"http://www.wikidata.org/entity/Q2309609","P31^label:cs":"Pamětní kříž","P131^label:cs":"Klášterec nad Orlicí","P6736":"33487"},"geometry":{"type":"Point","coordinates":[16.54794,50.10869]}},{"type":"Feature","properties":{"label:cs":"Obrázek severozápadně od Klášterce nad Orlicí","P31":"http://www.wikidata.org/entity/Q478798","P31^label:cs":"Obrázek","P131^label:cs":"Klášterec nad Orlicí","P6736":"33495"},"geometry":{"type":"Point","coordinates":[16.54622,50.11448]}},{"type":"Feature","properties":{"label:cs":"Socha Ježiše Krista v Klášterci nad Orlicí místní část Nad Kasárnami","P31":"http://www.wikidata.org/entity/Q179700","P31^label:cs":"Socha","P131^label:cs":"Klášterec nad Orlicí","P6736":"33496"},"geometry":{"type":"Point","coordinates":[16.549,50.11765]}},{"type":"Feature","properties":{"label:cs":"Obrázek v severní části Klášterce nad Orlicí","P31":"http://www.wikidata.org/entity/Q478798","P31^label:cs":"Obrázek","P131^label:cs":"Klášterec nad Orlicí","P6736":"33497"},"geometry":{"type":"Point","coordinates":[16.55295,50.11371]}}]}