{"type":"FeatureCollection","features":[{"type":"Feature","properties":{"label:cs":"Kříž východně od Líšnice","P31":"http://www.wikidata.org/entity/Q2309609","P31^label:cs":"Pamětní kříž","P131^label:cs":"Líšnice","P6736":"35667"},"geometry":{"type":"Point","coordinates":[16.54549,50.08499]}},{"type":"Feature","properties":{"label:cs":"Socha Panny Marie v Pastvinách","P31":"http://www.wikidata.org/entity/Q179700","P31^label:cs":"Socha","P131^label:cs":"Pastviny","P6736":"38279"},"geometry":{"type":"Point","coordinates":[16.55835,50.08287]}},{"type":"Feature","properties":{"label:cs":"Socha svatého Jana Nepomuckého v Pastvinách u Klášterce nad Orlicí","P31":"http://www.wikidata.org/entity/Q179700","P31^label:cs":"Socha","P131^label:cs":"Pastviny","P6736":"34824"},"geometry":{"type":"Point","coordinates":[16.56598,50.0835]}},{"type":"Feature","properties":{"label:cs":"Socha Panny Marie v jihozápadní části Pastvin","P31":"http://www.wikidata.org/entity/Q179700","P31^label:cs":"Socha","P131^label:cs":"Pastviny","P6736":"33500"},"geometry":{"type":"Point","coordinates":[16.55452,50.0824]}},{"type":"Feature","properties":{"label:cs":"Kaple Panny Marie Růžencové v Pastvinách","P31":"http://www.wikidata.org/entity/Q108325","P31^label:cs":"Kaple","P131^label:cs":"Pastviny","P6736":"28497"},"geometry":{"type":"Point","coordinates":[16.56239,50.08828]}}]}