{"type":"FeatureCollection","features":[{"type":"Feature","properties":{"label:cs":"Kříž u severozápadní okraje Dolní Čermné","P31":"http://www.wikidata.org/entity/Q2309609","P31^label:cs":"Pamětní kříž","P131^label:cs":"Dolní Čermná","P6736":"27304"},"geometry":{"type":"Point","coordinates":[16.55783,49.98203]}},{"type":"Feature","properties":{"label:cs":"Kříž v severní části Dolní Čermné","P31":"http://www.wikidata.org/entity/Q2309609","P31^label:cs":"Pamětní kříž","P131^label:cs":"Dolní Čermná","P6736":"27087"},"geometry":{"type":"Point","coordinates":[16.56207,49.98038]}},{"type":"Feature","properties":{"label:cs":"Obrázek v severní části Dolní Čermné","P31":"http://www.wikidata.org/entity/Q478798","P31^label:cs":"Obrázek","P131^label:cs":"Dolní Čermná","P6736":"27086"},"geometry":{"type":"Point","coordinates":[16.56183,49.98114]}},{"type":"Feature","properties":{"label:cs":"Kaplička u severního okraje Dolní Čermné","P31":"http://www.wikidata.org/entity/Q14552192","P31^label:cs":"Kaplička","P131^label:cs":"Dolní Čermná","P6736":"26935"},"geometry":{"type":"Point","coordinates":[16.55825,49.9895]}},{"type":"Feature","properties":{"label:cs":"Kříž u severního okraje Dolní Čermné","P31":"http://www.wikidata.org/entity/Q2309609","P31^label:cs":"Pamětní kříž","P131^label:cs":"Dolní Čermná","P6736":"26934"},"geometry":{"type":"Point","coordinates":[16.55944,49.98816]}},{"type":"Feature","properties":{"label:cs":"Kříž v severovýchodní části Petrovic","P31":"http://www.wikidata.org/entity/Q2309609","P31^label:cs":"Pamětní kříž","P131^label:cs":"Petrovice","P6736":"26936"},"geometry":{"type":"Point","coordinates":[16.54809,49.98981]}},{"type":"Feature","properties":{"label:cs":"Pomník padlým v 1 světové válce v Petrovicích u Lanškrouna","P31":"http://www.wikidata.org/entity/Q575759","P31^label:cs":"Pomník padlým","P131^label:cs":"Petrovice","P6736":"15291"},"geometry":{"type":"Point","coordinates":[16.54897,49.99002]}}]}