{"type":"FeatureCollection","features":[{"type":"Feature","properties":{"label:cs":"Pomník padlým v Mistrovicích před školou","P31":"Pomník padlým","P31^label:cs":"Pomník padlým","P131^label:cs":"Mistrovice","P6736":"25402"},"geometry":{"type":"Point","coordinates":[16.57132,50.02457]}},{"type":"Feature","properties":{"label:cs":"Kříž v Mistrovicích východní okraj obce","P31":"Pamětní kříž","P31^label:cs":"Pamětní kříž","P131^label:cs":"Mistrovice","P6736":"25397"},"geometry":{"type":"Point","coordinates":[16.57269,50.02642]}},{"type":"Feature","properties":{"label:cs":"Kříž v Mistrovicích severovýchodní okraj obce","P31":"Pamětní kříž","P31^label:cs":"Pamětní kříž","P131^label:cs":"Mistrovice","P6736":"25396"},"geometry":{"type":"Point","coordinates":[16.58073,50.02964]}},{"type":"Feature","properties":{"label:cs":"Kříž v Mistrovicích severní okraj obce","P31":"Pamětní kříž","P31^label:cs":"Pamětní kříž","P131^label:cs":"Mistrovice","P6736":"25395"},"geometry":{"type":"Point","coordinates":[16.57289,50.03252]}},{"type":"Feature","properties":{"label:cs":"Kříž v Mistrovicích u kostela svatého Jana a Pavla","P31":"Pamětní kříž","P31^label:cs":"Pamětní kříž","P131^label:cs":"Mistrovice","P6736":"25394"},"geometry":{"type":"Point","coordinates":[16.56997,50.02669]}},{"type":"Feature","properties":{"label:cs":"Obrázek v Mistrovicích jihozápadní okraj obce","P31":"Obrázek","P31^label:cs":"Obrázek","P131^label:cs":"Mistrovice","P6736":"25393"},"geometry":{"type":"Point","coordinates":[16.56963,50.02472]}}]}