{"type":"FeatureCollection","features":[{"type":"Feature","properties":{"label:cs":"Vlys u Rašínovy ulice v Brně","P31":"http://www.wikidata.org/entity/Q478798","P31^label:cs":"Obrázek","P131^label:cs":"Brno","P6736":"10982"},"geometry":{"type":"Point","coordinates":[16.60802,49.19622]}},{"type":"Feature","properties":{"label:cs":"Kříž u kostela svatého Jakuba v Brně","P31":"http://www.wikidata.org/entity/Q2309609","P31^label:cs":"Pamětní kříž","P131^label:cs":"Brno","P6736":"10983"},"geometry":{"type":"Point","coordinates":[16.60802,49.1964]}},{"type":"Feature","properties":{"label:cs":"Památník na Moravském náměstí v Brně","P31":"http://www.wikidata.org/entity/Q5003624","P31^label:cs":"Památník","P131^label:cs":"Brno","P6736":"10984"},"geometry":{"type":"Point","coordinates":[16.60766,49.19807]}},{"type":"Feature","properties":{"label:cs":"Socha Leoše Janáčka za Janáčkovým divadlem v Brně","P31":"http://www.wikidata.org/entity/Q179700","P31^label:cs":"Socha","P131^label:cs":"Brno","P6736":"26101"},"geometry":{"type":"Point","coordinates":[16.61034,49.19887]}},{"type":"Feature","properties":{"label:cs":"Keramická plastika Královna noci v parku Koliště v Brně","P31":"http://www.wikidata.org/entity/Q12045520","P31^label:cs":"Plastika","P131^label:cs":"Brno","P6736":"26102"},"geometry":{"type":"Point","coordinates":[16.61069,49.19914]}},{"type":"Feature","properties":{"label:cs":"Keramická plastika Papageno v parku Koliště v Brně","P31":"http://www.wikidata.org/entity/Q12045520","P31^label:cs":"Plastika","P131^label:cs":"Brno","P6736":"26103"},"geometry":{"type":"Point","coordinates":[16.61105,49.1991]}},{"type":"Feature","properties":{"label:cs":"Travertinová plastika Moravská orlice u schodů do Janáčkova divadla v Brně","P31":"http://www.wikidata.org/entity/Q12045520","P31^label:cs":"Plastika","P131^label:cs":"Brno","P6736":"26106"},"geometry":{"type":"Point","coordinates":[16.61047,49.19867]}},{"type":"Feature","properties":{"label:cs":"Kašna Světelná fontána v parku u Janáčkova divadla v Brně","P31":"http://www.wikidata.org/entity/Q12029081","P31^label:cs":"Kašna","P131^label:cs":"Brno","P6736":"26107"},"geometry":{"type":"Point","coordinates":[16.60953,49.19886]}},{"type":"Feature","properties":{"label:cs":"Socha Jiřího Mahena v parku v Rooseveltově ulici v Brně","P31":"http://www.wikidata.org/entity/Q179700","P31^label:cs":"Socha","P131^label:cs":"Brno","P6736":"26108"},"geometry":{"type":"Point","coordinates":[16.60952,49.19796]}},{"type":"Feature","properties":{"label:cs":"Kašna v parku za místodržitelským palácem v Brně","P31":"http://www.wikidata.org/entity/Q12029081","P31^label:cs":"Kašna","P131^label:cs":"Brno","P6736":"26112"},"geometry":{"type":"Point","coordinates":[16.60951,49.19762]}},{"type":"Feature","properties":{"label:cs":"Kašna na Jakubském náměstí v Brně","P31":"http://www.wikidata.org/entity/Q12029081","P31^label:cs":"Kašna","P131^label:cs":"Brno","P6736":"26113"},"geometry":{"type":"Point","coordinates":[16.60917,49.19659]}},{"type":"Feature","properties":{"label:cs":"Kříž na rohu ulic Joštova a Marešova v Brně","P31":"http://www.wikidata.org/entity/Q2309609","P31^label:cs":"Pamětní kříž","P131^label:cs":"Brno","P6736":"26137"},"geometry":{"type":"Point","coordinates":[16.60161,49.19711]}},{"type":"Feature","properties":{"label:cs":"Socha Mim na Žerotínově náměstí v Brně","P31":"http://www.wikidata.org/entity/Q179700","P31^label:cs":"Socha","P131^label:cs":"Brno","P6736":"26138"},"geometry":{"type":"Point","coordinates":[16.60331,49.1985]}},{"type":"Feature","properties":{"label:cs":"Socha Spravedlnost u Nejvyššího správního soudu v Brně","P31":"http://www.wikidata.org/entity/Q179700","P31^label:cs":"Socha","P131^label:cs":"Brno","P6736":"26140"},"geometry":{"type":"Point","coordinates":[16.6071,49.19749]}},{"type":"Feature","properties":{"label:cs":"Socha Markrabě Jošt Lucemburský na Moravském náměstí v Brně","P31":"http://www.wikidata.org/entity/Q179700","P31^label:cs":"Socha","P131^label:cs":"Brno","P6736":"26141"},"geometry":{"type":"Point","coordinates":[16.60755,49.19765]}},{"type":"Feature","properties":{"label:cs":"Kovová plastika s modelem Brna na Moravském náměstí v Brně","P31":"http://www.wikidata.org/entity/Q12045520","P31^label:cs":"Plastika","P131^label:cs":"Brno","P6736":"26142"},"geometry":{"type":"Point","coordinates":[16.60758,49.19748]}},{"type":"Feature","properties":{"label:cs":"Sochy na průčelí domu Moravské náměstí 629/4 v Brně","P31":"http://www.wikidata.org/entity/Q179700","P31^label:cs":"Socha","P131^label:cs":"Brno","P6736":"26143"},"geometry":{"type":"Point","coordinates":[16.60781,49.19743]}},{"type":"Feature","properties":{"label:cs":"Sochy u portálu Místodržitelského paláce v Brně","P31":"http://www.wikidata.org/entity/Q179700","P31^label:cs":"Socha","P131^label:cs":"Brno","P6736":"26144"},"geometry":{"type":"Point","coordinates":[16.60806,49.1977]}},{"type":"Feature","properties":{"label:cs":"Sochy na štítu Místodržitelského paláce v Brně","P31":"http://www.wikidata.org/entity/Q179700","P31^label:cs":"Socha","P131^label:cs":"Brno","P6736":"26145"},"geometry":{"type":"Point","coordinates":[16.60809,49.19778]}},{"type":"Feature","properties":{"label:cs":"Pamětní deska Napoleona Bonaparte na Místodržitelském paláci v Brně","P31":"http://www.wikidata.org/entity/Q721747","P31^label:cs":"Pamětní deska","P131^label:cs":"Brno","P6736":"26146"},"geometry":{"type":"Point","coordinates":[16.60812,49.1976]}},{"type":"Feature","properties":{"label:cs":"Pamětní deska Danuše Muzikářové na domě Moravské náměstí 629/4 v Brně","P31":"http://www.wikidata.org/entity/Q721747","P31^label:cs":"Pamětní deska","P131^label:cs":"Brno","P6736":"26147"},"geometry":{"type":"Point","coordinates":[16.60755,49.19738]}},{"type":"Feature","properties":{"label:cs":"Památník osvobození na Moravském náměstí v Brně","P31":"http://www.wikidata.org/entity/Q5003624","P31^label:cs":"Památník","P131^label:cs":"Brno","P6736":"26148"},"geometry":{"type":"Point","coordinates":[16.60871,49.19953]}},{"type":"Feature","properties":{"label:cs":"Sochy světců vlevo od portálu kostela svatého Tomáše v Brně","P31":"http://www.wikidata.org/entity/Q179700","P31^label:cs":"Socha","P131^label:cs":"Brno","P6736":"26149"},"geometry":{"type":"Point","coordinates":[16.60744,49.19806]}},{"type":"Feature","properties":{"label:cs":"Socha svatého Tomáše nad portálem kostela svatého Tomáše v Brně","P31":"http://www.wikidata.org/entity/Q179700","P31^label:cs":"Socha","P131^label:cs":"Brno","P6736":"26150"},"geometry":{"type":"Point","coordinates":[16.60748,49.19801]}},{"type":"Feature","properties":{"label:cs":"Sochy světců vpravo od portálu kostela svatého Tomáše v Brně","P31":"http://www.wikidata.org/entity/Q179700","P31^label:cs":"Socha","P131^label:cs":"Brno","P6736":"26151"},"geometry":{"type":"Point","coordinates":[16.60756,49.19783]}},{"type":"Feature","properties":{"label:cs":"Sochy Zvěstování Panny Marie pod štítem kostela svatého Tomáše v Brně","P31":"http://www.wikidata.org/entity/Q179700","P31^label:cs":"Socha","P131^label:cs":"Brno","P6736":"26153"},"geometry":{"type":"Point","coordinates":[16.60753,49.1979]}},{"type":"Feature","properties":{"label:cs":"Kašna na Moravském náměstí v Brně","P31":"http://www.wikidata.org/entity/Q12029081","P31^label:cs":"Kašna","P131^label:cs":"Brno","P6736":"26154"},"geometry":{"type":"Point","coordinates":[16.60678,49.19899]}},{"type":"Feature","properties":{"label:cs":"Masarykův pomník před Lékařskou fakultou Masarykovy univerzity v Brně","P31":"http://www.wikidata.org/entity/Q4989906","P31^label:cs":"Pomník","P131^label:cs":"Brno","P6736":"26176"},"geometry":{"type":"Point","coordinates":[16.60329,49.19668]}},{"type":"Feature","properties":{"label:cs":"Sochy na štítu budovy Lékařské fakulty Masarykovy univerzity v Brně","P31":"http://www.wikidata.org/entity/Q179700","P31^label:cs":"Socha","P131^label:cs":"Brno","P6736":"26177"},"geometry":{"type":"Point","coordinates":[16.60304,49.19665]}},{"type":"Feature","properties":{"label:cs":"Sochy na štítě budovy Krajského úřadu v Brně","P31":"http://www.wikidata.org/entity/Q179700","P31^label:cs":"Socha","P131^label:cs":"Brno","P6736":"26186"},"geometry":{"type":"Point","coordinates":[16.60435,49.19888]}},{"type":"Feature","properties":{"label:cs":"Sochy vlevo na atice průčelí budovy Krajského úřadu v Brně","P31":"http://www.wikidata.org/entity/Q179700","P31^label:cs":"Socha","P131^label:cs":"Brno","P6736":"26187"},"geometry":{"type":"Point","coordinates":[16.60428,49.19879]}},{"type":"Feature","properties":{"label:cs":"Sochy vpravo na atice průčelí budovy Krajského úřadu v Brně","P31":"http://www.wikidata.org/entity/Q179700","P31^label:cs":"Socha","P131^label:cs":"Brno","P6736":"26188"},"geometry":{"type":"Point","coordinates":[16.60444,49.19884]}},{"type":"Feature","properties":{"label:cs":"Sochy v nikách na boku budovy Fakulty sociálních studií Masarykovy univerzity v Brně","P31":"http://www.wikidata.org/entity/Q179700","P31^label:cs":"Socha","P131^label:cs":"Brno","P6736":"26189"},"geometry":{"type":"Point","coordinates":[16.60173,49.19729]}}]}