{"type":"FeatureCollection","features":[{"type":"Feature","properties":{"label:cs":"Kříž severně od Českých Petrovic","P31":"http://www.wikidata.org/entity/Q2309609","P31^label:cs":"Pamětní kříž","P131^label:cs":"České Petrovice","P6736":"12153"},"geometry":{"type":"Point","coordinates":[16.60553,50.12727]}},{"type":"Feature","properties":{"label:cs":"Sousoší v Českých Petrovicích","P31":"http://www.wikidata.org/entity/Q179700","P31^label:cs":"Socha","P131^label:cs":"České Petrovice","P6736":"12843"},"geometry":{"type":"Point","coordinates":[16.60059,50.12159]}},{"type":"Feature","properties":{"label:cs":"Kříž v Českých Petrovicích u kostela","P31":"http://www.wikidata.org/entity/Q2309609","P31^label:cs":"Pamětní kříž","P131^label:cs":"České Petrovice","P6736":"12632"},"geometry":{"type":"Point","coordinates":[16.59526,50.12252]}},{"type":"Feature","properties":{"label:cs":"Obrázek v Českých Petrovicích","P31":"http://www.wikidata.org/entity/Q478798","P31^label:cs":"Obrázek","P131^label:cs":"České Petrovice","P6736":"12633"},"geometry":{"type":"Point","coordinates":[16.59693,50.12072]}},{"type":"Feature","properties":{"label:cs":"Kříž v Českých Petrovicích","P31":"http://www.wikidata.org/entity/Q2309609","P31^label:cs":"Pamětní kříž","P131^label:cs":"České Petrovice","P6736":"12853"},"geometry":{"type":"Point","coordinates":[16.59928,50.12093]}}]}