{"type":"FeatureCollection","features":[{"type":"Feature","properties":{"label:cs":"Kříž v Českých Petrovicích pod Kašparovou chatou","P31":"http://www.wikidata.org/entity/Q2309609","P31^label:cs":"Pamětní kříž","P131^label:cs":"České Petrovice","P6736":"34829"},"geometry":{"type":"Point","coordinates":[16.62181,50.11687]}},{"type":"Feature","properties":{"label:cs":"Socha na východním okraji Českých Petrovic","P31":"http://www.wikidata.org/entity/Q179700","P31^label:cs":"Socha","P131^label:cs":"České Petrovice","P6736":"12171"},"geometry":{"type":"Point","coordinates":[16.61176,50.11984]}},{"type":"Feature","properties":{"label:cs":"Socha při východním okraji Českých Petrovic","P31":"http://www.wikidata.org/entity/Q179700","P31^label:cs":"Socha","P131^label:cs":"České Petrovice","P6736":"12156"},"geometry":{"type":"Point","coordinates":[16.61706,50.11875]}},{"type":"Feature","properties":{"label:cs":"Kaple Panny Marie Matky ustavičné pomoci","P31":"http://www.wikidata.org/entity/Q108325","P31^label:cs":"Kaple","P131^label:cs":"Mladkov","P6736":"34837"},"geometry":{"type":"Point","coordinates":[16.62457,50.10657]}},{"type":"Feature","properties":{"label:cs":"Kaplička v Petrovičkách u Mladkova střed","P31":"http://www.wikidata.org/entity/Q14552192","P31^label:cs":"Kaplička","P131^label:cs":"Mladkov","P6736":"34834"},"geometry":{"type":"Point","coordinates":[16.62423,50.10701]}},{"type":"Feature","properties":{"label:cs":"Kříž v Petrovičkách u Mladkova","P31":"http://www.wikidata.org/entity/Q2309609","P31^label:cs":"Pamětní kříž","P131^label:cs":"Mladkov","P6736":"34833"},"geometry":{"type":"Point","coordinates":[16.62476,50.10773]}},{"type":"Feature","properties":{"label:cs":"Kaplička v Petrovičkách u Mladkova severní část","P31":"http://www.wikidata.org/entity/Q14552192","P31^label:cs":"Kaplička","P131^label:cs":"Mladkov","P6736":"34832"},"geometry":{"type":"Point","coordinates":[16.62408,50.10964]}},{"type":"Feature","properties":{"label:cs":"Kříž v Petrovičkách u Mladkova severní část","P31":"http://www.wikidata.org/entity/Q2309609","P31^label:cs":"Pamětní kříž","P131^label:cs":"Mladkov","P6736":"34831"},"geometry":{"type":"Point","coordinates":[16.62575,50.11103]}},{"type":"Feature","properties":{"label:cs":"Pamětní deska Františka Kabrhela v Petrovičkách u Mladkova","P31":"http://www.wikidata.org/entity/Q721747","P31^label:cs":"Pamětní deska","P131^label:cs":"Mladkov","P6736":"34830"},"geometry":{"type":"Point","coordinates":[16.62805,50.11711]}},{"type":"Feature","properties":{"label:cs":"Kříž severně od Mladkova","P31":"http://www.wikidata.org/entity/Q2309609","P31^label:cs":"Pamětní kříž","P131^label:cs":"Mladkov","P6736":"11772"},"geometry":{"type":"Point","coordinates":[16.62978,50.11549]}}]}