{"type":"FeatureCollection","features":[{"type":"Feature","properties":{"label:cs":"Keramická plastika Ptačí krmítko v parku Koliště v Brně","P31":"http://www.wikidata.org/entity/Q12045520","P31^label:cs":"Plastika","P131^label:cs":"Brno","P6736":"26105"},"geometry":{"type":"Point","coordinates":[16.61157,49.19894]}},{"type":"Feature","properties":{"label:cs":"Keramická plastika Ptačí napajedlo v parku Koliště v Brně","P31":"http://www.wikidata.org/entity/Q12045520","P31^label:cs":"Plastika","P131^label:cs":"Brno","P6736":"26104"},"geometry":{"type":"Point","coordinates":[16.61135,49.19902]}},{"type":"Feature","properties":{"label:cs":"Kašna v parku Koliště v Brně","P31":"http://www.wikidata.org/entity/Q12029081","P31^label:cs":"Kašna","P131^label:cs":"Brno","P6736":"26100"},"geometry":{"type":"Point","coordinates":[16.6128,49.19828]}},{"type":"Feature","properties":{"label:cs":"Sousoší bratří Mrštíků u Janáčkova divadla v Brně","P31":"http://www.wikidata.org/entity/Q179700","P31^label:cs":"Socha","P131^label:cs":"Brno","P6736":"26099"},"geometry":{"type":"Point","coordinates":[16.612,49.19816]}},{"type":"Feature","properties":{"label:cs":"Sloupy se sochami lvů před Krajským soudem v Brně","P31":"http://www.wikidata.org/entity/Q4817","P31^label:cs":"Sloup","P131^label:cs":"Brno","P6736":"26098"},"geometry":{"type":"Point","coordinates":[16.61302,49.1972]}},{"type":"Feature","properties":{"label:cs":"Pomník tří odbojů u Krajského soudu v Brně","P31":"http://www.wikidata.org/entity/Q4989906","P31^label:cs":"Pomník","P131^label:cs":"Brno","P6736":"26097"},"geometry":{"type":"Point","coordinates":[16.61238,49.1964]}},{"type":"Feature","properties":{"label:cs":"Socha česající se ženy v parku za Domem umění města Brna","P31":"http://www.wikidata.org/entity/Q179700","P31^label:cs":"Socha","P131^label:cs":"Brno","P6736":"26096"},"geometry":{"type":"Point","coordinates":[16.61385,49.19698]}},{"type":"Feature","properties":{"label:cs":"Socha Žena s klasy před Domem umění města Brna","P31":"http://www.wikidata.org/entity/Q179700","P31^label:cs":"Socha","P131^label:cs":"Brno","P6736":"26095"},"geometry":{"type":"Point","coordinates":[16.61502,49.19612]}},{"type":"Feature","properties":{"label:cs":"Pamětní deska Josefu Hybešovi na Cejlu","P31":"http://www.wikidata.org/entity/Q721747","P31^label:cs":"Pamětní deska","P131^label:cs":"Brno","P6736":"34207"},"geometry":{"type":"Point","coordinates":[16.6209,49.19864]}}]}