{"type":"FeatureCollection","features":[{"type":"Feature","properties":{"label:cs":"Kříž v Lanškrouně u silnice 43","P31":"http://www.wikidata.org/entity/Q2309609","P31^label:cs":"Pamětní kříž","P131^label:cs":"Lanškroun","P6736":"42630"},"geometry":{"type":"Point","coordinates":[16.61256,49.91]}},{"type":"Feature","properties":{"label:cs":"Sousoší Nejsvětější Trojice v Lanškrouně","P31":"http://www.wikidata.org/entity/Q4817","P31^label:cs":"Sloup","P131^label:cs":"Lanškroun","P6736":"42617"},"geometry":{"type":"Point","coordinates":[16.61506,49.91326]}},{"type":"Feature","properties":{"label:cs":"Kříž na severním okraji Lanškrouna","P31":"http://www.wikidata.org/entity/Q2309609","P31^label:cs":"Pamětní kříž","P131^label:cs":"Lanškroun","P6736":"42610"},"geometry":{"type":"Point","coordinates":[16.62249,49.92045]}},{"type":"Feature","properties":{"label:cs":"Kříž v Lanškrouně u kostela Svaté Anny","P31":"http://www.wikidata.org/entity/Q2309609","P31^label:cs":"Pamětní kříž","P131^label:cs":"Lanškroun","P6736":"27142"},"geometry":{"type":"Point","coordinates":[16.61665,49.91499]}},{"type":"Feature","properties":{"label:cs":"Pomník padlým v Lanškrouně","P31":"http://www.wikidata.org/entity/Q575759","P31^label:cs":"Pomník padlým","P131^label:cs":"Lanškroun","P6736":"27065"},"geometry":{"type":"Point","coordinates":[16.61803,49.91591]}},{"type":"Feature","properties":{"label:cs":"Sloup se sochou Panny Marie v Lanškrouně v ulici Kralická","P31":"http://www.wikidata.org/entity/Q4817","P31^label:cs":"Sloup","P131^label:cs":"Lanškroun","P6736":"27042"},"geometry":{"type":"Point","coordinates":[16.6178,49.9169]}},{"type":"Feature","properties":{"label:cs":"Sloup na náměstí Aloise Jiráska v Lanškrouně","P31":"http://www.wikidata.org/entity/Q4817","P31^label:cs":"Sloup","P131^label:cs":"Lanškroun","P6736":"13887"},"geometry":{"type":"Point","coordinates":[16.61295,49.91305]}},{"type":"Feature","properties":{"label:cs":"Kašna na náměstí u radnice v Lanškrouně","P31":"http://www.wikidata.org/entity/Q12029081","P31^label:cs":"Kašna","P131^label:cs":"Lanškroun","P6736":"13886"},"geometry":{"type":"Point","coordinates":[16.61214,49.91209]}},{"type":"Feature","properties":{"label:cs":"Kříž u kostela svatého Václava v Lanškrouně","P31":"http://www.wikidata.org/entity/Q2309609","P31^label:cs":"Pamětní kříž","P131^label:cs":"Lanškroun","P6736":"13885"},"geometry":{"type":"Point","coordinates":[16.61293,49.91349]}},{"type":"Feature","properties":{"label:cs":"Mariánský sloup na náměstí u radnice v Lanškrouně","P31":"http://www.wikidata.org/entity/Q4817","P31^label:cs":"Sloup","P131^label:cs":"Lanškroun","P6736":"13884"},"geometry":{"type":"Point","coordinates":[16.61158,49.91192]}},{"type":"Feature","properties":{"label:cs":"Sousoší reliéfů Panny Marie na okraji Lanškrouna","P31":"http://www.wikidata.org/entity/Q179700","P31^label:cs":"Socha","P131^label:cs":"Lanškroun","P6736":"11573"},"geometry":{"type":"Point","coordinates":[16.6261,49.91898]}}]}