{"type":"FeatureCollection","features":[{"type":"Feature","properties":{"label:cs":"Socha sv. Jana Nepomuckého ve výklenku v ulici Svobody v Mikulově","P31":"Socha","P31^label:cs":"Socha","P131^label:cs":"Mikulov","P6736":"25305"},"geometry":{"type":"Point","coordinates":[16.63899,48.80505]}},{"type":"Feature","properties":{"label:cs":"Socha sv. Jana Nepomuckého v Purkyňově ulici v Mikulově","P31":"Socha","P31^label:cs":"Socha","P131^label:cs":"Mikulov","P6736":"25302"},"geometry":{"type":"Point","coordinates":[16.63797,48.80326]}},{"type":"Feature","properties":{"label:cs":"Socha svatého Jana Nepomuckého ve výklenku domu 3 v Novokopečné ulici v Mikulově","P31":"Socha","P31^label:cs":"Socha","P131^label:cs":"Mikulov","P6736":"23527"},"geometry":{"type":"Point","coordinates":[16.64112,48.80483]}},{"type":"Feature","properties":{"label:cs":"Plastika Archa Noemova v zahradě zámku v Mikulově","P31":"Plastika","P31^label:cs":"Plastika","P131^label:cs":"Mikulov","P6736":"18959"},"geometry":{"type":"Point","coordinates":[16.63611,48.80574]}},{"type":"Feature","properties":{"label:cs":"Kovová plastika u zámku v Mikulově","P31":"Plastika","P31^label:cs":"Plastika","P131^label:cs":"Mikulov","P6736":"18958"},"geometry":{"type":"Point","coordinates":[16.63698,48.80681]}},{"type":"Feature","properties":{"label:cs":"Kaple svatého Šebestiána na Svatém kopečku v Mikulově","P31":"Kaple","P31^label:cs":"Kaple","P131^label:cs":"Mikulov","P6736":"18070"},"geometry":{"type":"Point","coordinates":[16.64623,48.80647]}},{"type":"Feature","properties":{"label:cs":"Zvonice na Svatém kopečku v Mikulově","P31":"Zvonička","P31^label:cs":"Zvonička","P131^label:cs":"Mikulov","P6736":"18069"},"geometry":{"type":"Point","coordinates":[16.64588,48.80625]}},{"type":"Feature","properties":{"label:cs":"Mariánský sloup na nádvoří zámku v Mikulově","P31":"Sloup","P31^label:cs":"Sloup","P131^label:cs":"Mikulov","P6736":"13974"},"geometry":{"type":"Point","coordinates":[16.63636,48.80633]}},{"type":"Feature","properties":{"label:cs":"Kašna v zámecké zahradě v Mikulově","P31":"Kašna","P31^label:cs":"Kašna","P131^label:cs":"Mikulov","P6736":"13973"},"geometry":{"type":"Point","coordinates":[16.63706,48.80615]}},{"type":"Feature","properties":{"label:cs":"Kaple Panny Marie Pomocnice v Koněvově ulici v Mikulově","P31":"Kaple","P31^label:cs":"Kaple","P131^label:cs":"Mikulov","P6736":"13972"},"geometry":{"type":"Point","coordinates":[16.64111,48.80593]}},{"type":"Feature","properties":{"label:cs":"Kaplička na křížové cestě na Svatý kopeček nad Mikulovem","P31":"Kaplička","P31^label:cs":"Kaplička","P131^label:cs":"Mikulov","P6736":"13971"},"geometry":{"type":"Point","coordinates":[16.64358,48.80531]}},{"type":"Feature","properties":{"label:cs":"Sloup Nejsvětější Trojice v Mikulově","P31":"Sloup","P31^label:cs":"Sloup","P131^label:cs":"Mikulov","P6736":"9336"},"geometry":{"type":"Point","coordinates":[16.63858,48.8068]}}]}