{"type":"FeatureCollection","features":[{"type":"Feature","properties":{"label:cs":"Kaple svatého Jana Nepomuckého v Bílovicích nad Svitavou","P31":"http://www.wikidata.org/entity/Q108325","P31^label:cs":"Kaple","P131^label:cs":"Bílovice nad Svitavou","P6736":"14275"},"geometry":{"type":"Point","coordinates":[16.67406,49.24781]}},{"type":"Feature","properties":{"label:cs":"Kříž v Bílovicích nad Svitavou v Havlíčkově ulici","P31":"http://www.wikidata.org/entity/Q2309609","P31^label:cs":"Pamětní kříž","P131^label:cs":"Bílovice nad Svitavou","P6736":"14260"},"geometry":{"type":"Point","coordinates":[16.67565,49.25019]}},{"type":"Feature","properties":{"label:cs":"Pomník padlým v první světové válce v Bílovicích nad Svitavou","P31":"http://www.wikidata.org/entity/Q575759","P31^label:cs":"Pomník padlým","P131^label:cs":"Bílovice nad Svitavou","P6736":"14259"},"geometry":{"type":"Point","coordinates":[16.67425,49.24693]}},{"type":"Feature","properties":{"label:cs":"Pomník padlým v druhé světové válce v Bílovicích nad Svitavou","P31":"http://www.wikidata.org/entity/Q575759","P31^label:cs":"Pomník padlým","P131^label:cs":"Bílovice nad Svitavou","P6736":"14258"},"geometry":{"type":"Point","coordinates":[16.67373,49.24748]}},{"type":"Feature","properties":{"label:cs":"Pomník Miroslava Tyrše v Bílovicích nad Svitavou","P31":"http://www.wikidata.org/entity/Q4989906","P31^label:cs":"Pomník","P131^label:cs":"Bílovice nad Svitavou","P6736":"14257"},"geometry":{"type":"Point","coordinates":[16.67377,49.24763]}},{"type":"Feature","properties":{"label:cs":"Busta Stanislava Kostky Neumanna v Bílovicích nad Svitavou","P31":"http://www.wikidata.org/entity/Q4989906","P31^label:cs":"Pomník","P131^label:cs":"Bílovice nad Svitavou","P6736":"14256"},"geometry":{"type":"Point","coordinates":[16.67545,49.24558]}}]}