{"type":"FeatureCollection","features":[{"type":"Feature","properties":{"label:cs":"Boží Muka severozápadně od Pavlova","P31":"http://www.wikidata.org/entity/Q3395121","P31^label:cs":"Boží muka","P131^label:cs":"Dolní Věstonice","P6736":"26783"},"geometry":{"type":"Point","coordinates":[16.66704,48.8772]}},{"type":"Feature","properties":{"label:cs":"Boží Muka jižně od Pavlova","P31":"http://www.wikidata.org/entity/Q3395121","P31^label:cs":"Boží muka","P131^label:cs":"Pavlov","P6736":"26789"},"geometry":{"type":"Point","coordinates":[16.67138,48.86709]}},{"type":"Feature","properties":{"label:cs":"Kříž jihovýchodně od Pavlova","P31":"http://www.wikidata.org/entity/Q2309609","P31^label:cs":"Pamětní kříž","P131^label:cs":"Pavlov","P6736":"26788"},"geometry":{"type":"Point","coordinates":[16.6735,48.87009]}},{"type":"Feature","properties":{"label:cs":"Socha svatého Jana Nepomuckého v nice u kostela svaté Barbory v Pavlově","P31":"http://www.wikidata.org/entity/Q179700","P31^label:cs":"Socha","P131^label:cs":"Pavlov","P6736":"26787"},"geometry":{"type":"Point","coordinates":[16.67091,48.87427]}},{"type":"Feature","properties":{"label:cs":"Kříž před kostelem svaté Barbory v Pavlově","P31":"http://www.wikidata.org/entity/Q2309609","P31^label:cs":"Pamětní kříž","P131^label:cs":"Pavlov","P6736":"26786"},"geometry":{"type":"Point","coordinates":[16.67093,48.87429]}},{"type":"Feature","properties":{"label:cs":"Socha Svatého Floriána na Podhradní ulici v Pavlově","P31":"http://www.wikidata.org/entity/Q179700","P31^label:cs":"Socha","P131^label:cs":"Pavlov","P6736":"26785"},"geometry":{"type":"Point","coordinates":[16.66967,48.87567]}},{"type":"Feature","properties":{"label:cs":"Socha Svatého Jana Nepomuckého před hřbitovem v Pavlově","P31":"http://www.wikidata.org/entity/Q179700","P31^label:cs":"Socha","P131^label:cs":"Pavlov","P6736":"26784"},"geometry":{"type":"Point","coordinates":[16.66761,48.87424]}},{"type":"Feature","properties":{"label:cs":"Kříž na okraji Pavlova u rozcestí","P31":"http://www.wikidata.org/entity/Q2309609","P31^label:cs":"Pamětní kříž","P131^label:cs":"Pavlov","P6736":"22911"},"geometry":{"type":"Point","coordinates":[16.67677,48.87837]}}]}