{"type":"FeatureCollection","features":[{"type":"Feature","properties":{"label:cs":"Socha svatého Jana Nepomuckého před kostelem svatého Ondřeje v Popicích","P31":"http://www.wikidata.org/entity/Q179700","P31^label:cs":"Socha","P131^label:cs":"Popice","P6736":"38176"},"geometry":{"type":"Point","coordinates":[16.66904,48.92659]}},{"type":"Feature","properties":{"label:cs":"Kříž před kostelem svatého Ondřeje v Popicích","P31":"http://www.wikidata.org/entity/Q2309609","P31^label:cs":"Pamětní kříž","P131^label:cs":"Popice","P6736":"38175"},"geometry":{"type":"Point","coordinates":[16.66899,48.92652]}},{"type":"Feature","properties":{"label:cs":"Kříž na Hlavní ulici ve východní části Popic","P31":"http://www.wikidata.org/entity/Q2309609","P31^label:cs":"Pamětní kříž","P131^label:cs":"Popice","P6736":"38174"},"geometry":{"type":"Point","coordinates":[16.67083,48.92559]}},{"type":"Feature","properties":{"label:cs":"Socha svatého Floriána na Hlavní ulici v Popicích","P31":"http://www.wikidata.org/entity/Q179700","P31^label:cs":"Socha","P131^label:cs":"Popice","P6736":"38173"},"geometry":{"type":"Point","coordinates":[16.66331,48.9295]}},{"type":"Feature","properties":{"label:cs":"Kříž v západní části Popic","P31":"http://www.wikidata.org/entity/Q2309609","P31^label:cs":"Pamětní kříž","P131^label:cs":"Popice","P6736":"38172"},"geometry":{"type":"Point","coordinates":[16.65819,48.93226]}},{"type":"Feature","properties":{"label:cs":"Kříž u kaple svatých Šebestiána, Rocha a Rozálie v Popicích","P31":"http://www.wikidata.org/entity/Q2309609","P31^label:cs":"Pamětní kříž","P131^label:cs":"Popice","P6736":"38171"},"geometry":{"type":"Point","coordinates":[16.65901,48.93137]}},{"type":"Feature","properties":{"label:cs":"Socha svatého Vendelína v Popicích na Hlavní ulici","P31":"http://www.wikidata.org/entity/Q179700","P31^label:cs":"Socha","P131^label:cs":"Popice","P6736":"38170"},"geometry":{"type":"Point","coordinates":[16.66152,48.93047]}},{"type":"Feature","properties":{"label:cs":"Socha Nejsvětější Trojice v Popicích na Hlavní ulici","P31":"http://www.wikidata.org/entity/Q179700","P31^label:cs":"Socha","P131^label:cs":"Popice","P6736":"38169"},"geometry":{"type":"Point","coordinates":[16.66614,48.92779]}},{"type":"Feature","properties":{"label:cs":"Socha svatého Gottharda východně od Popic","P31":"http://www.wikidata.org/entity/Q179700","P31^label:cs":"Socha","P131^label:cs":"Popice","P6736":"38168"},"geometry":{"type":"Point","coordinates":[16.67458,48.93067]}}]}