{"type":"FeatureCollection","features":[{"type":"Feature","properties":{"label:cs":"Socha svatého Jana Nepomuckého v Horních Heřmanicích","P31":"http://www.wikidata.org/entity/Q179700","P31^label:cs":"Socha","P131^label:cs":"Horní Heřmanice","P6736":"12088"},"geometry":{"type":"Point","coordinates":[16.70212,49.96183]}},{"type":"Feature","properties":{"label:cs":"Kříž v Horních Heřmanicích u hlavní silnice","P31":"http://www.wikidata.org/entity/Q2309609","P31^label:cs":"Pamětní kříž","P131^label:cs":"Horní Heřmanice","P6736":"22509"},"geometry":{"type":"Point","coordinates":[16.71651,49.96067]}},{"type":"Feature","properties":{"label:cs":"Kříž u severního okraje Horních Heřmanic","P31":"http://www.wikidata.org/entity/Q2309609","P31^label:cs":"Pamětní kříž","P131^label:cs":"Horní Heřmanice","P6736":"27045"},"geometry":{"type":"Point","coordinates":[16.7065,49.96165]}},{"type":"Feature","properties":{"label:cs":"Kříž v Horních Heřmanicích u hřbitova východní strana","P31":"http://www.wikidata.org/entity/Q2309609","P31^label:cs":"Pamětní kříž","P131^label:cs":"Horní Heřmanice","P6736":"27046"},"geometry":{"type":"Point","coordinates":[16.70334,49.96225]}},{"type":"Feature","properties":{"label:cs":"Kříž v Horních Heřmanicích u hřbitova západní strana","P31":"http://www.wikidata.org/entity/Q2309609","P31^label:cs":"Pamětní kříž","P131^label:cs":"Horní Heřmanice","P6736":"27047"},"geometry":{"type":"Point","coordinates":[16.70245,49.96239]}}]}