{"type":"FeatureCollection","features":[{"type":"Feature","properties":{"label:cs":"Kříž v severovýchodní části Červené Vody","P31":"http://www.wikidata.org/entity/Q2309609","P31^label:cs":"Pamětní kříž","P131^label:cs":"Červená Voda","P6736":"27161"},"geometry":{"type":"Point","coordinates":[16.72272,50.04798]}},{"type":"Feature","properties":{"label:cs":"Kříž v severní části Červené Vody","P31":"http://www.wikidata.org/entity/Q2309609","P31^label:cs":"Pamětní kříž","P131^label:cs":"Červená Voda","P6736":"26869"},"geometry":{"type":"Point","coordinates":[16.73443,50.04627]}},{"type":"Feature","properties":{"label:cs":"Sousoší Nejsvětější Trojice v Červené Vodě u obecního úřadu","P31":"http://www.wikidata.org/entity/Q179700","P31^label:cs":"Socha","P131^label:cs":"Červená Voda","P6736":"26867"},"geometry":{"type":"Point","coordinates":[16.74245,50.04053]}},{"type":"Feature","properties":{"label:cs":"Kříž v Červené Vodě u kruhového objezdu","P31":"http://www.wikidata.org/entity/Q2309609","P31^label:cs":"Pamětní kříž","P131^label:cs":"Červená Voda","P6736":"26838"},"geometry":{"type":"Point","coordinates":[16.73857,50.04428]}},{"type":"Feature","properties":{"label:cs":"Socha svatého Jana Nepomuckého v Červené Vodě u kruhového objezdu","P31":"http://www.wikidata.org/entity/Q179700","P31^label:cs":"Socha","P131^label:cs":"Červená Voda","P6736":"26837"},"geometry":{"type":"Point","coordinates":[16.73936,50.04438]}}]}