{"type":"FeatureCollection","features":[{"type":"Feature","properties":{"label:cs":"Socha svatého Jana Nepomuckého v Podolí","P31":"http://www.wikidata.org/entity/Q179700","P31^label:cs":"Socha","P131^label:cs":"Podolí","P6736":"30573"},"geometry":{"type":"Point","coordinates":[16.72837,49.1904]}},{"type":"Feature","properties":{"label:cs":"Křížový kámen u bývalé zámecké zahrady v Podolí","P31":"http://www.wikidata.org/entity/Q38411643","P31^label:cs":"Křížový kámen","P131^label:cs":"Podolí","P6736":"30574"},"geometry":{"type":"Point","coordinates":[16.72913,49.18962]}},{"type":"Feature","properties":{"label:cs":"Pomník padlým v Podolí","P31":"http://www.wikidata.org/entity/Q575759","P31^label:cs":"Pomník padlým","P131^label:cs":"Podolí","P6736":"30575"},"geometry":{"type":"Point","coordinates":[16.72601,49.19001]}},{"type":"Feature","properties":{"label:cs":"Socha svatého Floriana u kostela v Podolí","P31":"http://www.wikidata.org/entity/Q179700","P31^label:cs":"Socha","P131^label:cs":"Podolí","P6736":"30576"},"geometry":{"type":"Point","coordinates":[16.72626,49.19033]}},{"type":"Feature","properties":{"label:cs":"Socha svatého Františka Xaverského u kostela v Podolí","P31":"http://www.wikidata.org/entity/Q179700","P31^label:cs":"Socha","P131^label:cs":"Podolí","P6736":"30577"},"geometry":{"type":"Point","coordinates":[16.72625,49.19023]}}]}