{"type":"FeatureCollection","features":[{"type":"Feature","properties":{"label:cs":"Kaplička svatého Jana Nepomuckého v Králíkách na Malém náměstí","P31":"http://www.wikidata.org/entity/Q14552192","P31^label:cs":"Kaplička","P131^label:cs":"Králíky","P6736":"28480"},"geometry":{"type":"Point","coordinates":[16.76388,50.08238]}},{"type":"Feature","properties":{"label:cs":"Obrázek v Králíkách v Tovární ulici","P31":"http://www.wikidata.org/entity/Q478798","P31^label:cs":"Obrázek","P131^label:cs":"Králíky","P6736":"28478"},"geometry":{"type":"Point","coordinates":[16.7529,50.08438]}},{"type":"Feature","properties":{"label:cs":"Kaplička v Králíkách v ulici Na Pískách","P31":"http://www.wikidata.org/entity/Q14552192","P31^label:cs":"Kaplička","P131^label:cs":"Králíky","P6736":"28111"},"geometry":{"type":"Point","coordinates":[16.76027,50.08545]}},{"type":"Feature","properties":{"label:cs":"Socha svatého Jana Nepomuckého v Králíkách na mostě přes Králický potok","P31":"http://www.wikidata.org/entity/Q179700","P31^label:cs":"Socha","P131^label:cs":"Králíky","P6736":"28110"},"geometry":{"type":"Point","coordinates":[16.76285,50.08444]}},{"type":"Feature","properties":{"label:cs":"Kříž v Králíkách na Velkém náměstí","P31":"http://www.wikidata.org/entity/Q2309609","P31^label:cs":"Pamětní kříž","P131^label:cs":"Králíky","P6736":"28106"},"geometry":{"type":"Point","coordinates":[16.76003,50.08472]}},{"type":"Feature","properties":{"label:cs":"Kříž v Králíkách v ulici Předměstí","P31":"http://www.wikidata.org/entity/Q2309609","P31^label:cs":"Pamětní kříž","P131^label:cs":"Králíky","P6736":"22577"},"geometry":{"type":"Point","coordinates":[16.74357,50.0809]}},{"type":"Feature","properties":{"label:cs":"Kříž v Králíkách v ulici Pivovarská","P31":"http://www.wikidata.org/entity/Q2309609","P31^label:cs":"Pamětní kříž","P131^label:cs":"Králíky","P6736":"15227"},"geometry":{"type":"Point","coordinates":[16.7565,50.08693]}},{"type":"Feature","properties":{"label:cs":"Socha svatého Jana Nepomuckého v Králíkách v ulici Hluboká","P31":"http://www.wikidata.org/entity/Q179700","P31^label:cs":"Socha","P131^label:cs":"Králíky","P6736":"15226"},"geometry":{"type":"Point","coordinates":[16.75864,50.08466]}}]}