{"type":"FeatureCollection","features":[{"type":"Feature","properties":{"label:cs":"Kříž v Jaroměřicích na severním okraji","P31":"http://www.wikidata.org/entity/Q2309609","P31^label:cs":"Pamětní kříž","P131^label:cs":"Jaroměřice","P6736":"30875"},"geometry":{"type":"Point","coordinates":[16.75011,49.62999]}},{"type":"Feature","properties":{"label:cs":"Sousoší svatých Cyrila a Metoděje v Jaroměřicích","P31":"http://www.wikidata.org/entity/Q179700","P31^label:cs":"Socha","P131^label:cs":"Jaroměřice","P6736":"30870"},"geometry":{"type":"Point","coordinates":[16.75241,49.625]}},{"type":"Feature","properties":{"label:cs":"Kamenný podstavec v Jaroměřicích u pomníku","P31":"http://www.wikidata.org/entity/?","P31^label:cs":"Neznámý","P131^label:cs":"Jaroměřice","P6736":"30869"},"geometry":{"type":"Point","coordinates":[16.75199,49.62544]}},{"type":"Feature","properties":{"label:cs":"Pomník padlým v Jaroměřicích","P31":"http://www.wikidata.org/entity/Q575759","P31^label:cs":"Pomník padlým","P131^label:cs":"Jaroměřice","P6736":"30868"},"geometry":{"type":"Point","coordinates":[16.75187,49.62555]}},{"type":"Feature","properties":{"label:cs":"Sloup v Jaroměřicích u kostela","P31":"http://www.wikidata.org/entity/Q4817","P31^label:cs":"Sloup","P131^label:cs":"Jaroměřice","P6736":"30867"},"geometry":{"type":"Point","coordinates":[16.75191,49.62589]}},{"type":"Feature","properties":{"label:cs":"Kříž v Jaroměřicích u kostela","P31":"http://www.wikidata.org/entity/Q2309609","P31^label:cs":"Pamětní kříž","P131^label:cs":"Jaroměřice","P6736":"30866"},"geometry":{"type":"Point","coordinates":[16.75231,49.62606]}},{"type":"Feature","properties":{"label:cs":"Kaplička v Jaroměřicích u kostela","P31":"http://www.wikidata.org/entity/Q14552192","P31^label:cs":"Kaplička","P131^label:cs":"Jaroměřice","P6736":"30865"},"geometry":{"type":"Point","coordinates":[16.75224,49.62607]}},{"type":"Feature","properties":{"label:cs":"Socha svatého Jana Nepomuckého v Jaroměřicích","P31":"http://www.wikidata.org/entity/Q179700","P31^label:cs":"Socha","P131^label:cs":"Jaroměřice","P6736":"30864"},"geometry":{"type":"Point","coordinates":[16.7521,49.6265]}},{"type":"Feature","properties":{"label:cs":"Socha svatého Floriána v Jaroměřicích","P31":"http://www.wikidata.org/entity/Q179700","P31^label:cs":"Socha","P131^label:cs":"Jaroměřice","P6736":"30863"},"geometry":{"type":"Point","coordinates":[16.75282,49.62635]}},{"type":"Feature","properties":{"label:cs":"Smírčí kříž v Jaroměřích na návsi","P31":"http://www.wikidata.org/entity/Q1640496","P31^label:cs":"Smírčí kříž","P131^label:cs":"Jaroměřice","P6736":"12004"},"geometry":{"type":"Point","coordinates":[16.75236,49.62505]}}]}