{"type":"FeatureCollection","features":[{"type":"Feature","properties":{"label:cs":"Fragment barokního oltáře z původního kostela v Tvarožné","P31":"http://www.wikidata.org/entity/?","P31^label:cs":"Něco jiného","P131^label:cs":"Tvarožná","P6736":"39123"},"geometry":{"type":"Point","coordinates":[16.77585,49.19011]}},{"type":"Feature","properties":{"label:cs":"Pomník závodníka Bedřicha Soffera u silnice jihovýchodně od Tvarožné","P31":"http://www.wikidata.org/entity/Q4989906","P31^label:cs":"Pomník","P131^label:cs":"Tvarožná","P6736":"39102"},"geometry":{"type":"Point","coordinates":[16.7816,49.18521]}},{"type":"Feature","properties":{"label:cs":"Socha svatého Jana Nepomuckého v Tvarožné","P31":"http://www.wikidata.org/entity/Q179700","P31^label:cs":"Socha","P131^label:cs":"Tvarožná","P6736":"39101"},"geometry":{"type":"Point","coordinates":[16.77496,49.19149]}},{"type":"Feature","properties":{"label:cs":"Plastika Venuše v Tvarožné","P31":"http://www.wikidata.org/entity/Q12045520","P31^label:cs":"Plastika","P131^label:cs":"Tvarožná","P6736":"39100"},"geometry":{"type":"Point","coordinates":[16.77223,49.19126]}},{"type":"Feature","properties":{"label:cs":"Výklenková kaplička u cesty západně od Tvarožné","P31":"http://www.wikidata.org/entity/Q14552192","P31^label:cs":"Kaplička","P131^label:cs":"Tvarožná","P6736":"39099"},"geometry":{"type":"Point","coordinates":[16.76536,49.19434]}},{"type":"Feature","properties":{"label:cs":"Centrální kříž na hřbitově v Tvarožné","P31":"http://www.wikidata.org/entity/Q2309609","P31^label:cs":"Pamětní kříž","P131^label:cs":"Tvarožná","P6736":"39095"},"geometry":{"type":"Point","coordinates":[16.77694,49.18932]}},{"type":"Feature","properties":{"label:cs":"Kříž u cesty západně od Tvarožné","P31":"http://www.wikidata.org/entity/Q2309609","P31^label:cs":"Pamětní kříž","P131^label:cs":"Tvarožná","P6736":"39094"},"geometry":{"type":"Point","coordinates":[16.76812,49.19457]}},{"type":"Feature","properties":{"label:cs":"Kříž u domu č. 169 v Tvarožné","P31":"http://www.wikidata.org/entity/Q2309609","P31^label:cs":"Pamětní kříž","P131^label:cs":"Tvarožná","P6736":"39092"},"geometry":{"type":"Point","coordinates":[16.77103,49.19295]}},{"type":"Feature","properties":{"label:cs":"Kříž u školy v Tvarožné","P31":"http://www.wikidata.org/entity/Q2309609","P31^label:cs":"Pamětní kříž","P131^label:cs":"Tvarožná","P6736":"39091"},"geometry":{"type":"Point","coordinates":[16.77521,49.19001]}},{"type":"Feature","properties":{"label:cs":"Litinový kříž u kostela v Tvarožné","P31":"http://www.wikidata.org/entity/Q2309609","P31^label:cs":"Pamětní kříž","P131^label:cs":"Tvarožná","P6736":"39090"},"geometry":{"type":"Point","coordinates":[16.77647,49.19035]}},{"type":"Feature","properties":{"label:cs":"Kříž u kostela v Tvarožné","P31":"http://www.wikidata.org/entity/Q2309609","P31^label:cs":"Pamětní kříž","P131^label:cs":"Tvarožná","P6736":"39089"},"geometry":{"type":"Point","coordinates":[16.77607,49.19048]}},{"type":"Feature","properties":{"label:cs":"Pomník Václava Kosmáka v Tvarožné","P31":"http://www.wikidata.org/entity/Q4989906","P31^label:cs":"Pomník","P131^label:cs":"Tvarožná","P6736":"39088"},"geometry":{"type":"Point","coordinates":[16.77628,49.19041]}},{"type":"Feature","properties":{"label:cs":"Pomník ruským vojákům padlým pod Santonem v Tvarožné","P31":"http://www.wikidata.org/entity/Q575759","P31^label:cs":"Pomník padlým","P131^label:cs":"Tvarožná","P6736":"39087"},"geometry":{"type":"Point","coordinates":[16.77598,49.19065]}},{"type":"Feature","properties":{"label:cs":"Pomník padlým sovětským a rumunským vojákům v Tvarožné","P31":"http://www.wikidata.org/entity/Q575759","P31^label:cs":"Pomník padlým","P131^label:cs":"Tvarožná","P6736":"39086"},"geometry":{"type":"Point","coordinates":[16.77457,49.19134]}},{"type":"Feature","properties":{"label:cs":"Pomník padlým v 1. světové válce v Tvarožné","P31":"http://www.wikidata.org/entity/Q575759","P31^label:cs":"Pomník padlým","P131^label:cs":"Tvarožná","P6736":"39085"},"geometry":{"type":"Point","coordinates":[16.77451,49.19137]}},{"type":"Feature","properties":{"label:cs":"Pomník padlým v Bitvě tří císařů v Tvarožné","P31":"http://www.wikidata.org/entity/Q575759","P31^label:cs":"Pomník padlým","P131^label:cs":"Tvarožná","P6736":"39084"},"geometry":{"type":"Point","coordinates":[16.77446,49.19133]}},{"type":"Feature","properties":{"label:cs":"Replika francouzského děla z bitvy u Slavkova v Tvarožné","P31":"http://www.wikidata.org/entity/?","P31^label:cs":"Něco jiného","P131^label:cs":"Tvarožná","P6736":"39083"},"geometry":{"type":"Point","coordinates":[16.77438,49.19136]}},{"type":"Feature","properties":{"label:cs":"Pamětní deska Emila Kalába v Tvarožné","P31":"http://www.wikidata.org/entity/Q721747","P31^label:cs":"Pamětní deska","P131^label:cs":"Tvarožná","P6736":"39082"},"geometry":{"type":"Point","coordinates":[16.77601,49.19009]}},{"type":"Feature","properties":{"label:cs":"Pamětní deska vojákům Rudé armády padlým při osvobozování Tvarožné","P31":"http://www.wikidata.org/entity/Q721747","P31^label:cs":"Pamětní deska","P131^label:cs":"Tvarožná","P6736":"39081"},"geometry":{"type":"Point","coordinates":[16.77474,49.19116]}},{"type":"Feature","properties":{"label:cs":"Pamětní deska Stanislava Veselého v Tvarožné","P31":"http://www.wikidata.org/entity/Q721747","P31^label:cs":"Pamětní deska","P131^label:cs":"Tvarožná","P6736":"39080"},"geometry":{"type":"Point","coordinates":[16.77455,49.19115]}},{"type":"Feature","properties":{"label:cs":"Pamětní deska Inocence Šíra v Tvarožné","P31":"http://www.wikidata.org/entity/Q721747","P31^label:cs":"Pamětní deska","P131^label:cs":"Tvarožná","P6736":"39079"},"geometry":{"type":"Point","coordinates":[16.77338,49.19163]}},{"type":"Feature","properties":{"label:cs":"Pamětní deska Vladimíra Drápala v Tvarožné","P31":"http://www.wikidata.org/entity/Q721747","P31^label:cs":"Pamětní deska","P131^label:cs":"Tvarožná","P6736":"39078"},"geometry":{"type":"Point","coordinates":[16.77354,49.19111]}},{"type":"Feature","properties":{"label:cs":"Pomník generála Valhuberta pod Santonem","P31":"http://www.wikidata.org/entity/Q4989906","P31^label:cs":"Pomník","P131^label:cs":"Tvarožná","P6736":"39075"},"geometry":{"type":"Point","coordinates":[16.76665,49.18805]}},{"type":"Feature","properties":{"label:cs":"Kříž pod Santonem","P31":"http://www.wikidata.org/entity/Q2309609","P31^label:cs":"Pamětní kříž","P131^label:cs":"Tvarožná","P6736":"39074"},"geometry":{"type":"Point","coordinates":[16.76638,49.18763]}}]}