{"type":"FeatureCollection","features":[{"type":"Feature","properties":{"label:cs":"Kříž v Drozdově v uličce za plotem","P31":"Q2309609","P31^label:cs":"Pamětní kříž","P131^label:cs":"Drozdov","P6736":"24528"},"geometry":{"type":"Point","coordinates":[16.78558,49.90656]}},{"type":"Feature","properties":{"label:cs":"Kříž v Drozdově v uličce mezi domy","P31":"Q2309609","P31^label:cs":"Pamětní kříž","P131^label:cs":"Drozdov","P6736":"24527"},"geometry":{"type":"Point","coordinates":[16.78553,49.90589]}},{"type":"Feature","properties":{"label:cs":"Kříž v Drozdově u hřbitova","P31":"Q2309609","P31^label:cs":"Pamětní kříž","P131^label:cs":"Drozdov","P6736":"24526"},"geometry":{"type":"Point","coordinates":[16.78633,49.90363]}},{"type":"Feature","properties":{"label:cs":"Kříž v Drozdově u kaple ve středu obce","P31":"Q2309609","P31^label:cs":"Pamětní kříž","P131^label:cs":"Drozdov","P6736":"22580"},"geometry":{"type":"Point","coordinates":[16.78708,49.90696]}},{"type":"Feature","properties":{"label:cs":"Kříž jižně od Drozdova u polní cesty","P31":"Q2309609","P31^label:cs":"Pamětní kříž","P131^label:cs":"Drozdov","P6736":"18162"},"geometry":{"type":"Point","coordinates":[16.77571,49.89539]}},{"type":"Feature","properties":{"label:cs":"Kříž v Drozdově na okraji obce","P31":"Q2309609","P31^label:cs":"Pamětní kříž","P131^label:cs":"Drozdov","P6736":"13912"},"geometry":{"type":"Point","coordinates":[16.78355,49.90612]}}]}