{"type":"FeatureCollection","features":[{"type":"Feature","properties":{"label:cs":"Kaplička ve středu Drozdova","P31":"http://www.wikidata.org/entity/Q14552192","P31^label:cs":"Kaplička","P131^label:cs":"Drozdov","P6736":"11784"},"geometry":{"type":"Point","coordinates":[16.78717,49.90868]}},{"type":"Feature","properties":{"label:cs":"Dřevěný kříž u Drozdova při polní cestě","P31":"http://www.wikidata.org/entity/Q2309609","P31^label:cs":"Pamětní kříž","P131^label:cs":"Drozdov","P6736":"12720"},"geometry":{"type":"Point","coordinates":[16.79347,49.90388]}},{"type":"Feature","properties":{"label:cs":"Kříž u Drozdova vedle polní cesty","P31":"http://www.wikidata.org/entity/Q2309609","P31^label:cs":"Pamětní kříž","P131^label:cs":"Drozdov","P6736":"13047"},"geometry":{"type":"Point","coordinates":[16.79833,49.90119]}},{"type":"Feature","properties":{"label:cs":"Pomník padlým v Drozdově","P31":"http://www.wikidata.org/entity/Q575759","P31^label:cs":"Pomník padlým","P131^label:cs":"Drozdov","P6736":"13216"},"geometry":{"type":"Point","coordinates":[16.78746,49.90852]}},{"type":"Feature","properties":{"label:cs":"Kaple svatého Fabiána a Šebestiána v Drozdově","P31":"http://www.wikidata.org/entity/Q108325","P31^label:cs":"Kaple","P131^label:cs":"Drozdov","P6736":"22579"},"geometry":{"type":"Point","coordinates":[16.78727,49.90697]}},{"type":"Feature","properties":{"label:cs":"Kříž v Drozdově v zahradě za plotem","P31":"http://www.wikidata.org/entity/Q2309609","P31^label:cs":"Pamětní kříž","P131^label:cs":"Drozdov","P6736":"22581"},"geometry":{"type":"Point","coordinates":[16.78841,49.90594]}},{"type":"Feature","properties":{"label:cs":"Kříž v Drozdově u hlavní silnice","P31":"http://www.wikidata.org/entity/Q2309609","P31^label:cs":"Pamětní kříž","P131^label:cs":"Drozdov","P6736":"22582"},"geometry":{"type":"Point","coordinates":[16.79001,49.90856]}},{"type":"Feature","properties":{"label:cs":"Kříž u Pivonína při polní cestě","P31":"http://www.wikidata.org/entity/Q2309609","P31^label:cs":"Pamětní kříž","P131^label:cs":"Zábřeh","P6736":"13048"},"geometry":{"type":"Point","coordinates":[16.80696,49.89844]}},{"type":"Feature","properties":{"label:cs":"Kříž u Pivonína při polní cestě","P31":"http://www.wikidata.org/entity/Q2309609","P31^label:cs":"Pamětní kříž","P131^label:cs":"Zábřeh","P6736":"13049"},"geometry":{"type":"Point","coordinates":[16.80702,49.89844]}},{"type":"Feature","properties":{"label:cs":"Obrázek u Pivonína vedle silnice","P31":"http://www.wikidata.org/entity/Q478798","P31^label:cs":"Obrázek","P131^label:cs":"Zábřeh","P6736":"13128"},"geometry":{"type":"Point","coordinates":[16.80214,49.90489]}}]}