{"type":"FeatureCollection","features":[{"type":"Feature","properties":{"label:cs":"Kaplička v Jedlí u hřbitova","P31":"http://www.wikidata.org/entity/Q14552192","P31^label:cs":"Kaplička","P131^label:cs":"Jedlí","P6736":"11792"},"geometry":{"type":"Point","coordinates":[16.79203,49.93087]}},{"type":"Feature","properties":{"label:cs":"Sloup se sousoším svaté Trojice v Jedlí","P31":"http://www.wikidata.org/entity/Q4817","P31^label:cs":"Sloup","P131^label:cs":"Jedlí","P6736":"12107"},"geometry":{"type":"Point","coordinates":[16.79967,49.93094]}},{"type":"Feature","properties":{"label:cs":"Kříž na okraji Jedlí u družstva","P31":"http://www.wikidata.org/entity/Q2309609","P31^label:cs":"Pamětní kříž","P131^label:cs":"Jedlí","P6736":"12920"},"geometry":{"type":"Point","coordinates":[16.79062,49.93587]}},{"type":"Feature","properties":{"label:cs":"Kříž u Jedlí vedle polní cesty","P31":"http://www.wikidata.org/entity/Q2309609","P31^label:cs":"Pamětní kříž","P131^label:cs":"Jedlí","P6736":"12921"},"geometry":{"type":"Point","coordinates":[16.78776,49.93707]}},{"type":"Feature","properties":{"label:cs":"Pomník padlým v Jedlí před farou","P31":"http://www.wikidata.org/entity/Q575759","P31^label:cs":"Pomník padlým","P131^label:cs":"Jedlí","P6736":"12930"},"geometry":{"type":"Point","coordinates":[16.79326,49.93176]}},{"type":"Feature","properties":{"label:cs":"Kříž jižně od Jedlí u polní cesty","P31":"http://www.wikidata.org/entity/Q2309609","P31^label:cs":"Pamětní kříž","P131^label:cs":"Jedlí","P6736":"13116"},"geometry":{"type":"Point","coordinates":[16.80187,49.92328]}},{"type":"Feature","properties":{"label:cs":"Boží muka v Jedlí","P31":"http://www.wikidata.org/entity/Q3395121","P31^label:cs":"Boží muka","P131^label:cs":"Jedlí","P6736":"13125"},"geometry":{"type":"Point","coordinates":[16.79675,49.92971]}},{"type":"Feature","properties":{"label:cs":"Kříž ve středu Jedlí","P31":"http://www.wikidata.org/entity/Q2309609","P31^label:cs":"Pamětní kříž","P131^label:cs":"Jedlí","P6736":"13139"},"geometry":{"type":"Point","coordinates":[16.79918,49.9317]}},{"type":"Feature","properties":{"label:cs":"Kříž v Jedlí u hlavní silnice","P31":"http://www.wikidata.org/entity/Q2309609","P31^label:cs":"Pamětní kříž","P131^label:cs":"Jedlí","P6736":"13163"},"geometry":{"type":"Point","coordinates":[16.80412,49.93183]}},{"type":"Feature","properties":{"label:cs":"Kříž jižně od Jedlí u silnice","P31":"http://www.wikidata.org/entity/Q2309609","P31^label:cs":"Pamětní kříž","P131^label:cs":"Jedlí","P6736":"13164"},"geometry":{"type":"Point","coordinates":[16.79389,49.92481]}},{"type":"Feature","properties":{"label:cs":"Dřevěný kříž u Jedlí","P31":"http://www.wikidata.org/entity/Q2309609","P31^label:cs":"Pamětní kříž","P131^label:cs":"Jedlí","P6736":"14247"},"geometry":{"type":"Point","coordinates":[16.79674,49.9295]}},{"type":"Feature","properties":{"label:cs":"Kříž v Jedlí na návsi","P31":"http://www.wikidata.org/entity/Q2309609","P31^label:cs":"Pamětní kříž","P131^label:cs":"Jedlí","P6736":"16230"},"geometry":{"type":"Point","coordinates":[16.78902,49.9313]}},{"type":"Feature","properties":{"label:cs":"Kříž jižně od Jedlí v lesíku","P31":"http://www.wikidata.org/entity/Q2309609","P31^label:cs":"Pamětní kříž","P131^label:cs":"Jedlí","P6736":"20484"},"geometry":{"type":"Point","coordinates":[16.79813,49.92583]}},{"type":"Feature","properties":{"label:cs":"Kříž v Jedlí vedle kostela","P31":"http://www.wikidata.org/entity/Q2309609","P31^label:cs":"Pamětní kříž","P131^label:cs":"Jedlí","P6736":"20486"},"geometry":{"type":"Point","coordinates":[16.79332,49.93105]}},{"type":"Feature","properties":{"label:cs":"Dřevěný kříž v Jedlí u kostela","P31":"http://www.wikidata.org/entity/Q2309609","P31^label:cs":"Pamětní kříž","P131^label:cs":"Jedlí","P6736":"29408"},"geometry":{"type":"Point","coordinates":[16.79343,49.93102]}}]}