{"type":"FeatureCollection","features":[{"type":"Feature","properties":{"label:cs":"Sloup Nejsvětější Trojice východně od Hněvkova","P31":"http://www.wikidata.org/entity/Q4817","P31^label:cs":"Sloup","P131^label:cs":"Zábřeh","P6736":"12177"},"geometry":{"type":"Point","coordinates":[16.82704,49.86721]}},{"type":"Feature","properties":{"label:cs":"Kaplička v Hněvkově na rozcestí","P31":"http://www.wikidata.org/entity/Q14552192","P31^label:cs":"Kaplička","P131^label:cs":"Zábřeh","P6736":"12305"},"geometry":{"type":"Point","coordinates":[16.81973,49.86709]}},{"type":"Feature","properties":{"label:cs":"Kaple svatých Andělů strážných v Hněvkově","P31":"http://www.wikidata.org/entity/Q108325","P31^label:cs":"Kaple","P131^label:cs":"Zábřeh","P6736":"17272"},"geometry":{"type":"Point","coordinates":[16.8178,49.86657]}},{"type":"Feature","properties":{"label:cs":"Kříž v Hněvkově před kaplí","P31":"http://www.wikidata.org/entity/Q2309609","P31^label:cs":"Pamětní kříž","P131^label:cs":"Zábřeh","P6736":"17273"},"geometry":{"type":"Point","coordinates":[16.81786,49.86656]}},{"type":"Feature","properties":{"label:cs":"Kříž nad Hněvkovem u rozcestí polních cest","P31":"http://www.wikidata.org/entity/Q2309609","P31^label:cs":"Pamětní kříž","P131^label:cs":"Zábřeh","P6736":"24417"},"geometry":{"type":"Point","coordinates":[16.8275,49.87041]}}]}