{"type":"FeatureCollection","features":[{"type":"Feature","properties":{"label:cs":"Kaple svatého Jana Křtitele ve Zborově","P31":"Q108325","P31^label:cs":"Kaple","P131^label:cs":"Zborov","P6736":"25383"},"geometry":{"type":"Point","coordinates":[16.83466,49.94342]}},{"type":"Feature","properties":{"label:cs":"Kříž ve Zborově před kaplí","P31":"Q2309609","P31^label:cs":"Pamětní kříž","P131^label:cs":"Zborov","P6736":"21578"},"geometry":{"type":"Point","coordinates":[16.8347,49.94349]}},{"type":"Feature","properties":{"label:cs":"Obrázek ve Zborově na dolním konci","P31":"Q478798","P31^label:cs":"Obrázek","P131^label:cs":"Zborov","P6736":"18530"},"geometry":{"type":"Point","coordinates":[16.83968,49.94345]}},{"type":"Feature","properties":{"label:cs":"Boží muka na západním okraji Zborova na Moravě při silnici do Štítů","P31":"Q3395121","P31^label:cs":"Boží muka","P131^label:cs":"Zborov","P6736":"18357"},"geometry":{"type":"Point","coordinates":[16.83246,49.94344]}},{"type":"Feature","properties":{"label:cs":"Pomník padlým ve Zborově na Moravě","P31":"Q575759","P31^label:cs":"Pomník padlým","P131^label:cs":"Zborov","P6736":"18356"},"geometry":{"type":"Point","coordinates":[16.83366,49.94384]}},{"type":"Feature","properties":{"label:cs":"Obrázek na okraji Zborova","P31":"Q478798","P31^label:cs":"Obrázek","P131^label:cs":"Zborov","P6736":"12069"},"geometry":{"type":"Point","coordinates":[16.83137,49.94585]}}]}