{"type":"FeatureCollection","features":[{"type":"Feature","properties":{"label:cs":"Obrázek severně od Jakubovic u samoty Mezník","P31":"Obrázek","P31^label:cs":"Obrázek","P131^label:cs":"Jakubovice","P6736":"24122"},"geometry":{"type":"Point","coordinates":[16.83937,50.0087]}},{"type":"Feature","properties":{"label:cs":"Kříž v Janoušově vedle polní cesty","P31":"Pamětní kříž","P31^label:cs":"Pamětní kříž","P131^label:cs":"Janoušov","P6736":"24121"},"geometry":{"type":"Point","coordinates":[16.84202,50.00964]}},{"type":"Feature","properties":{"label:cs":"Dřevěný kříž u Janoušova vedle polní cesty","P31":"Pamětní kříž","P31^label:cs":"Pamětní kříž","P131^label:cs":"Janoušov","P6736":"24120"},"geometry":{"type":"Point","coordinates":[16.85198,50.00825]}},{"type":"Feature","properties":{"label:cs":"Dřevěný kříž v Janoušově vedle polní cesty","P31":"Pamětní kříž","P31^label:cs":"Pamětní kříž","P131^label:cs":"Janoušov","P6736":"24118"},"geometry":{"type":"Point","coordinates":[16.84823,50.01136]}},{"type":"Feature","properties":{"label:cs":"Kříž na okraji Janoušova na mezi","P31":"Pamětní kříž","P31^label:cs":"Pamětní kříž","P131^label:cs":"Janoušov","P6736":"24117"},"geometry":{"type":"Point","coordinates":[16.84828,50.01183]}},{"type":"Feature","properties":{"label:cs":"Socha svatého Jana Nepomuckého v Janoušově","P31":"Socha","P31^label:cs":"Socha","P131^label:cs":"Janoušov","P6736":"24110"},"geometry":{"type":"Point","coordinates":[16.84663,50.01301]}},{"type":"Feature","properties":{"label:cs":"Obrázek v Janoušově ve středu obce","P31":"Obrázek","P31^label:cs":"Obrázek","P131^label:cs":"Janoušov","P6736":"24109"},"geometry":{"type":"Point","coordinates":[16.84498,50.01412]}},{"type":"Feature","properties":{"label:cs":"Pomník padlým v Janoušově naproti obecnímu úřadu","P31":"Pomník padlým","P31^label:cs":"Pomník padlým","P131^label:cs":"Janoušov","P6736":"24108"},"geometry":{"type":"Point","coordinates":[16.84486,50.01282]}},{"type":"Feature","properties":{"label:cs":"Kříž v Janoušově před kaplí","P31":"Pamětní kříž","P31^label:cs":"Pamětní kříž","P131^label:cs":"Janoušov","P6736":"24107"},"geometry":{"type":"Point","coordinates":[16.84492,50.01327]}},{"type":"Feature","properties":{"label:cs":"Kaplička v Janoušově vedle obecního úřadu","P31":"Kaplička","P31^label:cs":"Kaplička","P131^label:cs":"Janoušov","P6736":"24038"},"geometry":{"type":"Point","coordinates":[16.845,50.01276]}},{"type":"Feature","properties":{"label:cs":"Kaple v Janoušově ve středu obce","P31":"Kaple","P31^label:cs":"Kaple","P131^label:cs":"Janoušov","P6736":"24037"},"geometry":{"type":"Point","coordinates":[16.84487,50.01332]}}]}