{"type":"FeatureCollection","features":[{"type":"Feature","properties":{"label:cs":"Socha svatého Jana Nepomuckého u Mírova","P31":"http://www.wikidata.org/entity/Q179700","P31^label:cs":"Socha","P131^label:cs":"Mírov","P6736":"14663"},"geometry":{"type":"Point","coordinates":[16.85488,49.8037]}},{"type":"Feature","properties":{"label:cs":"Boží muka u Řepové v poli u potoka","P31":"http://www.wikidata.org/entity/Q3395121","P31^label:cs":"Boží muka","P131^label:cs":"Mohelnice","P6736":"17377"},"geometry":{"type":"Point","coordinates":[16.86753,49.80449]}},{"type":"Feature","properties":{"label:cs":"Kaple Neposkvrněného Početí Panny Marie v Řepové na křižovatce","P31":"http://www.wikidata.org/entity/Q108325","P31^label:cs":"Kaple","P131^label:cs":"Mohelnice","P6736":"17684"},"geometry":{"type":"Point","coordinates":[16.87054,49.8064]}},{"type":"Feature","properties":{"label:cs":"Kříž před kaplí v Řepové na křižovatce","P31":"http://www.wikidata.org/entity/Q2309609","P31^label:cs":"Pamětní kříž","P131^label:cs":"Mohelnice","P6736":"17685"},"geometry":{"type":"Point","coordinates":[16.87044,49.80639]}},{"type":"Feature","properties":{"label:cs":"Kříž v Řepové na jižním okraji","P31":"http://www.wikidata.org/entity/Q2309609","P31^label:cs":"Pamětní kříž","P131^label:cs":"Mohelnice","P6736":"19823"},"geometry":{"type":"Point","coordinates":[16.8648,49.80468]}}]}