{"type":"FeatureCollection","features":[{"type":"Feature","properties":{"label:cs":"Památník Petrův zdar v Zábřehu u rybníka Oborník","P31":"http://www.wikidata.org/entity/Q5003624","P31^label:cs":"Památník","P131^label:cs":"Zábřeh","P6736":"23371"},"geometry":{"type":"Point","coordinates":[16.87394,49.87791]}},{"type":"Feature","properties":{"label:cs":"Obrázek v Zábřehu v aleji Na Hrázi","P31":"http://www.wikidata.org/entity/Q478798","P31^label:cs":"Obrázek","P131^label:cs":"Zábřeh","P6736":"18562"},"geometry":{"type":"Point","coordinates":[16.87197,49.88031]}},{"type":"Feature","properties":{"label:cs":"Sousoší Piety u Zábřehu v poutním areálu","P31":"http://www.wikidata.org/entity/Q179700","P31^label:cs":"Socha","P131^label:cs":"Zábřeh","P6736":"18561"},"geometry":{"type":"Point","coordinates":[16.85362,49.87161]}},{"type":"Feature","properties":{"label:cs":"Boží muka u Zábřehu v polích","P31":"http://www.wikidata.org/entity/Q3395121","P31^label:cs":"Boží muka","P131^label:cs":"Zábřeh","P6736":"11747"},"geometry":{"type":"Point","coordinates":[16.868,49.86679]}},{"type":"Feature","properties":{"label:cs":"Kaplička Panny Marie Sedmibolestné u Zábřehu","P31":"http://www.wikidata.org/entity/Q14552192","P31^label:cs":"Kaplička","P131^label:cs":"Zábřeh","P6736":"11401"},"geometry":{"type":"Point","coordinates":[16.85349,49.87156]}}]}