{"type":"FeatureCollection","features":[{"type":"Feature","properties":{"label:cs":"Sochy najád v zámeckém parku ve Slavkově","P31":"http://www.wikidata.org/entity/Q179700","P31^label:cs":"Socha","P131^label:cs":"Slavkov u Brna","P6736":"39470"},"geometry":{"type":"Point","coordinates":[16.87277,49.15469]}},{"type":"Feature","properties":{"label:cs":"Sousoší Polibek Amora a Psyché v zámeckém parku ve Slavkově","P31":"http://www.wikidata.org/entity/Q179700","P31^label:cs":"Socha","P131^label:cs":"Slavkov u Brna","P6736":"39467"},"geometry":{"type":"Point","coordinates":[16.87301,49.15561]}},{"type":"Feature","properties":{"label:cs":"Alegorie Hudby v zámeckém parku ve Slavkově","P31":"http://www.wikidata.org/entity/Q179700","P31^label:cs":"Socha","P131^label:cs":"Slavkov u Brna","P6736":"39466"},"geometry":{"type":"Point","coordinates":[16.87371,49.15549]}},{"type":"Feature","properties":{"label:cs":"Socha Ceres v zámeckém parku ve Slavkově","P31":"http://www.wikidata.org/entity/Q179700","P31^label:cs":"Socha","P131^label:cs":"Slavkov u Brna","P6736":"39465"},"geometry":{"type":"Point","coordinates":[16.87346,49.15547]}},{"type":"Feature","properties":{"label:cs":"Socha Herkula v zámeckém parku ve Slavkově","P31":"http://www.wikidata.org/entity/Q179700","P31^label:cs":"Socha","P131^label:cs":"Slavkov u Brna","P6736":"39464"},"geometry":{"type":"Point","coordinates":[16.87335,49.15547]}},{"type":"Feature","properties":{"label:cs":"Alegorie Hojnosti v zámeckém parku ve Slavkově","P31":"http://www.wikidata.org/entity/Q179700","P31^label:cs":"Socha","P131^label:cs":"Slavkov u Brna","P6736":"39463"},"geometry":{"type":"Point","coordinates":[16.87309,49.15545]}},{"type":"Feature","properties":{"label:cs":"Socha Merkura v zámeckém parku ve Slavkově","P31":"http://www.wikidata.org/entity/Q179700","P31^label:cs":"Socha","P131^label:cs":"Slavkov u Brna","P6736":"39462"},"geometry":{"type":"Point","coordinates":[16.87313,49.15513]}},{"type":"Feature","properties":{"label:cs":"Socha Pomony v zámeckém parku ve Slavkově","P31":"http://www.wikidata.org/entity/Q179700","P31^label:cs":"Socha","P131^label:cs":"Slavkov u Brna","P6736":"39461"},"geometry":{"type":"Point","coordinates":[16.8734,49.15515]}},{"type":"Feature","properties":{"label:cs":"Socha Narcise v zámeckém parku ve Slavkově","P31":"http://www.wikidata.org/entity/Q179700","P31^label:cs":"Socha","P131^label:cs":"Slavkov u Brna","P6736":"39342"},"geometry":{"type":"Point","coordinates":[16.8735,49.15515]}},{"type":"Feature","properties":{"label:cs":"Socha Hygie v zámeckém parku ve Slavkově","P31":"http://www.wikidata.org/entity/Q179700","P31^label:cs":"Socha","P131^label:cs":"Slavkov u Brna","P6736":"39341"},"geometry":{"type":"Point","coordinates":[16.87376,49.15517]}},{"type":"Feature","properties":{"label:cs":"Socha Aesculapa v zámeckém parku ve Slavkově","P31":"http://www.wikidata.org/entity/Q179700","P31^label:cs":"Socha","P131^label:cs":"Slavkov u Brna","P6736":"39340"},"geometry":{"type":"Point","coordinates":[16.87378,49.1551]}},{"type":"Feature","properties":{"label:cs":"Socha Flory v zámeckém parku ve Slavkově","P31":"http://www.wikidata.org/entity/Q179700","P31^label:cs":"Socha","P131^label:cs":"Slavkov u Brna","P6736":"39339"},"geometry":{"type":"Point","coordinates":[16.87314,49.15506]}},{"type":"Feature","properties":{"label:cs":"Socha Adonise v zámeckém parku ve Slavkově","P31":"http://www.wikidata.org/entity/Q179700","P31^label:cs":"Socha","P131^label:cs":"Slavkov u Brna","P6736":"39338"},"geometry":{"type":"Point","coordinates":[16.87317,49.1548]}},{"type":"Feature","properties":{"label:cs":"Socha Venuše v zámeckém parku ve Slavkově","P31":"http://www.wikidata.org/entity/Q179700","P31^label:cs":"Socha","P131^label:cs":"Slavkov u Brna","P6736":"39337"},"geometry":{"type":"Point","coordinates":[16.87381,49.15483]}},{"type":"Feature","properties":{"label:cs":"Putti vlevo na schodišti do zámku ve Slavkově","P31":"http://www.wikidata.org/entity/Q179700","P31^label:cs":"Socha","P131^label:cs":"Slavkov u Brna","P6736":"39336"},"geometry":{"type":"Point","coordinates":[16.87418,49.15478]}},{"type":"Feature","properties":{"label:cs":"Putti vpravo na schodišti do zámku ve Slavkově","P31":"http://www.wikidata.org/entity/Q179700","P31^label:cs":"Socha","P131^label:cs":"Slavkov u Brna","P6736":"39335"},"geometry":{"type":"Point","coordinates":[16.87418,49.15474]}},{"type":"Feature","properties":{"label:cs":"Putti Zima v zámeckém parku ve Slavkově","P31":"http://www.wikidata.org/entity/Q179700","P31^label:cs":"Socha","P131^label:cs":"Slavkov u Brna","P6736":"39334"},"geometry":{"type":"Point","coordinates":[16.87342,49.15493]}},{"type":"Feature","properties":{"label:cs":"Putti Podzim v zámeckém parku ve Slavkově","P31":"http://www.wikidata.org/entity/Q179700","P31^label:cs":"Socha","P131^label:cs":"Slavkov u Brna","P6736":"39333"},"geometry":{"type":"Point","coordinates":[16.87358,49.15493]}},{"type":"Feature","properties":{"label:cs":"Putti Jaro v zámeckém parku ve Slavkově","P31":"http://www.wikidata.org/entity/Q179700","P31^label:cs":"Socha","P131^label:cs":"Slavkov u Brna","P6736":"39332"},"geometry":{"type":"Point","coordinates":[16.87362,49.15452]}},{"type":"Feature","properties":{"label:cs":"Putti Léto v zámeckém parku ve Slavkově","P31":"http://www.wikidata.org/entity/Q179700","P31^label:cs":"Socha","P131^label:cs":"Slavkov u Brna","P6736":"39331"},"geometry":{"type":"Point","coordinates":[16.87348,49.15451]}},{"type":"Feature","properties":{"label:cs":"Socha Galatey v zámeckém parku ve Slavkově","P31":"http://www.wikidata.org/entity/Q179700","P31^label:cs":"Socha","P131^label:cs":"Slavkov u Brna","P6736":"39330"},"geometry":{"type":"Point","coordinates":[16.8732,49.15462]}},{"type":"Feature","properties":{"label:cs":"Socha Adonise v zámeckém parku ve Slavkově","P31":"http://www.wikidata.org/entity/Q179700","P31^label:cs":"Socha","P131^label:cs":"Slavkov u Brna","P6736":"39329"},"geometry":{"type":"Point","coordinates":[16.87388,49.15438]}},{"type":"Feature","properties":{"label:cs":"Socha poustevníka v zámeckém parku ve Slavkově","P31":"http://www.wikidata.org/entity/Q179700","P31^label:cs":"Socha","P131^label:cs":"Slavkov u Brna","P6736":"39328"},"geometry":{"type":"Point","coordinates":[16.87325,49.15435]}},{"type":"Feature","properties":{"label:cs":"Fontána před zámkem v zámeckém parku ve Slavkově","P31":"http://www.wikidata.org/entity/Q12029081","P31^label:cs":"Kašna","P131^label:cs":"Slavkov u Brna","P6736":"39327"},"geometry":{"type":"Point","coordinates":[16.87352,49.15472]}},{"type":"Feature","properties":{"label:cs":"Fontána severně od zámku v zámeckém parku ve Slavkově","P31":"http://www.wikidata.org/entity/Q12029081","P31^label:cs":"Kašna","P131^label:cs":"Slavkov u Brna","P6736":"39326"},"geometry":{"type":"Point","coordinates":[16.87345,49.15532]}},{"type":"Feature","properties":{"label:cs":"Fontána jižně od zámku v zámeckém parku ve Slavkově","P31":"http://www.wikidata.org/entity/Q12029081","P31^label:cs":"Kašna","P131^label:cs":"Slavkov u Brna","P6736":"39325"},"geometry":{"type":"Point","coordinates":[16.87361,49.15413]}},{"type":"Feature","properties":{"label:cs":"Sousoší Jupiter s Amorem v zámeckém parku ve Slavkově","P31":"http://www.wikidata.org/entity/Q179700","P31^label:cs":"Socha","P131^label:cs":"Slavkov u Brna","P6736":"39324"},"geometry":{"type":"Point","coordinates":[16.87327,49.15378]}},{"type":"Feature","properties":{"label:cs":"Socha Mater nutrix v zámeckém parku ve Slavkově","P31":"http://www.wikidata.org/entity/Q179700","P31^label:cs":"Socha","P131^label:cs":"Slavkov u Brna","P6736":"39323"},"geometry":{"type":"Point","coordinates":[16.87389,49.1543]}},{"type":"Feature","properties":{"label:cs":"Socha Thésea v zámeckém parku ve Slavkově","P31":"http://www.wikidata.org/entity/Q179700","P31^label:cs":"Socha","P131^label:cs":"Slavkov u Brna","P6736":"39322"},"geometry":{"type":"Point","coordinates":[16.87362,49.1543]}},{"type":"Feature","properties":{"label:cs":"Socha Omfaé v zámeckém parku ve Slavkově","P31":"http://www.wikidata.org/entity/Q179700","P31^label:cs":"Socha","P131^label:cs":"Slavkov u Brna","P6736":"39321"},"geometry":{"type":"Point","coordinates":[16.87353,49.1543]}},{"type":"Feature","properties":{"label:cs":"Socha Apolóna v zámeckém parku ve Slavkově","P31":"http://www.wikidata.org/entity/Q179700","P31^label:cs":"Socha","P131^label:cs":"Slavkov u Brna","P6736":"39320"},"geometry":{"type":"Point","coordinates":[16.87329,49.15425]}},{"type":"Feature","properties":{"label:cs":"Socha Bacchuse v zámeckém parku ve Slavkově","P31":"http://www.wikidata.org/entity/Q179700","P31^label:cs":"Socha","P131^label:cs":"Slavkov u Brna","P6736":"39319"},"geometry":{"type":"Point","coordinates":[16.87333,49.15395]}},{"type":"Feature","properties":{"label:cs":"Socha Diany v zámeckém parku ve Slavkově","P31":"http://www.wikidata.org/entity/Q179700","P31^label:cs":"Socha","P131^label:cs":"Slavkov u Brna","P6736":"39318"},"geometry":{"type":"Point","coordinates":[16.87356,49.15396]}},{"type":"Feature","properties":{"label:cs":"Socha Pana v zámeckém parku ve Slavkově","P31":"http://www.wikidata.org/entity/Q179700","P31^label:cs":"Socha","P131^label:cs":"Slavkov u Brna","P6736":"39317"},"geometry":{"type":"Point","coordinates":[16.87371,49.15397]}},{"type":"Feature","properties":{"label:cs":"Socha Flóry v zámeckém parku ve Slavkově","P31":"http://www.wikidata.org/entity/Q179700","P31^label:cs":"Socha","P131^label:cs":"Slavkov u Brna","P6736":"39316"},"geometry":{"type":"Point","coordinates":[16.87393,49.15398]}},{"type":"Feature","properties":{"label:cs":"Pomník padlým sovětským vojákům ve Slavkově","P31":"http://www.wikidata.org/entity/Q575759","P31^label:cs":"Pomník padlým","P131^label:cs":"Slavkov u Brna","P6736":"39314"},"geometry":{"type":"Point","coordinates":[16.87491,49.15409]}}]}