{"type":"FeatureCollection","features":[{"type":"Feature","properties":{"label:cs":"Pomník bitvy u Slavkova nad Slavkovem","P31":"http://www.wikidata.org/entity/Q4989906","P31^label:cs":"Pomník","P131^label:cs":"Slavkov u Brna","P6736":"39528"},"geometry":{"type":"Point","coordinates":[16.8926,49.16613]}},{"type":"Feature","properties":{"label:cs":"8. zastavení křížové cesty ke kapli svatého Urbana","P31":"http://www.wikidata.org/entity/Q14552192","P31^label:cs":"Kaplička","P131^label:cs":"Slavkov u Brna","P6736":"39520"},"geometry":{"type":"Point","coordinates":[16.88534,49.16693]}},{"type":"Feature","properties":{"label:cs":"7. zastavení křížové cesty ke kapli svatého Urbana","P31":"http://www.wikidata.org/entity/Q14552192","P31^label:cs":"Kaplička","P131^label:cs":"Slavkov u Brna","P6736":"39519"},"geometry":{"type":"Point","coordinates":[16.88456,49.1656]}},{"type":"Feature","properties":{"label:cs":"6. zastavení křížové cesty ke kapli svatého Urbana","P31":"http://www.wikidata.org/entity/Q14552192","P31^label:cs":"Kaplička","P131^label:cs":"Slavkov u Brna","P6736":"39518"},"geometry":{"type":"Point","coordinates":[16.88545,49.16722]}},{"type":"Feature","properties":{"label:cs":"Kaplička se sochou Panny Marie na cestě ke kapli svatého Urbana","P31":"http://www.wikidata.org/entity/Q14552192","P31^label:cs":"Kaplička","P131^label:cs":"Slavkov u Brna","P6736":"39517"},"geometry":{"type":"Point","coordinates":[16.88429,49.16537]}},{"type":"Feature","properties":{"label:cs":"5. zastavení křížové cesty ke kapli svatého Urbana","P31":"http://www.wikidata.org/entity/Q14552192","P31^label:cs":"Kaplička","P131^label:cs":"Slavkov u Brna","P6736":"39516"},"geometry":{"type":"Point","coordinates":[16.88416,49.16542]}},{"type":"Feature","properties":{"label:cs":"4. zastavení křížové cesty ke kapli svatého Urbana","P31":"http://www.wikidata.org/entity/Q14552192","P31^label:cs":"Kaplička","P131^label:cs":"Slavkov u Brna","P6736":"39515"},"geometry":{"type":"Point","coordinates":[16.88414,49.16512]}},{"type":"Feature","properties":{"label:cs":"3. zastavení křížové cesty ke kapli svatého Urbana","P31":"http://www.wikidata.org/entity/Q14552192","P31^label:cs":"Kaplička","P131^label:cs":"Slavkov u Brna","P6736":"39514"},"geometry":{"type":"Point","coordinates":[16.88368,49.16456]}},{"type":"Feature","properties":{"label:cs":"2. zastavení křížové cesty ke kapli svatého Urbana","P31":"http://www.wikidata.org/entity/Q14552192","P31^label:cs":"Kaplička","P131^label:cs":"Slavkov u Brna","P6736":"39513"},"geometry":{"type":"Point","coordinates":[16.88349,49.16401]}},{"type":"Feature","properties":{"label:cs":"1. zastavení křížové cesty ke kapli svatého Urbana","P31":"http://www.wikidata.org/entity/Q14552192","P31^label:cs":"Kaplička","P131^label:cs":"Slavkov u Brna","P6736":"39512"},"geometry":{"type":"Point","coordinates":[16.88324,49.16385]}},{"type":"Feature","properties":{"label:cs":"Pomník obětem holocaustu ve Slavkově u Brna","P31":"http://www.wikidata.org/entity/Q4989906","P31^label:cs":"Pomník","P131^label:cs":"Slavkov u Brna","P6736":"39511"},"geometry":{"type":"Point","coordinates":[16.87893,49.16573]}},{"type":"Feature","properties":{"label:cs":"Pomník A. B. Svojsíka ve Slavkově u Brna","P31":"http://www.wikidata.org/entity/Q4989906","P31^label:cs":"Pomník","P131^label:cs":"Slavkov u Brna","P6736":"39510"},"geometry":{"type":"Point","coordinates":[16.87886,49.155]}},{"type":"Feature","properties":{"label:cs":"Boží muka svatého Vendelína ve Slavkově u Brna","P31":"http://www.wikidata.org/entity/Q3395121","P31^label:cs":"Boží muka","P131^label:cs":"Slavkov u Brna","P6736":"39509"},"geometry":{"type":"Point","coordinates":[16.8788,49.15644]}},{"type":"Feature","properties":{"label:cs":"Pomník Mistra Jana Husa ve Slavkově u Brna","P31":"http://www.wikidata.org/entity/Q4989906","P31^label:cs":"Pomník","P131^label:cs":"Slavkov u Brna","P6736":"39508"},"geometry":{"type":"Point","coordinates":[16.878,49.15635]}},{"type":"Feature","properties":{"label:cs":"Strom smíření ve Slavkově u Brna","P31":"http://www.wikidata.org/entity/Q4989906","P31^label:cs":"Pomník","P131^label:cs":"Slavkov u Brna","P6736":"39507"},"geometry":{"type":"Point","coordinates":[16.87691,49.15595]}},{"type":"Feature","properties":{"label:cs":"Kříž v Malinovského ulici ve Slavkově u Brna","P31":"http://www.wikidata.org/entity/Q2309609","P31^label:cs":"Pamětní kříž","P131^label:cs":"Slavkov u Brna","P6736":"39506"},"geometry":{"type":"Point","coordinates":[16.87646,49.15617]}},{"type":"Feature","properties":{"label:cs":"Kříž za kostelem ve Slavkově u Brna","P31":"http://www.wikidata.org/entity/Q2309609","P31^label:cs":"Pamětní kříž","P131^label:cs":"Slavkov u Brna","P6736":"39505"},"geometry":{"type":"Point","coordinates":[16.87691,49.15586]}},{"type":"Feature","properties":{"label:cs":"Kříž u kostela ve Slavkově u Brna","P31":"http://www.wikidata.org/entity/Q2309609","P31^label:cs":"Pamětní kříž","P131^label:cs":"Slavkov u Brna","P6736":"39504"},"geometry":{"type":"Point","coordinates":[16.87668,49.15523]}},{"type":"Feature","properties":{"label:cs":"Socha svatého Floriána u kostela ve Slavkově u Brna","P31":"http://www.wikidata.org/entity/Q179700","P31^label:cs":"Socha","P131^label:cs":"Slavkov u Brna","P6736":"39503"},"geometry":{"type":"Point","coordinates":[16.87646,49.15522]}},{"type":"Feature","properties":{"label:cs":"Socha svatého Jana Nepomuckého pod zámkem ve Slavkově u Brna","P31":"http://www.wikidata.org/entity/Q179700","P31^label:cs":"Socha","P131^label:cs":"Slavkov u Brna","P6736":"39500"},"geometry":{"type":"Point","coordinates":[16.87587,49.15441]}},{"type":"Feature","properties":{"label:cs":"Pamětní deska Bernardina Ochina na radnici ve Slavkově u Brna","P31":"http://www.wikidata.org/entity/Q721747","P31^label:cs":"Pamětní deska","P131^label:cs":"Slavkov u Brna","P6736":"39483"},"geometry":{"type":"Point","coordinates":[16.87664,49.15415]}},{"type":"Feature","properties":{"label:cs":"Pamětní deska Františka Palackého na radnici ve Slavkově u Brna","P31":"http://www.wikidata.org/entity/Q721747","P31^label:cs":"Pamětní deska","P131^label:cs":"Slavkov u Brna","P6736":"39482"},"geometry":{"type":"Point","coordinates":[16.87664,49.15409]}},{"type":"Feature","properties":{"label:cs":"Kašna pod zámkem ve Slavkově u Brna","P31":"http://www.wikidata.org/entity/Q12029081","P31^label:cs":"Kašna","P131^label:cs":"Slavkov u Brna","P6736":"39481"},"geometry":{"type":"Point","coordinates":[16.87643,49.15492]}},{"type":"Feature","properties":{"label:cs":"Kašna na Palackého náměstí ve Slavkově u Brna","P31":"http://www.wikidata.org/entity/Q12029081","P31^label:cs":"Kašna","P131^label:cs":"Slavkov u Brna","P6736":"39479"},"geometry":{"type":"Point","coordinates":[16.8763,49.15405]}},{"type":"Feature","properties":{"label:cs":"Socha svatého Jana Nepomuckého ve Slavkově u Brna pod Urbanem","P31":"http://www.wikidata.org/entity/Q179700","P31^label:cs":"Socha","P131^label:cs":"Slavkov u Brna","P6736":"39478"},"geometry":{"type":"Point","coordinates":[16.88268,49.16357]}},{"type":"Feature","properties":{"label:cs":"Socha Boha a Krista v zámeckém parku ve Slavkově","P31":"http://www.wikidata.org/entity/Q179700","P31^label:cs":"Socha","P131^label:cs":"Slavkov u Brna","P6736":"39469"},"geometry":{"type":"Point","coordinates":[16.87525,49.15543]}},{"type":"Feature","properties":{"label:cs":"Socha klečící postavy v zámeckém parku ve Slavkově","P31":"http://www.wikidata.org/entity/Q2309609","P31^label:cs":"Pamětní kříž","P131^label:cs":"Slavkov u Brna","P6736":"39468"},"geometry":{"type":"Point","coordinates":[16.87519,49.1556]}},{"type":"Feature","properties":{"label:cs":"Pomník obětem světových válek ve Slavkově","P31":"http://www.wikidata.org/entity/Q4989906","P31^label:cs":"Pomník","P131^label:cs":"Slavkov u Brna","P6736":"39315"},"geometry":{"type":"Point","coordinates":[16.87615,49.1553]}}]}