{"type":"FeatureCollection","features":[{"type":"Feature","properties":{"label:cs":"Kříž v Rájci vedle hlavní silnice","P31":"http://www.wikidata.org/entity/Q2309609","P31^label:cs":"Pamětní kříž","P131^label:cs":"Rájec","P6736":"23430"},"geometry":{"type":"Point","coordinates":[16.90533,49.85297]}},{"type":"Feature","properties":{"label:cs":"Kaple Panny Marie Královny v Rájci","P31":"http://www.wikidata.org/entity/Q108325","P31^label:cs":"Kaple","P131^label:cs":"Rájec","P6736":"23429"},"geometry":{"type":"Point","coordinates":[16.90428,49.85427]}},{"type":"Feature","properties":{"label:cs":"Pomník padlým v Rájci na návsi","P31":"http://www.wikidata.org/entity/Q575759","P31^label:cs":"Pomník padlým","P131^label:cs":"Rájec","P6736":"18795"},"geometry":{"type":"Point","coordinates":[16.8996,49.85635]}},{"type":"Feature","properties":{"label:cs":"Sloup Nejsvětější Trojice v Rájci na návsi","P31":"http://www.wikidata.org/entity/Q4817","P31^label:cs":"Sloup","P131^label:cs":"Rájec","P6736":"15254"},"geometry":{"type":"Point","coordinates":[16.90159,49.85664]}},{"type":"Feature","properties":{"label:cs":"Kříž v Rájci u vedlejší silnice","P31":"http://www.wikidata.org/entity/Q2309609","P31^label:cs":"Pamětní kříž","P131^label:cs":"Rájec","P6736":"13198"},"geometry":{"type":"Point","coordinates":[16.89749,49.85571]}},{"type":"Feature","properties":{"label:cs":"Zvonice v Rájci na návsi","P31":"http://www.wikidata.org/entity/Q200334","P31^label:cs":"Zvonice","P131^label:cs":"Rájec","P6736":"12175"},"geometry":{"type":"Point","coordinates":[16.90001,49.85637]}},{"type":"Feature","properties":{"label:cs":"Kříž ve středu Rájce","P31":"http://www.wikidata.org/entity/Q2309609","P31^label:cs":"Pamětní kříž","P131^label:cs":"Rájec","P6736":"11844"},"geometry":{"type":"Point","coordinates":[16.90288,49.85663]}},{"type":"Feature","properties":{"label:cs":"Smírčí kříž v Rájci na návsi","P31":"http://www.wikidata.org/entity/Q1640496","P31^label:cs":"Smírčí kříž","P131^label:cs":"Rájec","P6736":"11297"},"geometry":{"type":"Point","coordinates":[16.89915,49.85624]}},{"type":"Feature","properties":{"label:cs":"Pamětní deska v Zábřehu Olomoucká ulice na hřbitově","P31":"http://www.wikidata.org/entity/Q721747","P31^label:cs":"Pamětní deska","P131^label:cs":"Zábřeh","P6736":"24733"},"geometry":{"type":"Point","coordinates":[16.89837,49.8636]}},{"type":"Feature","properties":{"label:cs":"Kříž na okraji Zábřeha u hřbitova","P31":"http://www.wikidata.org/entity/Q2309609","P31^label:cs":"Pamětní kříž","P131^label:cs":"Zábřeh","P6736":"12835"},"geometry":{"type":"Point","coordinates":[16.90004,49.86337]}}]}