{"type":"FeatureCollection","features":[{"type":"Feature","properties":{"label:cs":"Boží muka v Lukavici","P31":"http://www.wikidata.org/entity/Q3395121","P31^label:cs":"Boží muka","P131^label:cs":"Lukavice","P6736":"11523"},"geometry":{"type":"Point","coordinates":[16.91845,49.82192]}},{"type":"Feature","properties":{"label:cs":"Kříž jižně od Lukavice v poli","P31":"http://www.wikidata.org/entity/Q2309609","P31^label:cs":"Pamětní kříž","P131^label:cs":"Lukavice","P6736":"11677"},"geometry":{"type":"Point","coordinates":[16.91787,49.81337]}},{"type":"Feature","properties":{"label:cs":"Pomník padlým v Lukavici u školy","P31":"http://www.wikidata.org/entity/Q575759","P31^label:cs":"Pomník padlým","P131^label:cs":"Lukavice","P6736":"12870"},"geometry":{"type":"Point","coordinates":[16.9188,49.82167]}},{"type":"Feature","properties":{"label:cs":"Kaple ve Vlachově u hlavní silnice","P31":"http://www.wikidata.org/entity/Q108325","P31^label:cs":"Kaple","P131^label:cs":"Lukavice","P6736":"13090"},"geometry":{"type":"Point","coordinates":[16.90838,49.8203]}},{"type":"Feature","properties":{"label:cs":"Sloup Svaté Trojice u Vlachova na křižovatce","P31":"http://www.wikidata.org/entity/Q4817","P31^label:cs":"Sloup","P131^label:cs":"Lukavice","P6736":"13176"},"geometry":{"type":"Point","coordinates":[16.90537,49.82257]}},{"type":"Feature","properties":{"label:cs":"Kříž ve Vlachově před kaplí","P31":"http://www.wikidata.org/entity/Q2309609","P31^label:cs":"Pamětní kříž","P131^label:cs":"Lukavice","P6736":"18464"},"geometry":{"type":"Point","coordinates":[16.90831,49.82029]}}]}