{"type":"FeatureCollection","features":[{"type":"Feature","properties":{"label:cs":"Dřevěný kříž Dolní Temenice na sedle Červený kříž","P31":"Pamětní kříž","P31^label:cs":"Pamětní kříž","P131^label:cs":"Šumperk","P6736":"24416"},"geometry":{"type":"Point","coordinates":[16.93605,49.96543]}},{"type":"Feature","properties":{"label:cs":"Lichtenštejnský památník v Hrabenově u hájenky","P31":"Památník","P31^label:cs":"Památník","P131^label:cs":"Ruda nad Moravou","P6736":"18901"},"geometry":{"type":"Point","coordinates":[16.92763,49.97901]}},{"type":"Feature","properties":{"label:cs":"Kříž severně od Bludova v lese","P31":"Pamětní kříž","P31^label:cs":"Pamětní kříž","P131^label:cs":"Bludov","P6736":"13196"},"geometry":{"type":"Point","coordinates":[16.91982,49.96883]}},{"type":"Feature","properties":{"label:cs":"Boží muka severně od Bludova v lese","P31":"Boží muka","P31^label:cs":"Boží muka","P131^label:cs":"Bludov","P6736":"11673"},"geometry":{"type":"Point","coordinates":[16.92015,49.96894]}},{"type":"Feature","properties":{"label:cs":"Kaplička severně od Bludova v lese","P31":"Kaplička","P31^label:cs":"Kaplička","P131^label:cs":"Bludov","P6736":"11672"},"geometry":{"type":"Point","coordinates":[16.91983,49.96909]}}]}