{"type":"FeatureCollection","features":[{"type":"Feature","properties":{"label:cs":"Pamětní deska v Bohuslavicích","P31":"Q721747","P31^label:cs":"Pamětní deska","P131^label:cs":"Bohuslavice","P6736":"24730"},"geometry":{"type":"Point","coordinates":[16.93952,49.82598]}},{"type":"Feature","properties":{"label:cs":"Kříž na okraji Lukavice u papírny","P31":"Q2309609","P31^label:cs":"Pamětní kříž","P131^label:cs":"Lukavice","P6736":"18062"},"geometry":{"type":"Point","coordinates":[16.91986,49.8256]}},{"type":"Feature","properties":{"label:cs":"Kříž v Bohuslavicích před kaplí","P31":"Q2309609","P31^label:cs":"Pamětní kříž","P131^label:cs":"Bohuslavice","P6736":"17016"},"geometry":{"type":"Point","coordinates":[16.94032,49.82574]}},{"type":"Feature","properties":{"label:cs":"Kaple svatého Petra a Pavla v Bohuslavicích","P31":"Q108325","P31^label:cs":"Kaple","P131^label:cs":"Bohuslavice","P6736":"16924"},"geometry":{"type":"Point","coordinates":[16.94042,49.8258]}},{"type":"Feature","properties":{"label:cs":"Kříž jižně od Zvole u polní cesty","P31":"Q2309609","P31^label:cs":"Pamětní kříž","P131^label:cs":"Zvole","P6736":"11845"},"geometry":{"type":"Point","coordinates":[16.92057,49.83339]}},{"type":"Feature","properties":{"label:cs":"Kalička svatého Josefa severně od Bohuslavic","P31":"Q14552192","P31^label:cs":"Kaplička","P131^label:cs":"Bohuslavice","P6736":"11400"},"geometry":{"type":"Point","coordinates":[16.93576,49.83097]}}]}