{"type":"FeatureCollection","features":[{"type":"Feature","properties":{"label:cs":"Pomník padlým v Moravičanech na návsi","P31":"Pomník padlým","P31^label:cs":"Pomník padlým","P131^label:cs":"Moravičany","P6736":"21960"},"geometry":{"type":"Point","coordinates":[16.96141,49.75615]}},{"type":"Feature","properties":{"label:cs":"Sloup se sochou Panny Marie v Moravičanech","P31":"Sloup","P31^label:cs":"Sloup","P131^label:cs":"Moravičany","P6736":"21959"},"geometry":{"type":"Point","coordinates":[16.96038,49.75668]}},{"type":"Feature","properties":{"label:cs":"Sloup se sochou Panny Marie v Moravičanech","P31":"Sloup","P31^label:cs":"Sloup","P131^label:cs":"Moravičany","P6736":"21958"},"geometry":{"type":"Point","coordinates":[16.95994,49.75687]}},{"type":"Feature","properties":{"label:cs":"Kříž v Moravičanech na okraji obce","P31":"Pamětní kříž","P31^label:cs":"Pamětní kříž","P131^label:cs":"Moravičany","P6736":"21957"},"geometry":{"type":"Point","coordinates":[16.95186,49.76115]}},{"type":"Feature","properties":{"label:cs":"Kříž na okraji Moravičan vedle silnice","P31":"Pamětní kříž","P31^label:cs":"Pamětní kříž","P131^label:cs":"Moravičany","P6736":"20574"},"geometry":{"type":"Point","coordinates":[16.95177,49.75584]}},{"type":"Feature","properties":{"label:cs":"Kříž u Moravičan vedle silnice","P31":"Pamětní kříž","P31^label:cs":"Pamětní kříž","P131^label:cs":"Moravičany","P6736":"15571"},"geometry":{"type":"Point","coordinates":[16.94934,49.76485]}},{"type":"Feature","properties":{"label:cs":"Smírčí kříž v Moravičanech na křižovatce do Loštic","P31":"Smírčí kříž","P31^label:cs":"Smírčí kříž","P131^label:cs":"Moravičany","P6736":"12847"},"geometry":{"type":"Point","coordinates":[16.95758,49.75817]}},{"type":"Feature","properties":{"label:cs":"Kaplička u Moravičan v poli","P31":"Kaplička","P31^label:cs":"Kaplička","P131^label:cs":"Moravičany","P6736":"11604"},"geometry":{"type":"Point","coordinates":[16.9519,49.75346]}},{"type":"Feature","properties":{"label:cs":"Kaplička svatého Floriána v Moravičanech","P31":"Kaplička","P31^label:cs":"Kaplička","P131^label:cs":"Moravičany","P6736":"11388"},"geometry":{"type":"Point","coordinates":[16.95764,49.75817]}}]}