{"type":"FeatureCollection","features":[{"type":"Feature","properties":{"label:cs":"Sloup se sochou Panny Marie na okraji Loštic","P31":"http://www.wikidata.org/entity/Q4817","P31^label:cs":"Sloup","P131^label:cs":"Loštice","P6736":"20533"},"geometry":{"type":"Point","coordinates":[16.94382,49.73806]}},{"type":"Feature","properties":{"label:cs":"Kříž v Paloníně na návsi před kostelem","P31":"http://www.wikidata.org/entity/Q2309609","P31^label:cs":"Pamětní kříž","P131^label:cs":"Palonín","P6736":"22776"},"geometry":{"type":"Point","coordinates":[16.95328,49.72821]}},{"type":"Feature","properties":{"label:cs":"Pomník padlým v Paloníně na návsi","P31":"http://www.wikidata.org/entity/Q575759","P31^label:cs":"Pomník padlým","P131^label:cs":"Palonín","P6736":"22775"},"geometry":{"type":"Point","coordinates":[16.95318,49.7293]}},{"type":"Feature","properties":{"label:cs":"Socha svatého Jana Nepomuckého v Paloníně","P31":"http://www.wikidata.org/entity/Q179700","P31^label:cs":"Socha","P131^label:cs":"Palonín","P6736":"22499"},"geometry":{"type":"Point","coordinates":[16.95293,49.73059]}},{"type":"Feature","properties":{"label:cs":"Kříž za Palonínem vedle cyklostezky v polích","P31":"http://www.wikidata.org/entity/Q2309609","P31^label:cs":"Pamětní kříž","P131^label:cs":"Palonín","P6736":"20534"},"geometry":{"type":"Point","coordinates":[16.94535,49.73523]}},{"type":"Feature","properties":{"label:cs":"Kříž u Palonína na křižovatce","P31":"http://www.wikidata.org/entity/Q2309609","P31^label:cs":"Pamětní kříž","P131^label:cs":"Palonín","P6736":"11603"},"geometry":{"type":"Point","coordinates":[16.95687,49.73463]}},{"type":"Feature","properties":{"label:cs":"Kaplička svaté Pavlíny u Palonína v poli","P31":"http://www.wikidata.org/entity/Q14552192","P31^label:cs":"Kaplička","P131^label:cs":"Palonín","P6736":"11602"},"geometry":{"type":"Point","coordinates":[16.94905,49.73211]}}]}