{"type":"FeatureCollection","features":[{"type":"Feature","properties":{"label:cs":"Pomník neznámému vojínovi v Kolšově u lesa","P31":"http://www.wikidata.org/entity/Q575759","P31^label:cs":"Pomník padlým","P131^label:cs":"Kolšov","P6736":"25728"},"geometry":{"type":"Point","coordinates":[16.94648,49.9075]}},{"type":"Feature","properties":{"label:cs":"Obrázek nad Kolšovem na okraji lesa","P31":"http://www.wikidata.org/entity/Q478798","P31^label:cs":"Obrázek","P131^label:cs":"Kolšov","P6736":"22583"},"geometry":{"type":"Point","coordinates":[16.94297,49.89472]}},{"type":"Feature","properties":{"label:cs":"Pomník padlým v Kolšově u kaple","P31":"http://www.wikidata.org/entity/Q575759","P31^label:cs":"Pomník padlým","P131^label:cs":"Kolšov","P6736":"20494"},"geometry":{"type":"Point","coordinates":[16.9477,49.90261]}},{"type":"Feature","properties":{"label:cs":"Kříž před kaplí svatého Martina v Kolšově","P31":"http://www.wikidata.org/entity/Q2309609","P31^label:cs":"Pamětní kříž","P131^label:cs":"Kolšov","P6736":"17820"},"geometry":{"type":"Point","coordinates":[16.94785,49.90253]}},{"type":"Feature","properties":{"label:cs":"Kaple svatého Martina v Kolšově","P31":"http://www.wikidata.org/entity/Q108325","P31^label:cs":"Kaple","P131^label:cs":"Kolšov","P6736":"17819"},"geometry":{"type":"Point","coordinates":[16.94791,49.9025]}}]}