{"type":"FeatureCollection","features":[{"type":"Feature","properties":{"label:cs":"Kaplička Nejsvětější Trojice v Moravičanech","P31":"http://www.wikidata.org/entity/Q14552192","P31^label:cs":"Kaplička","P131^label:cs":"Moravičany","P6736":"11788"},"geometry":{"type":"Point","coordinates":[16.96507,49.75322]}},{"type":"Feature","properties":{"label:cs":"Sousoší Panny Marie svatého Floriána a svatého Jana Nepomuckého v Moravičanech u mostu","P31":"http://www.wikidata.org/entity/Q179700","P31^label:cs":"Socha","P131^label:cs":"Moravičany","P6736":"20575"},"geometry":{"type":"Point","coordinates":[16.96338,49.75525]}},{"type":"Feature","properties":{"label:cs":"Pamětní deska Josefa Nováka a Josefa Olejníka v Moravičanech na zdi kostela","P31":"http://www.wikidata.org/entity/Q721747","P31^label:cs":"Pamětní deska","P131^label:cs":"Moravičany","P6736":"24427"},"geometry":{"type":"Point","coordinates":[16.96898,49.75708]}},{"type":"Feature","properties":{"label:cs":"Kaplička Golgota v Moravičanech u vstupu do areálu kostela","P31":"http://www.wikidata.org/entity/Q14552192","P31^label:cs":"Kaplička","P131^label:cs":"Moravičany","P6736":"24450"},"geometry":{"type":"Point","coordinates":[16.96909,49.75708]}},{"type":"Feature","properties":{"label:cs":"Kaple svatého Josefa Stavenice v lese","P31":"http://www.wikidata.org/entity/Q108325","P31^label:cs":"Kaple","P131^label:cs":"Stavenice","P6736":"16223"},"geometry":{"type":"Point","coordinates":[16.98119,49.75686]}}]}