{"type":"FeatureCollection","features":[{"type":"Feature","properties":{"label:cs":"Pomník padlým v Hlivicích na návsi","P31":"http://www.wikidata.org/entity/Q575759","P31^label:cs":"Pomník padlým","P131^label:cs":"Medlov","P6736":"24180"},"geometry":{"type":"Point","coordinates":[17.03765,49.78336]}},{"type":"Feature","properties":{"label:cs":"Kříž u Hlivic vedle cyklostezky","P31":"http://www.wikidata.org/entity/Q2309609","P31^label:cs":"Pamětní kříž","P131^label:cs":"Medlov","P6736":"22562"},"geometry":{"type":"Point","coordinates":[17.04783,49.78522]}},{"type":"Feature","properties":{"label:cs":"Kříž u Medlova vedle silnice do Zadního Újezdu","P31":"http://www.wikidata.org/entity/Q2309609","P31^label:cs":"Pamětní kříž","P131^label:cs":"Medlov","P6736":"20643"},"geometry":{"type":"Point","coordinates":[17.04892,49.79342]}},{"type":"Feature","properties":{"label:cs":"Kříž v Hlivicích před kaplí na návsi","P31":"http://www.wikidata.org/entity/Q2309609","P31^label:cs":"Pamětní kříž","P131^label:cs":"Medlov","P6736":"17703"},"geometry":{"type":"Point","coordinates":[17.03773,49.78313]}},{"type":"Feature","properties":{"label:cs":"Kaple svatého Antonína Paduánského ve Hlivicích","P31":"http://www.wikidata.org/entity/Q108325","P31^label:cs":"Kaple","P131^label:cs":"Medlov","P6736":"17702"},"geometry":{"type":"Point","coordinates":[17.03788,49.78315]}}]}