{"type":"FeatureCollection","features":[{"type":"Feature","properties":{"label:cs":"Kaplička ve Velkých Losinách v Bukovické ulici","P31":"http://www.wikidata.org/entity/Q14552192","P31^label:cs":"Kaplička","P131^label:cs":"Velké Losiny","P6736":"27973"},"geometry":{"type":"Point","coordinates":[17.05725,50.06138]}},{"type":"Feature","properties":{"label:cs":"Kříž ve Velkých Losinách v Zadní ulici","P31":"http://www.wikidata.org/entity/Q2309609","P31^label:cs":"Pamětní kříž","P131^label:cs":"Velké Losiny","P6736":"27971"},"geometry":{"type":"Point","coordinates":[17.05293,50.05617]}},{"type":"Feature","properties":{"label:cs":"Kříž ve Velkých Losinách v Bukovické ulici II","P31":"http://www.wikidata.org/entity/Q2309609","P31^label:cs":"Pamětní kříž","P131^label:cs":"Velké Losiny","P6736":"27965"},"geometry":{"type":"Point","coordinates":[17.05524,50.05541]}},{"type":"Feature","properties":{"label:cs":"Kříž ve Velkých Losinách v Bukovické ulici","P31":"http://www.wikidata.org/entity/Q2309609","P31^label:cs":"Pamětní kříž","P131^label:cs":"Velké Losiny","P6736":"27964"},"geometry":{"type":"Point","coordinates":[17.05315,50.05235]}},{"type":"Feature","properties":{"label:cs":"Kříž ve Velkých Losinách Bukovická ulice","P31":"http://www.wikidata.org/entity/Q2309609","P31^label:cs":"Pamětní kříž","P131^label:cs":"Velké Losiny","P6736":"27963"},"geometry":{"type":"Point","coordinates":[17.0544,50.05216]}}]}