{"type":"FeatureCollection","features":[{"type":"Feature","properties":{"label:cs":"Pomník padlým v Lipince","P31":"http://www.wikidata.org/entity/Q575759","P31^label:cs":"Pomník padlým","P131^label:cs":"Lipinka","P6736":"28921"},"geometry":{"type":"Point","coordinates":[17.0512,49.83701]}},{"type":"Feature","properties":{"label:cs":"Obrázek na okraji Lipinky","P31":"http://www.wikidata.org/entity/Q478798","P31^label:cs":"Obrázek","P131^label:cs":"Lipinka","P6736":"28923"},"geometry":{"type":"Point","coordinates":[17.05632,49.83576]}},{"type":"Feature","properties":{"label:cs":"Kříž východně od Lipinky","P31":"http://www.wikidata.org/entity/Q2309609","P31^label:cs":"Pamětní kříž","P131^label:cs":"Lipinka","P6736":"28924"},"geometry":{"type":"Point","coordinates":[17.05898,49.83514]}},{"type":"Feature","properties":{"label:cs":"Kaple v Lipince na návsi","P31":"http://www.wikidata.org/entity/Q108325","P31^label:cs":"Kaple","P131^label:cs":"Lipinka","P6736":"28927"},"geometry":{"type":"Point","coordinates":[17.05201,49.83704]}},{"type":"Feature","properties":{"label:cs":"Kříž v Lipince u kaple","P31":"http://www.wikidata.org/entity/Q2309609","P31^label:cs":"Pamětní kříž","P131^label:cs":"Lipinka","P6736":"28929"},"geometry":{"type":"Point","coordinates":[17.052,49.83701]}},{"type":"Feature","properties":{"label:cs":"Obrázek západně od Nové Hradečné","P31":"http://www.wikidata.org/entity/Q478798","P31^label:cs":"Obrázek","P131^label:cs":"Nová Hradečná","P6736":"28932"},"geometry":{"type":"Point","coordinates":[17.06558,49.83601]}},{"type":"Feature","properties":{"label:cs":"Křížový kámen v Troubelicích v části Sídliště","P31":"http://www.wikidata.org/entity/Q38411643","P31^label:cs":"Křížový kámen","P131^label:cs":"Troubelice","P6736":"28149"},"geometry":{"type":"Point","coordinates":[17.06391,49.82442]}}]}