{"type":"FeatureCollection","features":[{"type":"Feature","properties":{"label:cs":"Kříž u Choliny vedle silnice","P31":"http://www.wikidata.org/entity/Q2309609","P31^label:cs":"Pamětní kříž","P131^label:cs":"Cholina","P6736":"36528"},"geometry":{"type":"Point","coordinates":[17.05457,49.64936]}},{"type":"Feature","properties":{"label:cs":"Socha Panny Marie v Odrlicích","P31":"http://www.wikidata.org/entity/Q179700","P31^label:cs":"Socha","P131^label:cs":"Senice na Hané","P6736":"36323"},"geometry":{"type":"Point","coordinates":[17.06041,49.64413]}},{"type":"Feature","properties":{"label:cs":"Kříž v Odrlicích před kostelem","P31":"http://www.wikidata.org/entity/Q2309609","P31^label:cs":"Pamětní kříž","P131^label:cs":"Senice na Hané","P6736":"36322"},"geometry":{"type":"Point","coordinates":[17.06164,49.64241]}},{"type":"Feature","properties":{"label:cs":"Kříž na okraji Odrlic","P31":"http://www.wikidata.org/entity/Q2309609","P31^label:cs":"Pamětní kříž","P131^label:cs":"Senice na Hané","P6736":"36321"},"geometry":{"type":"Point","coordinates":[17.06637,49.64048]}},{"type":"Feature","properties":{"label:cs":"Kaplička na okraji Odrlic u rozcestí","P31":"http://www.wikidata.org/entity/Q14552192","P31^label:cs":"Kaplička","P131^label:cs":"Senice na Hané","P6736":"16106"},"geometry":{"type":"Point","coordinates":[17.06456,49.64207]}},{"type":"Feature","properties":{"label:cs":"Pomník padlým v Odrlicích","P31":"http://www.wikidata.org/entity/Q575759","P31^label:cs":"Pomník padlým","P131^label:cs":"Senice na Hané","P6736":"11697"},"geometry":{"type":"Point","coordinates":[17.06154,49.64249]}}]}