{"type":"FeatureCollection","features":[{"type":"Feature","properties":{"label:cs":"Socha v Sobotíně v zámeckém parku","P31":"http://www.wikidata.org/entity/Q179700","P31^label:cs":"Socha","P131^label:cs":"Sobotín","P6736":"40572"},"geometry":{"type":"Point","coordinates":[17.07933,50.01884]}},{"type":"Feature","properties":{"label:cs":"Kašna v Sobotíně u zámku","P31":"http://www.wikidata.org/entity/Q12029081","P31^label:cs":"Kašna","P131^label:cs":"Sobotín","P6736":"40571"},"geometry":{"type":"Point","coordinates":[17.08128,50.0176]}},{"type":"Feature","properties":{"label:cs":"Kašna v Sobotíně v zámeckém parku","P31":"http://www.wikidata.org/entity/Q12029081","P31^label:cs":"Kašna","P131^label:cs":"Sobotín","P6736":"40569"},"geometry":{"type":"Point","coordinates":[17.08049,50.01804]}},{"type":"Feature","properties":{"label:cs":"Pomník v Sobotíně před kostelem","P31":"http://www.wikidata.org/entity/Q4989906","P31^label:cs":"Pomník","P131^label:cs":"Sobotín","P6736":"22945"},"geometry":{"type":"Point","coordinates":[17.09259,50.00907]}},{"type":"Feature","properties":{"label:cs":"Pomník padlým v Sobotíně u kostela","P31":"http://www.wikidata.org/entity/Q575759","P31^label:cs":"Pomník padlým","P131^label:cs":"Sobotín","P6736":"22942"},"geometry":{"type":"Point","coordinates":[17.0925,50.00916]}},{"type":"Feature","properties":{"label:cs":"Kříž východně od Sobotína vedle silnice","P31":"http://www.wikidata.org/entity/Q2309609","P31^label:cs":"Pamětní kříž","P131^label:cs":"Sobotín","P6736":"22927"},"geometry":{"type":"Point","coordinates":[17.08438,50.01909]}},{"type":"Feature","properties":{"label:cs":"Boží muka v Sobotíně poblíž hasičské zbrojnice","P31":"http://www.wikidata.org/entity/Q3395121","P31^label:cs":"Boží muka","P131^label:cs":"Sobotín","P6736":"22885"},"geometry":{"type":"Point","coordinates":[17.09104,50.0112]}},{"type":"Feature","properties":{"label:cs":"Kříž u kostela v Sobotíně","P31":"http://www.wikidata.org/entity/Q2309609","P31^label:cs":"Pamětní kříž","P131^label:cs":"Sobotín","P6736":"11932"},"geometry":{"type":"Point","coordinates":[17.09266,50.00851]}}]}