{"type":"FeatureCollection","features":[{"type":"Feature","properties":{"label:cs":"Pomník padlým v Horní Libině na náměstí","P31":"Pomník padlým","P31^label:cs":"Pomník padlým","P131^label:cs":"Libina","P6736":"22234"},"geometry":{"type":"Point","coordinates":[17.08267,49.87672]}},{"type":"Feature","properties":{"label:cs":"Obrázek v Horní Libině u hlavní silnice","P31":"Obrázek","P31^label:cs":"Obrázek","P131^label:cs":"Libina","P6736":"20795"},"geometry":{"type":"Point","coordinates":[17.0849,49.87683]}},{"type":"Feature","properties":{"label:cs":"Sloup Nejsvětější Trojice v Horní Libině na rozcestí","P31":"Sloup","P31^label:cs":"Sloup","P131^label:cs":"Libina","P6736":"20773"},"geometry":{"type":"Point","coordinates":[17.08412,49.87377]}},{"type":"Feature","properties":{"label:cs":"Kaple svatého Rocha v Horní Libině u potoka","P31":"Kaple","P31^label:cs":"Kaple","P131^label:cs":"Libina","P6736":"20772"},"geometry":{"type":"Point","coordinates":[17.08523,49.87282]}},{"type":"Feature","properties":{"label:cs":"Dřevěný kříž v Horní Libině u hlavní silnice","P31":"Pamětní kříž","P31^label:cs":"Pamětní kříž","P131^label:cs":"Libina","P6736":"20771"},"geometry":{"type":"Point","coordinates":[17.08941,49.8718]}},{"type":"Feature","properties":{"label:cs":"Kaplička v Horní Libině na okraji u cesty","P31":"Kaplička","P31^label:cs":"Kaplička","P131^label:cs":"Libina","P6736":"20770"},"geometry":{"type":"Point","coordinates":[17.08654,49.86987]}},{"type":"Feature","properties":{"label:cs":"Sousoší Kalvárie v Horní Libině na okraji u cesty","P31":"Socha","P31^label:cs":"Socha","P131^label:cs":"Libina","P6736":"20769"},"geometry":{"type":"Point","coordinates":[17.08503,49.87194]}},{"type":"Feature","properties":{"label:cs":"Kříž v Horní Libině na kraji u cesty","P31":"Pamětní kříž","P31^label:cs":"Pamětní kříž","P131^label:cs":"Libina","P6736":"20768"},"geometry":{"type":"Point","coordinates":[17.08087,49.87587]}},{"type":"Feature","properties":{"label:cs":"Hrobka Langerů v Horní Libině na konci parku","P31":"Něco jiného","P31^label:cs":"Něco jiného","P131^label:cs":"Libina","P6736":"20767"},"geometry":{"type":"Point","coordinates":[17.08736,49.87982]}},{"type":"Feature","properties":{"label:cs":"Kříž se sousoším Kalvárie v Horní Libině u kostela","P31":"Pamětní kříž","P31^label:cs":"Pamětní kříž","P131^label:cs":"Libina","P6736":"20766"},"geometry":{"type":"Point","coordinates":[17.08269,49.87855]}},{"type":"Feature","properties":{"label:cs":"Kaplička v Horní Libině u parku","P31":"Kaplička","P31^label:cs":"Kaplička","P131^label:cs":"Libina","P6736":"20765"},"geometry":{"type":"Point","coordinates":[17.08462,49.87917]}},{"type":"Feature","properties":{"label:cs":"Socha Panny Marie v Horní Libině před kostelem","P31":"Socha","P31^label:cs":"Socha","P131^label:cs":"Libina","P6736":"20764"},"geometry":{"type":"Point","coordinates":[17.08283,49.87821]}},{"type":"Feature","properties":{"label:cs":"Socha svatého Jana Nepomuckého v Horní Libině před kostelem","P31":"Socha","P31^label:cs":"Socha","P131^label:cs":"Libina","P6736":"20763"},"geometry":{"type":"Point","coordinates":[17.08284,49.87813]}},{"type":"Feature","properties":{"label:cs":"Kříž v Horní Libině u základní školy","P31":"Pamětní kříž","P31^label:cs":"Pamětní kříž","P131^label:cs":"Libina","P6736":"20762"},"geometry":{"type":"Point","coordinates":[17.07826,49.88012]}},{"type":"Feature","properties":{"label:cs":"Socha dívky v Horní Libině naproti základní škole","P31":"Socha","P31^label:cs":"Socha","P131^label:cs":"Libina","P6736":"20761"},"geometry":{"type":"Point","coordinates":[17.07772,49.88003]}}]}