{"type":"FeatureCollection","features":[{"type":"Feature","properties":{"label:cs":"Pomník padlým v Lazcích","P31":"http://www.wikidata.org/entity/Q575759","P31^label:cs":"Pomník padlým","P131^label:cs":"Troubelice","P6736":"27972"},"geometry":{"type":"Point","coordinates":[17.10107,49.8037]}},{"type":"Feature","properties":{"label:cs":"Kříž na okraji Lazců","P31":"http://www.wikidata.org/entity/Q2309609","P31^label:cs":"Pamětní kříž","P131^label:cs":"Troubelice","P6736":"27970"},"geometry":{"type":"Point","coordinates":[17.1005,49.8005]}},{"type":"Feature","properties":{"label:cs":"Kříž v Lazcích na rozcestí","P31":"http://www.wikidata.org/entity/Q2309609","P31^label:cs":"Pamětní kříž","P131^label:cs":"Troubelice","P6736":"27969"},"geometry":{"type":"Point","coordinates":[17.10382,49.80408]}},{"type":"Feature","properties":{"label:cs":"Sloup Panny Marie v Lazcích na návsi","P31":"http://www.wikidata.org/entity/Q4817","P31^label:cs":"Sloup","P131^label:cs":"Troubelice","P6736":"25039"},"geometry":{"type":"Point","coordinates":[17.10119,49.8041]}},{"type":"Feature","properties":{"label:cs":"Obrázek u Lazců vedle silnice","P31":"http://www.wikidata.org/entity/Q478798","P31^label:cs":"Obrázek","P131^label:cs":"Troubelice","P6736":"17667"},"geometry":{"type":"Point","coordinates":[17.10716,49.80645]}},{"type":"Feature","properties":{"label:cs":"Kříž na rozcestí k Nové Dědině","P31":"http://www.wikidata.org/entity/Q2309609","P31^label:cs":"Pamětní kříž","P131^label:cs":"Uničov","P6736":"29275"},"geometry":{"type":"Point","coordinates":[17.11298,49.79683]}}]}