{"type":"FeatureCollection","features":[{"type":"Feature","properties":{"label:cs":"Kříž ve Slatinkách na rozcestí za obcí","P31":"Pamětní kříž","P31^label:cs":"Pamětní kříž","P131^label:cs":"Slatinky","P6736":"24962"},"geometry":{"type":"Point","coordinates":[17.09513,49.55112]}},{"type":"Feature","properties":{"label:cs":"Pomník padlým v Třebčíně","P31":"Pomník padlým","P31^label:cs":"Pomník padlým","P131^label:cs":"Lutín","P6736":"13271"},"geometry":{"type":"Point","coordinates":[17.11161,49.55098]}},{"type":"Feature","properties":{"label:cs":"Pomník padlým v Lípách","P31":"Pomník padlým","P31^label:cs":"Pomník padlým","P131^label:cs":"Slatinice","P6736":"13270"},"geometry":{"type":"Point","coordinates":[17.1042,49.54595]}},{"type":"Feature","properties":{"label:cs":"Kaple Nalezení svatého Kříže v Lípách","P31":"Kaple","P31^label:cs":"Kaple","P131^label:cs":"Slatinice","P6736":"13267"},"geometry":{"type":"Point","coordinates":[17.10447,49.54594]}},{"type":"Feature","properties":{"label:cs":"Kaple Panny Marie v Očekávání v Třebčíně","P31":"Kaple","P31^label:cs":"Kaple","P131^label:cs":"Lutín","P6736":"13266"},"geometry":{"type":"Point","coordinates":[17.11034,49.55104]}}]}