{"type":"FeatureCollection","features":[{"type":"Feature","properties":{"label:cs":"Mariánský sloup na Masarykově náměstí v Uničově","P31":"http://www.wikidata.org/entity/Q4817","P31^label:cs":"Sloup","P131^label:cs":"Uničov","P6736":"14032"},"geometry":{"type":"Point","coordinates":[17.12134,49.77128]}},{"type":"Feature","properties":{"label:cs":"Mariánský sloup v Uničově na Kostelním náměstí","P31":"http://www.wikidata.org/entity/Q4817","P31^label:cs":"Sloup","P131^label:cs":"Uničov","P6736":"23734"},"geometry":{"type":"Point","coordinates":[17.11994,49.77124]}},{"type":"Feature","properties":{"label:cs":"Kříž v Uničově na Kostelním náměstí","P31":"http://www.wikidata.org/entity/Q2309609","P31^label:cs":"Pamětní kříž","P131^label:cs":"Uničov","P6736":"23735"},"geometry":{"type":"Point","coordinates":[17.1203,49.77102]}},{"type":"Feature","properties":{"label:cs":"Socha svatého Sarcandera v Uničově na Kostelním náměstí","P31":"http://www.wikidata.org/entity/Q179700","P31^label:cs":"Socha","P131^label:cs":"Uničov","P6736":"23736"},"geometry":{"type":"Point","coordinates":[17.11974,49.77075]}},{"type":"Feature","properties":{"label:cs":"Kašna s orlem v Uničově na Masarykově náměstí","P31":"http://www.wikidata.org/entity/Q12029081","P31^label:cs":"Kašna","P131^label:cs":"Uničov","P6736":"23738"},"geometry":{"type":"Point","coordinates":[17.12136,49.77134]}},{"type":"Feature","properties":{"label:cs":"Kašna s Neptunem v Uničově na Masarykově náměstí","P31":"http://www.wikidata.org/entity/Q12029081","P31^label:cs":"Kašna","P131^label:cs":"Uničov","P6736":"23739"},"geometry":{"type":"Point","coordinates":[17.12156,49.77047]}},{"type":"Feature","properties":{"label:cs":"Pomník T. G. Masaryka v Uničově na Masarykově náměstí","P31":"http://www.wikidata.org/entity/Q4989906","P31^label:cs":"Pomník","P131^label:cs":"Uničov","P6736":"23740"},"geometry":{"type":"Point","coordinates":[17.12132,49.77077]}},{"type":"Feature","properties":{"label:cs":"Kříž v Uničově na ulici Haškova","P31":"http://www.wikidata.org/entity/Q2309609","P31^label:cs":"Pamětní kříž","P131^label:cs":"Uničov","P6736":"23741"},"geometry":{"type":"Point","coordinates":[17.12336,49.76975]}},{"type":"Feature","properties":{"label:cs":"Sousoší svatého Jana Nepomuckého v Uničově na Olomoucké ulici","P31":"http://www.wikidata.org/entity/Q179700","P31^label:cs":"Socha","P131^label:cs":"Uničov","P6736":"23742"},"geometry":{"type":"Point","coordinates":[17.12355,49.7691]}},{"type":"Feature","properties":{"label:cs":"Socha Josefa II v Uničově ulice Dr Beneše","P31":"http://www.wikidata.org/entity/Q179700","P31^label:cs":"Socha","P131^label:cs":"Uničov","P6736":"25545"},"geometry":{"type":"Point","coordinates":[17.12118,49.7737]}},{"type":"Feature","properties":{"label:cs":"Pomník padlým v Uničově v ulici Mohelnická","P31":"http://www.wikidata.org/entity/Q575759","P31^label:cs":"Pomník padlým","P131^label:cs":"Uničov","P6736":"26550"},"geometry":{"type":"Point","coordinates":[17.11996,49.77348]}},{"type":"Feature","properties":{"label:cs":"Památná dlažba v Uničově na Masarykově náměstí","P31":"http://www.wikidata.org/entity/Q3328263","P31^label:cs":"Památná dlažba","P131^label:cs":"Uničov","P6736":"26836"},"geometry":{"type":"Point","coordinates":[17.1215,49.77111]}},{"type":"Feature","properties":{"label:cs":"Kříž v Uničově na Šternberské ulici","P31":"http://www.wikidata.org/entity/Q2309609","P31^label:cs":"Pamětní kříž","P131^label:cs":"Uničov","P6736":"28022"},"geometry":{"type":"Point","coordinates":[17.12556,49.77246]}},{"type":"Feature","properties":{"label:cs":"Pamětní deska v Uničově na Městském úřadě","P31":"http://www.wikidata.org/entity/Q721747","P31^label:cs":"Pamětní deska","P131^label:cs":"Uničov","P6736":"32935"},"geometry":{"type":"Point","coordinates":[17.12145,49.77088]}}]}