{"type":"FeatureCollection","features":[{"type":"Feature","properties":{"label:cs":"Socha svatého Václava v Topolanech u kaple","P31":"Socha","P31^label:cs":"Socha","P131^label:cs":"Olomouc","P6736":"13290"},"geometry":{"type":"Point","coordinates":[17.18011,49.58765]}},{"type":"Feature","properties":{"label:cs":"Kaple svatého Floriána v Topolanech","P31":"Kaple","P31^label:cs":"Kaple","P131^label:cs":"Olomouc","P6736":"13089"},"geometry":{"type":"Point","coordinates":[17.17726,49.58445]}},{"type":"Feature","properties":{"label:cs":"Boží muka západně od Topolan","P31":"Boží muka","P31^label:cs":"Boží muka","P131^label:cs":"Olomouc","P6736":"12236"},"geometry":{"type":"Point","coordinates":[17.16976,49.58661]}},{"type":"Feature","properties":{"label:cs":"Boží muka v Topolanech v ulici U svatého Jana","P31":"Boží muka","P31^label:cs":"Boží muka","P131^label:cs":"Olomouc","P6736":"12235"},"geometry":{"type":"Point","coordinates":[17.18158,49.58812]}},{"type":"Feature","properties":{"label:cs":"Boží muka v Topolanech v ulici U svatého Jana","P31":"Boží muka","P31^label:cs":"Boží muka","P131^label:cs":"Olomouc","P6736":"12234"},"geometry":{"type":"Point","coordinates":[17.18154,49.5881]}},{"type":"Feature","properties":{"label:cs":"Smírčí kříž v Topolanech v Bílkově ulici","P31":"Smírčí kříž","P31^label:cs":"Smírčí kříž","P131^label:cs":"Olomouc","P6736":"12212"},"geometry":{"type":"Point","coordinates":[17.18005,49.58504]}}]}