{"type":"FeatureCollection","features":[{"type":"Feature","properties":{"label:cs":"Pomník regulace Blaty v Bystročicích","P31":"http://www.wikidata.org/entity/Q4989906","P31^label:cs":"Pomník","P131^label:cs":"Bystročice","P6736":"30962"},"geometry":{"type":"Point","coordinates":[17.18858,49.5354]}},{"type":"Feature","properties":{"label:cs":"Socha svatého Františka Saleského v Bystročicích","P31":"http://www.wikidata.org/entity/Q179700","P31^label:cs":"Socha","P131^label:cs":"Bystročice","P6736":"30961"},"geometry":{"type":"Point","coordinates":[17.1888,49.53559]}},{"type":"Feature","properties":{"label:cs":"Socha svatého Jana Nepomuckého v Bystročicích","P31":"http://www.wikidata.org/entity/Q179700","P31^label:cs":"Socha","P131^label:cs":"Bystročice","P6736":"30960"},"geometry":{"type":"Point","coordinates":[17.18877,49.53567]}},{"type":"Feature","properties":{"label:cs":"Kříž v Bystročicích u kostela","P31":"http://www.wikidata.org/entity/Q179700","P31^label:cs":"Socha","P131^label:cs":"Bystročice","P6736":"30959"},"geometry":{"type":"Point","coordinates":[17.19401,49.53634]}},{"type":"Feature","properties":{"label:cs":"Pomník padlým v Bystročicích","P31":"http://www.wikidata.org/entity/Q575759","P31^label:cs":"Pomník padlým","P131^label:cs":"Bystročice","P6736":"30958"},"geometry":{"type":"Point","coordinates":[17.19454,49.53655]}},{"type":"Feature","properties":{"label:cs":"Boží muka v Bystročicích u hřbitova","P31":"http://www.wikidata.org/entity/Q3395121","P31^label:cs":"Boží muka","P131^label:cs":"Bystročice","P6736":"27890"},"geometry":{"type":"Point","coordinates":[17.19617,49.53751]}}]}