{"type":"FeatureCollection","features":[{"type":"Feature","properties":{"label:cs":"Ohniště zlaté spirály v Horce nad Moravou","P31":"http://www.wikidata.org/entity/?","P31^label:cs":"Krajinné umění","P131^label:cs":"Horka nad Moravou","P6736":"30184"},"geometry":{"type":"Point","coordinates":[17.20074,49.64165]}},{"type":"Feature","properties":{"label:cs":"Sluneční hora snů v Horce nad Moravou","P31":"http://www.wikidata.org/entity/?","P31^label:cs":"Krajinné umění","P131^label:cs":"Horka nad Moravou","P6736":"30183"},"geometry":{"type":"Point","coordinates":[17.2039,49.64311]}},{"type":"Feature","properties":{"label:cs":"Lesní chrám v Horce nad Moravou","P31":"http://www.wikidata.org/entity/?","P31^label:cs":"Krajinné umění","P131^label:cs":"Horka nad Moravou","P6736":"30182"},"geometry":{"type":"Point","coordinates":[17.20175,49.64383]}},{"type":"Feature","properties":{"label:cs":"Rajská zahrada v Horce nad Moravou","P31":"http://www.wikidata.org/entity/?","P31^label:cs":"Krajinné umění","P131^label:cs":"Horka nad Moravou","P6736":"30181"},"geometry":{"type":"Point","coordinates":[17.19959,49.64343]}},{"type":"Feature","properties":{"label:cs":"Kaplička v Horce nad Moravou u Horecké skalky","P31":"http://www.wikidata.org/entity/Q14552192","P31^label:cs":"Kaplička","P131^label:cs":"Horka nad Moravou","P6736":"28341"},"geometry":{"type":"Point","coordinates":[17.19152,49.64221]}},{"type":"Feature","properties":{"label:cs":"Boží muka u Skrbně vedle polní cesty","P31":"http://www.wikidata.org/entity/Q3395121","P31^label:cs":"Boží muka","P131^label:cs":"Skrbeň","P6736":"15715"},"geometry":{"type":"Point","coordinates":[17.18523,49.64015]}},{"type":"Feature","properties":{"label:cs":"Boží muka u Skrbně na rozcestí","P31":"http://www.wikidata.org/entity/Q3395121","P31^label:cs":"Boží muka","P131^label:cs":"Skrbeň","P6736":"15714"},"geometry":{"type":"Point","coordinates":[17.18354,49.64174]}}]}