{"type":"FeatureCollection","features":[{"type":"Feature","properties":{"label:cs":"Socha svatého Jana Nepomuckého v Liboši","P31":"http://www.wikidata.org/entity/Q179700","P31^label:cs":"Socha","P131^label:cs":"Liboš","P6736":"37379"},"geometry":{"type":"Point","coordinates":[17.22555,49.69097]}},{"type":"Feature","properties":{"label:cs":"Kříž v Liboši na návsi","P31":"http://www.wikidata.org/entity/Q2309609","P31^label:cs":"Pamětní kříž","P131^label:cs":"Liboš","P6736":"37378"},"geometry":{"type":"Point","coordinates":[17.22507,49.69133]}},{"type":"Feature","properties":{"label:cs":"Kaple Povýšení svatého kříže v Liboši","P31":"http://www.wikidata.org/entity/Q108325","P31^label:cs":"Kaple","P131^label:cs":"Liboš","P6736":"37377"},"geometry":{"type":"Point","coordinates":[17.22319,49.69311]}},{"type":"Feature","properties":{"label:cs":"Pomník padlým v Liboši na návsi","P31":"http://www.wikidata.org/entity/Q575759","P31^label:cs":"Pomník padlým","P131^label:cs":"Liboš","P6736":"37116"},"geometry":{"type":"Point","coordinates":[17.22495,49.6914]}},{"type":"Feature","properties":{"label:cs":"Pomník padlým v Liboši na návsi","P31":"http://www.wikidata.org/entity/Q575759","P31^label:cs":"Pomník padlým","P131^label:cs":"Liboš","P6736":"37115"},"geometry":{"type":"Point","coordinates":[17.22443,49.69182]}},{"type":"Feature","properties":{"label:cs":"Pamětní deska ve Štěpánově v ulici Pravoslavná","P31":"http://www.wikidata.org/entity/Q721747","P31^label:cs":"Pamětní deska","P131^label:cs":"Štěpánov","P6736":"42654"},"geometry":{"type":"Point","coordinates":[17.21955,49.68382]}},{"type":"Feature","properties":{"label:cs":"Pomník padlým ve Štěpánově U Parku","P31":"http://www.wikidata.org/entity/Q575759","P31^label:cs":"Pomník padlým","P131^label:cs":"Štěpánov","P6736":"42498"},"geometry":{"type":"Point","coordinates":[17.21963,49.68446]}},{"type":"Feature","properties":{"label:cs":"Pomník padlým ve Štěpánově na Dolní ulici","P31":"http://www.wikidata.org/entity/Q575759","P31^label:cs":"Pomník padlým","P131^label:cs":"Štěpánov","P6736":"42497"},"geometry":{"type":"Point","coordinates":[17.22238,49.6834]}},{"type":"Feature","properties":{"label:cs":"Pomník padlým ve Štěpánově na Dolní ulici","P31":"http://www.wikidata.org/entity/Q575759","P31^label:cs":"Pomník padlým","P131^label:cs":"Štěpánov","P6736":"42496"},"geometry":{"type":"Point","coordinates":[17.22226,49.68375]}},{"type":"Feature","properties":{"label:cs":"Kříž ve Štěpánově před kostelem","P31":"http://www.wikidata.org/entity/Q2309609","P31^label:cs":"Pamětní kříž","P131^label:cs":"Štěpánov","P6736":"42495"},"geometry":{"type":"Point","coordinates":[17.22217,49.68394]}},{"type":"Feature","properties":{"label:cs":"Socha svatého Jana Nepomuckého ve Štěpánově u kostela","P31":"http://www.wikidata.org/entity/Q179700","P31^label:cs":"Socha","P131^label:cs":"Štěpánov","P6736":"42494"},"geometry":{"type":"Point","coordinates":[17.22199,49.68383]}}]}