{"type":"FeatureCollection","features":[{"type":"Feature","properties":{"label:cs":"Centrální kříž na hřbitově v Pavlovicích","P31":"http://www.wikidata.org/entity/Q2309609","P31^label:cs":"Pamětní kříž","P131^label:cs":"Pavlovice u Kojetína","P6736":"39558"},"geometry":{"type":"Point","coordinates":[17.21411,49.30066]}},{"type":"Feature","properties":{"label:cs":"Kříž u hřbitova v Pavlovicích","P31":"http://www.wikidata.org/entity/Q2309609","P31^label:cs":"Pamětní kříž","P131^label:cs":"Pavlovice u Kojetína","P6736":"39557"},"geometry":{"type":"Point","coordinates":[17.21449,49.30061]}},{"type":"Feature","properties":{"label:cs":"Socha svatého Ondřeje u kostela v Pavlovicích","P31":"http://www.wikidata.org/entity/Q179700","P31^label:cs":"Socha","P131^label:cs":"Pavlovice u Kojetína","P6736":"39556"},"geometry":{"type":"Point","coordinates":[17.21444,49.30172]}},{"type":"Feature","properties":{"label:cs":"Kříž u kostela v Pavlovicích","P31":"http://www.wikidata.org/entity/Q2309609","P31^label:cs":"Pamětní kříž","P131^label:cs":"Pavlovice u Kojetína","P6736":"39555"},"geometry":{"type":"Point","coordinates":[17.21443,49.3018]}},{"type":"Feature","properties":{"label:cs":"Kříž pod kostelem v Pavlovicích","P31":"http://www.wikidata.org/entity/Q2309609","P31^label:cs":"Pamětní kříž","P131^label:cs":"Pavlovice u Kojetína","P6736":"39554"},"geometry":{"type":"Point","coordinates":[17.21395,49.30207]}}]}