{"type":"FeatureCollection","features":[{"type":"Feature","properties":{"label:cs":"Mariánský sloup na Dolním náměstí v Olomouci","P31":"http://www.wikidata.org/entity/Q4817","P31^label:cs":"Sloup","P131^label:cs":"Olomouc","P6736":"8947"},"geometry":{"type":"Point","coordinates":[17.25285,49.59208]}},{"type":"Feature","properties":{"label:cs":"Sloup Nejsvětější Trojice na Horním náměstí v Olomouci","P31":"http://www.wikidata.org/entity/Q4817","P31^label:cs":"Sloup","P131^label:cs":"Olomouc","P6736":"14024"},"geometry":{"type":"Point","coordinates":[17.25049,49.59402]}},{"type":"Feature","properties":{"label:cs":"Arionova kašna na Horním náměstí v Olomouci","P31":"http://www.wikidata.org/entity/Q12029081","P31^label:cs":"Kašna","P131^label:cs":"Olomouc","P6736":"14025"},"geometry":{"type":"Point","coordinates":[17.25109,49.5934]}},{"type":"Feature","properties":{"label:cs":"Herkulova kašna na Horním náměstí v Olomouci","P31":"http://www.wikidata.org/entity/Q12029081","P31^label:cs":"Kašna","P131^label:cs":"Olomouc","P6736":"14026"},"geometry":{"type":"Point","coordinates":[17.25102,49.59423]}},{"type":"Feature","properties":{"label:cs":"Caesarova kašna na Horním náměstí v Olomouci","P31":"http://www.wikidata.org/entity/Q12029081","P31^label:cs":"Kašna","P131^label:cs":"Olomouc","P6736":"14027"},"geometry":{"type":"Point","coordinates":[17.25219,49.59403]}},{"type":"Feature","properties":{"label:cs":"Neptunova kašna na Dolním náměstí v Olomouci","P31":"http://www.wikidata.org/entity/Q12029081","P31^label:cs":"Kašna","P131^label:cs":"Olomouc","P6736":"14028"},"geometry":{"type":"Point","coordinates":[17.25238,49.59258]}},{"type":"Feature","properties":{"label:cs":"Jupiterova kašna na Dolním náměstí v Olomouci","P31":"http://www.wikidata.org/entity/Q12029081","P31^label:cs":"Kašna","P131^label:cs":"Olomouc","P6736":"14029"},"geometry":{"type":"Point","coordinates":[17.25337,49.59179]}},{"type":"Feature","properties":{"label:cs":"Socha svatého Floriána na Žerotínově náměstí v Olomouci","P31":"http://www.wikidata.org/entity/Q179700","P31^label:cs":"Socha","P131^label:cs":"Olomouc","P6736":"14030"},"geometry":{"type":"Point","coordinates":[17.25389,49.59426]}},{"type":"Feature","properties":{"label:cs":"Kašna Tritonů na náměstí Republiky v Olomouci","P31":"http://www.wikidata.org/entity/Q12029081","P31^label:cs":"Kašna","P131^label:cs":"Olomouc","P6736":"14031"},"geometry":{"type":"Point","coordinates":[17.25766,49.59625]}},{"type":"Feature","properties":{"label:cs":"Kříž v Olomouci na Žerotínově náměstí u kostela","P31":"http://www.wikidata.org/entity/Q2309609","P31^label:cs":"Pamětní kříž","P131^label:cs":"Olomouc","P6736":"20149"},"geometry":{"type":"Point","coordinates":[17.25397,49.59383]}},{"type":"Feature","properties":{"label:cs":"Socha svatého Jana Nepomuckého v Olomouci v Mahlerově ulici","P31":"http://www.wikidata.org/entity/Q179700","P31^label:cs":"Socha","P131^label:cs":"Olomouc","P6736":"20150"},"geometry":{"type":"Point","coordinates":[17.25365,49.59433]}},{"type":"Feature","properties":{"label:cs":"Socha svatého Jana Sarkandra ve výklenku stejnojmenné kaple v Olomouci","P31":"http://www.wikidata.org/entity/Q179700","P31^label:cs":"Socha","P131^label:cs":"Olomouc","P6736":"32619"},"geometry":{"type":"Point","coordinates":[17.25445,49.59464]}},{"type":"Feature","properties":{"label:cs":"Dřevěný kříž na Biskupském náměstí v Olomouci","P31":"http://www.wikidata.org/entity/Q2309609","P31^label:cs":"Pamětní kříž","P131^label:cs":"Olomouc","P6736":"32621"},"geometry":{"type":"Point","coordinates":[17.26007,49.59605]}},{"type":"Feature","properties":{"label:cs":"Socha Krista ve výklenku zdi na průčelí kostela svatého Michala v Olomouci","P31":"http://www.wikidata.org/entity/Q179700","P31^label:cs":"Socha","P131^label:cs":"Olomouc","P6736":"32637"},"geometry":{"type":"Point","coordinates":[17.25392,49.59394]}},{"type":"Feature","properties":{"label:cs":"Socha Panny Marie ve výklenku zdi na průčelí kostela svatého Michala v Olomouci","P31":"http://www.wikidata.org/entity/Q179700","P31^label:cs":"Socha","P131^label:cs":"Olomouc","P6736":"32638"},"geometry":{"type":"Point","coordinates":[17.25386,49.59384]}},{"type":"Feature","properties":{"label:cs":"Kříž u jihovýchodního nároží kostela svatého Mořice v Olomouci","P31":"http://www.wikidata.org/entity/Q2309609","P31^label:cs":"Pamětní kříž","P131^label:cs":"Olomouc","P6736":"32639"},"geometry":{"type":"Point","coordinates":[17.25173,49.59496]}},{"type":"Feature","properties":{"label:cs":"Sousoší Kristus na hoře Olivetské na jižní stěně kostela svatého Mořice v Olomouci","P31":"http://www.wikidata.org/entity/Q179700","P31^label:cs":"Socha","P131^label:cs":"Olomouc","P6736":"32640"},"geometry":{"type":"Point","coordinates":[17.25112,49.59504]}}]}