{"type":"FeatureCollection","features":[{"type":"Feature","properties":{"label:cs":"Kaplička Panny Marie Opatrovnice na Václavském náměstí v Olomouci","P31":"http://www.wikidata.org/entity/Q14552192","P31^label:cs":"Kaplička","P131^label:cs":"Olomouc","P6736":"32625"},"geometry":{"type":"Point","coordinates":[17.26107,49.59754]}},{"type":"Feature","properties":{"label:cs":"Socha svatého Jana Nepomuckého na Václavském náměstí v Olomouci","P31":"http://www.wikidata.org/entity/Q179700","P31^label:cs":"Socha","P131^label:cs":"Olomouc","P6736":"32630"},"geometry":{"type":"Point","coordinates":[17.26122,49.59777]}},{"type":"Feature","properties":{"label:cs":"Socha Panny Marie ve výklenku zdi na václavském náměstí v Olomouci","P31":"http://www.wikidata.org/entity/Q179700","P31^label:cs":"Socha","P131^label:cs":"Olomouc","P6736":"32633"},"geometry":{"type":"Point","coordinates":[17.26082,49.59778]}},{"type":"Feature","properties":{"label:cs":"Pamětní deska návštěvy W. A. Mozarta v Olomouci v roce 1767","P31":"http://www.wikidata.org/entity/Q721747","P31^label:cs":"Pamětní deska","P131^label:cs":"Olomouc","P6736":"32634"},"geometry":{"type":"Point","coordinates":[17.26152,49.59797]}},{"type":"Feature","properties":{"label:cs":"Socha archanděla v zahradě Arcidiecézního muzea v Olomouci","P31":"http://www.wikidata.org/entity/Q179700","P31^label:cs":"Socha","P131^label:cs":"Olomouc","P6736":"32635"},"geometry":{"type":"Point","coordinates":[17.26157,49.5981]}},{"type":"Feature","properties":{"label:cs":"Reliéf nad vstupními dveřmi kostela svaté Anny v Olomouci","P31":"http://www.wikidata.org/entity/Q245117","P31^label:cs":"Reliéf","P131^label:cs":"Olomouc","P6736":"32636"},"geometry":{"type":"Point","coordinates":[17.26206,49.59805]}}]}