{"type":"FeatureCollection","features":[{"type":"Feature","properties":{"label:cs":"Obrázek svatého Huberta v Dubu nad Moravou","P31":"http://www.wikidata.org/entity/Q478798","P31^label:cs":"Obrázek","P131^label:cs":"Dub nad Moravou","P6736":"15357"},"geometry":{"type":"Point","coordinates":[17.27431,49.48362]}},{"type":"Feature","properties":{"label:cs":"Zvonice v Dubu nad Moravou v části Bolelouc","P31":"http://www.wikidata.org/entity/Q200334","P31^label:cs":"Zvonice","P131^label:cs":"Dub nad Moravou","P6736":"15428"},"geometry":{"type":"Point","coordinates":[17.272,49.49493]}},{"type":"Feature","properties":{"label:cs":"Zvonice v Dubu nad Moravou v části Tučapy","P31":"http://www.wikidata.org/entity/Q200334","P31^label:cs":"Zvonice","P131^label:cs":"Dub nad Moravou","P6736":"15430"},"geometry":{"type":"Point","coordinates":[17.27594,49.48974]}},{"type":"Feature","properties":{"label:cs":"Socha svatého Jana Nepomuckého v Dubu nad Moravou","P31":"http://www.wikidata.org/entity/Q179700","P31^label:cs":"Socha","P131^label:cs":"Dub nad Moravou","P6736":"16777"},"geometry":{"type":"Point","coordinates":[17.27587,49.48976]}},{"type":"Feature","properties":{"label:cs":"Pomník padlým v Dubu nad Moravou u zvonice","P31":"http://www.wikidata.org/entity/Q575759","P31^label:cs":"Pomník padlým","P131^label:cs":"Dub nad Moravou","P6736":"17073"},"geometry":{"type":"Point","coordinates":[17.2758,49.48979]}},{"type":"Feature","properties":{"label:cs":"Socha svatého Václava v Dubu nad Moravou v části Bolelouc","P31":"http://www.wikidata.org/entity/Q179700","P31^label:cs":"Socha","P131^label:cs":"Dub nad Moravou","P6736":"18843"},"geometry":{"type":"Point","coordinates":[17.27195,49.49505]}}]}