{"type":"FeatureCollection","features":[{"type":"Feature","properties":{"label:cs":"Smírčí kříž ve Šternberku na Horním náměstí","P31":"http://www.wikidata.org/entity/Q1640496","P31^label:cs":"Smírčí kříž","P131^label:cs":"Šternberk","P6736":"29007"},"geometry":{"type":"Point","coordinates":[17.30071,49.73174]}},{"type":"Feature","properties":{"label:cs":"Kříž ve Šternberku na Horním náměstí před kostelem","P31":"http://www.wikidata.org/entity/Q2309609","P31^label:cs":"Pamětní kříž","P131^label:cs":"Šternberk","P6736":"26692"},"geometry":{"type":"Point","coordinates":[17.30106,49.73165]}},{"type":"Feature","properties":{"label:cs":"Socha svatého Josefa s Ježíškem ve Šternberku na Horním náměstí","P31":"http://www.wikidata.org/entity/Q179700","P31^label:cs":"Socha","P131^label:cs":"Šternberk","P6736":"26691"},"geometry":{"type":"Point","coordinates":[17.30103,49.7318]}},{"type":"Feature","properties":{"label:cs":"Pomník padlým ve Šternberku na Horním náměstí","P31":"http://www.wikidata.org/entity/Q575759","P31^label:cs":"Pomník padlým","P131^label:cs":"Šternberk","P6736":"26690"},"geometry":{"type":"Point","coordinates":[17.30115,49.73182]}},{"type":"Feature","properties":{"label:cs":"Pomník padlým ve Šternberku na náměstí Svobody","P31":"http://www.wikidata.org/entity/Q575759","P31^label:cs":"Pomník padlým","P131^label:cs":"Šternberk","P6736":"26689"},"geometry":{"type":"Point","coordinates":[17.29659,49.72649]}},{"type":"Feature","properties":{"label:cs":"Socha svatého Jana Nepomuckého ve Šternberku na Potoční ulici","P31":"http://www.wikidata.org/entity/Q179700","P31^label:cs":"Socha","P131^label:cs":"Šternberk","P6736":"26688"},"geometry":{"type":"Point","coordinates":[17.29573,49.73071]}},{"type":"Feature","properties":{"label:cs":"Sloup se sochou Ecce Homo ve Šternberku v Bezručově ulici","P31":"http://www.wikidata.org/entity/Q4817","P31^label:cs":"Sloup","P131^label:cs":"Šternberk","P6736":"26687"},"geometry":{"type":"Point","coordinates":[17.29713,49.72847]}},{"type":"Feature","properties":{"label:cs":"Altán Zelená budka nad Šternberkem u naučné stezky Prabába","P31":"http://www.wikidata.org/entity/Q961082","P31^label:cs":"Altán","P131^label:cs":"Šternberk","P6736":"26686"},"geometry":{"type":"Point","coordinates":[17.30708,49.73341]}},{"type":"Feature","properties":{"label:cs":"Hodiny ve Šternberku na Hlavním náměstí","P31":"http://www.wikidata.org/entity/Q376","P31^label:cs":"Hodiny","P131^label:cs":"Šternberk","P6736":"26685"},"geometry":{"type":"Point","coordinates":[17.29875,49.73033]}},{"type":"Feature","properties":{"label:cs":"Smírčí kříž ve Šternberku na Horním náměstí","P31":"http://www.wikidata.org/entity/Q1640496","P31^label:cs":"Smírčí kříž","P131^label:cs":"Šternberk","P6736":"26684"},"geometry":{"type":"Point","coordinates":[17.30072,49.73174]}},{"type":"Feature","properties":{"label:cs":"Kašna na Hlavním náměstí ve Šternberku","P31":"http://www.wikidata.org/entity/Q12029081","P31^label:cs":"Kašna","P131^label:cs":"Šternberk","P6736":"14034"},"geometry":{"type":"Point","coordinates":[17.29887,49.73003]}},{"type":"Feature","properties":{"label:cs":"Mariánský sloup na Horním náměstí ve Šternberku","P31":"http://www.wikidata.org/entity/Q4817","P31^label:cs":"Sloup","P131^label:cs":"Šternberk","P6736":"14033"},"geometry":{"type":"Point","coordinates":[17.30033,49.7317]}}]}