{"type":"FeatureCollection","features":[{"type":"Feature","properties":{"label:cs":"Kříž u kostela svatých Cyrila a Metoděje v Babicích","P31":"http://www.wikidata.org/entity/Q2309609","P31^label:cs":"Pamětní kříž","P131^label:cs":"Babice","P6736":"39845"},"geometry":{"type":"Point","coordinates":[17.47992,49.12181]}},{"type":"Feature","properties":{"label:cs":"Kříž u domu č. 95 v Babicích","P31":"http://www.wikidata.org/entity/Q2309609","P31^label:cs":"Pamětní kříž","P131^label:cs":"Babice","P6736":"39844"},"geometry":{"type":"Point","coordinates":[17.47859,49.12253]}},{"type":"Feature","properties":{"label:cs":"Socha Panny Marie v Babicích","P31":"http://www.wikidata.org/entity/Q179700","P31^label:cs":"Socha","P131^label:cs":"Babice","P6736":"39843"},"geometry":{"type":"Point","coordinates":[17.47491,49.12133]}},{"type":"Feature","properties":{"label:cs":"Pomník obětem 2. světové války v Babicích","P31":"http://www.wikidata.org/entity/Q4989906","P31^label:cs":"Pomník","P131^label:cs":"Babice","P6736":"39842"},"geometry":{"type":"Point","coordinates":[17.47819,49.12203]}},{"type":"Feature","properties":{"label:cs":"Pomník padlým v Babicích","P31":"http://www.wikidata.org/entity/Q575759","P31^label:cs":"Pomník padlým","P131^label:cs":"Babice","P6736":"39841"},"geometry":{"type":"Point","coordinates":[17.47823,49.12204]}}]}