{"type":"FeatureCollection","features":[{"type":"Feature","properties":{"label:cs":"Památník osvobození v Jamnici","P31":"http://www.wikidata.org/entity/Q5003624","P31^label:cs":"Památník","P131^label:cs":"Stěbořice","P6736":"29417"},"geometry":{"type":"Point","coordinates":[17.78872,49.96043]}},{"type":"Feature","properties":{"label:cs":"Kříž v Jamnici","P31":"http://www.wikidata.org/entity/Q2309609","P31^label:cs":"Pamětní kříž","P131^label:cs":"Stěbořice","P6736":"29416"},"geometry":{"type":"Point","coordinates":[17.78671,49.95925]}},{"type":"Feature","properties":{"label:cs":"Kříž jihozápadně od Jamnice","P31":"http://www.wikidata.org/entity/Q2309609","P31^label:cs":"Pamětní kříž","P131^label:cs":"Stěbořice","P6736":"29415"},"geometry":{"type":"Point","coordinates":[17.78304,49.95744]}},{"type":"Feature","properties":{"label:cs":"Kříž v Jamnici jižní okraj","P31":"http://www.wikidata.org/entity/Q2309609","P31^label:cs":"Pamětní kříž","P131^label:cs":"Stěbořice","P6736":"29414"},"geometry":{"type":"Point","coordinates":[17.78807,49.9585]}},{"type":"Feature","properties":{"label:cs":"Kaplička v Jamnici","P31":"http://www.wikidata.org/entity/Q14552192","P31^label:cs":"Kaplička","P131^label:cs":"Stěbořice","P6736":"29411"},"geometry":{"type":"Point","coordinates":[17.78839,49.96019]}},{"type":"Feature","properties":{"label:cs":"Kříž jižně od Jamnice","P31":"http://www.wikidata.org/entity/Q2309609","P31^label:cs":"Pamětní kříž","P131^label:cs":"Stěbořice","P6736":"29261"},"geometry":{"type":"Point","coordinates":[17.77978,49.95296]}},{"type":"Feature","properties":{"label:cs":"Kříž v Jamnici u kaple","P31":"http://www.wikidata.org/entity/Q2309609","P31^label:cs":"Pamětní kříž","P131^label:cs":"Stěbořice","P6736":"29260"},"geometry":{"type":"Point","coordinates":[17.78688,49.95947]}}]}