{"type":"FeatureCollection","features":[{"type":"Feature","properties":{"label:cs":"Kříž v Komárově na křižovatce ulic Ostravská a Podvihovská","P31":"http://www.wikidata.org/entity/Q2309609","P31^label:cs":"Pamětní kříž","P131^label:cs":"Opava","P6736":"29434"},"geometry":{"type":"Point","coordinates":[17.96388,49.91748]}},{"type":"Feature","properties":{"label:cs":"Kříž v Komárově v Podvihovské ulici","P31":"http://www.wikidata.org/entity/Q2309609","P31^label:cs":"Pamětní kříž","P131^label:cs":"Opava","P6736":"29435"},"geometry":{"type":"Point","coordinates":[17.9675,49.91187]}},{"type":"Feature","properties":{"label:cs":"Pomník padlým v Komárově u Opavy","P31":"http://www.wikidata.org/entity/Q575759","P31^label:cs":"Pomník padlým","P131^label:cs":"Opava","P6736":"29436"},"geometry":{"type":"Point","coordinates":[17.96833,49.91414]}},{"type":"Feature","properties":{"label:cs":"Kříž v Komárově před kostelem svatého Prokopa","P31":"http://www.wikidata.org/entity/Q2309609","P31^label:cs":"Pamětní kříž","P131^label:cs":"Opava","P6736":"29437"},"geometry":{"type":"Point","coordinates":[17.96861,49.91432]}},{"type":"Feature","properties":{"label:cs":"Kaplička v Komárově v Dlouhé ulici","P31":"http://www.wikidata.org/entity/Q14552192","P31^label:cs":"Kaplička","P131^label:cs":"Opava","P6736":"29438"},"geometry":{"type":"Point","coordinates":[17.96826,49.91394]}},{"type":"Feature","properties":{"label:cs":"Obrázek v Komárově v Ostravské ulici","P31":"http://www.wikidata.org/entity/Q478798","P31^label:cs":"Obrázek","P131^label:cs":"Opava","P6736":"29439"},"geometry":{"type":"Point","coordinates":[17.96925,49.91642]}}]}