{"type":"FeatureCollection","features":[{"type":"Feature","properties":{"label:cs":"Kříž v Dolním Benešově v Hájecké ulici","P31":"http://www.wikidata.org/entity/Q2309609","P31^label:cs":"Pamětní kříž","P131^label:cs":"Dolní Benešov","P6736":"29302"},"geometry":{"type":"Point","coordinates":[18.11315,49.91284]}},{"type":"Feature","properties":{"label:cs":"Pomník Cypriána Lelka v Dolním Benešově v zámeckém parku","P31":"http://www.wikidata.org/entity/Q4989906","P31^label:cs":"Pomník","P131^label:cs":"Dolní Benešov","P6736":"29301"},"geometry":{"type":"Point","coordinates":[18.11492,49.91675]}},{"type":"Feature","properties":{"label:cs":"Socha Panny Marie v Dolním Benešově na náměstí Cypriána Lelka","P31":"http://www.wikidata.org/entity/Q179700","P31^label:cs":"Socha","P131^label:cs":"Dolní Benešov","P6736":"29300"},"geometry":{"type":"Point","coordinates":[18.11502,49.91862]}},{"type":"Feature","properties":{"label:cs":"Socha svatého Floriána v Dolním Benešově na náměstí Svobody","P31":"http://www.wikidata.org/entity/Q179700","P31^label:cs":"Socha","P131^label:cs":"Dolní Benešov","P6736":"29299"},"geometry":{"type":"Point","coordinates":[18.11441,49.9197]}},{"type":"Feature","properties":{"label:cs":"Dřevěný kříž v Dolním Benešově v Hlučínské ulici","P31":"http://www.wikidata.org/entity/Q2309609","P31^label:cs":"Pamětní kříž","P131^label:cs":"Dolní Benešov","P6736":"29298"},"geometry":{"type":"Point","coordinates":[18.12214,49.91901]}}]}