{"type":"FeatureCollection","features":[{"type":"Feature","properties":{"label:cs":"Sluneční hodiny v Píšti u kostela svatého Vavřince","P31":"http://www.wikidata.org/entity/Q376","P31^label:cs":"Hodiny","P131^label:cs":"Píšť","P6736":"29342"},"geometry":{"type":"Point","coordinates":[18.1938,49.97837]}},{"type":"Feature","properties":{"label:cs":"Kaplička v Píšti na křižovatce ulic Ratibořská a Hůrecká","P31":"http://www.wikidata.org/entity/Q14552192","P31^label:cs":"Kaplička","P131^label:cs":"Píšť","P6736":"29343"},"geometry":{"type":"Point","coordinates":[18.1939,49.97858]}},{"type":"Feature","properties":{"label:cs":"Kříž v Píšti u kostela svatého Vavřince vlevo","P31":"http://www.wikidata.org/entity/Q2309609","P31^label:cs":"Pamětní kříž","P131^label:cs":"Píšť","P6736":"29344"},"geometry":{"type":"Point","coordinates":[18.19442,49.97844]}},{"type":"Feature","properties":{"label:cs":"Kříž v Píšti u kostela svatého Vavřince vpravo","P31":"http://www.wikidata.org/entity/Q2309609","P31^label:cs":"Pamětní kříž","P131^label:cs":"Píšť","P6736":"29345"},"geometry":{"type":"Point","coordinates":[18.19441,49.97835]}},{"type":"Feature","properties":{"label:cs":"Kříž v Píšti u státní hranice","P31":"http://www.wikidata.org/entity/Q2309609","P31^label:cs":"Pamětní kříž","P131^label:cs":"Píšť","P6736":"29349"},"geometry":{"type":"Point","coordinates":[18.21376,49.9794]}}]}