{"type":"FeatureCollection","features":[{"type":"Feature","properties":{"label:cs":"Pamětní deska na hasičské zbrojnici v Morávce","P31":"Q721747","P31^label:cs":"Pamětní deska","P131^label:cs":"Morávka","P6736":"14891"},"geometry":{"type":"Point","coordinates":[18.51596,49.60123]}},{"type":"Feature","properties":{"label:cs":"Zvonička na počátku údolí Vlaského v Morávce","P31":"Q10861631","P31^label:cs":"Zvonička","P131^label:cs":"Morávka","P6736":"14889"},"geometry":{"type":"Point","coordinates":[18.51035,49.59879]}},{"type":"Feature","properties":{"label:cs":"Dřevěná boží muka v Morávce","P31":"Q3395121","P31^label:cs":"Boží muka","P131^label:cs":"Morávka","P6736":"14884"},"geometry":{"type":"Point","coordinates":[18.51785,49.60499]}},{"type":"Feature","properties":{"label:cs":"Obrázek v údolí Malého Lipového v Morávce","P31":"Q478798","P31^label:cs":"Obrázek","P131^label:cs":"Morávka","P6736":"14883"},"geometry":{"type":"Point","coordinates":[18.5222,49.60966]}},{"type":"Feature","properties":{"label:cs":"Kříž u silnice z Pražma do Morávky","P31":"Q2309609","P31^label:cs":"Pamětní kříž","P131^label:cs":"Morávka","P6736":"14870"},"geometry":{"type":"Point","coordinates":[18.50633,49.60559]}}]}